[
    {
        "country": "AF",
        "name": "Zorkot",
        "lat": "33.54149",
        "lng": "69.73446"
    },
    {
        "country": "AF",
        "name": "Wul\u00easwali Bihsud",
        "lat": "34.3436",
        "lng": "67.90567"
    },
    {
        "country": "AF",
        "name": "Kuhsan",
        "lat": "34.65389",
        "lng": "61.19778"
    },
    {
        "country": "AF",
        "name": "Lash",
        "lat": "35.3782",
        "lng": "64.77457"
    },
    {
        "country": "AF",
        "name": "Tukzar",
        "lat": "35.94831",
        "lng": "66.42132"
    },
    {
        "country": "AF",
        "name": "Miray",
        "lat": "33.32462",
        "lng": "68.44068"
    },
    {
        "country": "AF",
        "name": "Aq Kupruk",
        "lat": "36.08352",
        "lng": "66.84029"
    },
    {
        "country": "AF",
        "name": "Zurmat",
        "lat": "33.43778",
        "lng": "69.02774"
    },
    {
        "country": "AF",
        "name": "Zaybak",
        "lat": "36.52947",
        "lng": "71.3441"
    },
    {
        "country": "AF",
        "name": "Ziarat-e Shah Maqsud",
        "lat": "31.9848",
        "lng": "65.4736"
    },
    {
        "country": "AF",
        "name": "Zindah Jan",
        "lat": "34.34264",
        "lng": "61.74675"
    },
    {
        "country": "AF",
        "name": "Zarghun Shahr",
        "lat": "32.84734",
        "lng": "68.44573"
    },
    {
        "country": "AF",
        "name": "Za?ah Sharan",
        "lat": "33.14641",
        "lng": "68.79213"
    },
    {
        "country": "AF",
        "name": "Zaranj",
        "lat": "30.95962",
        "lng": "61.86037"
    },
    {
        "country": "AF",
        "name": "Zamto K\u00ealay",
        "lat": "32.3726",
        "lng": "66.17708"
    },
    {
        "country": "AF",
        "name": "Yangi Qal\u2018ah",
        "lat": "37.46572",
        "lng": "69.61131"
    },
    {
        "country": "AF",
        "name": "Ya?y\u00e1 Khel",
        "lat": "32.93742",
        "lng": "68.64622"
    },
    {
        "country": "AF",
        "name": "Washer",
        "lat": "32.25122",
        "lng": "63.85553"
    },
    {
        "country": "AF",
        "name": "Tormay",
        "lat": "33.68847",
        "lng": "68.40205"
    },
    {
        "country": "AF",
        "name": "Tulak",
        "lat": "33.97509",
        "lng": "63.72868"
    },
    {
        "country": "AF",
        "name": "Titan",
        "lat": "33.69032",
        "lng": "63.86361"
    },
    {
        "country": "AF",
        "name": "Tir Pul",
        "lat": "34.59431",
        "lng": "61.26895"
    },
    {
        "country": "AF",
        "name": "Taywarah",
        "lat": "33.52118",
        "lng": "64.42116"
    },
    {
        "country": "AF",
        "name": "Bazar-e Tashkan",
        "lat": "36.88168",
        "lng": "70.27674"
    },
    {
        "country": "AF",
        "name": "Tarinkot",
        "lat": "32.62998",
        "lng": "65.87806"
    },
    {
        "country": "AF",
        "name": "Taloqan",
        "lat": "36.73605",
        "lng": "69.53451"
    },
    {
        "country": "AF",
        "name": "Tagaw-Bay",
        "lat": "35.69941",
        "lng": "66.06164"
    },
    {
        "country": "AF",
        "name": "Tagab",
        "lat": "34.85501",
        "lng": "69.64917"
    },
    {
        "country": "AF",
        "name": "Markaz-e ?ukumat-e Sultan-e Bakwah",
        "lat": "32.24139",
        "lng": "62.94936"
    },
    {
        "country": "AF",
        "name": "Spin Boldak",
        "lat": "31.00575",
        "lng": "66.40001"
    },
    {
        "country": "AF",
        "name": "Sperah",
        "lat": "33.20204",
        "lng": "69.5152"
    },
    {
        "country": "AF",
        "name": "Sozmah Qal\u2018ah",
        "lat": "36.09916",
        "lng": "66.20823"
    },
    {
        "country": "AF",
        "name": "Siyahgird",
        "lat": "35.00553",
        "lng": "68.85578"
    },
    {
        "country": "AF",
        "name": "Sheywah",
        "lat": "34.57169",
        "lng": "70.58859"
    },
    {
        "country": "AF",
        "name": "Shin?an?",
        "lat": "33.30294",
        "lng": "62.1474"
    },
    {
        "country": "AF",
        "name": "Shaykh Amir K\u00ealay",
        "lat": "33.28744",
        "lng": "69.91283"
    },
    {
        "country": "AF",
        "name": "Qashqal",
        "lat": "35.03975",
        "lng": "69.00685"
    },
    {
        "country": "AF",
        "name": "Shibirghan",
        "lat": "36.66757",
        "lng": "65.7529"
    },
    {
        "country": "AF",
        "name": "Shwak",
        "lat": "33.42386",
        "lng": "69.37684"
    },
    {
        "country": "AF",
        "name": "Shahr-e Safa",
        "lat": "31.80347",
        "lng": "66.32376"
    },
    {
        "country": "AF",
        "name": "Shahran",
        "lat": "36.97984",
        "lng": "70.73928"
    },
    {
        "country": "AF",
        "name": "Shahrak",
        "lat": "34.10737",
        "lng": "64.3052"
    },
    {
        "country": "AF",
        "name": "\u2018Alaqahdari Shah Joy",
        "lat": "32.52154",
        "lng": "67.41315"
    },
    {
        "country": "AF",
        "name": "Wul\u00easwali Sayyid Karam",
        "lat": "33.69056",
        "lng": "69.36881"
    },
    {
        "country": "AF",
        "name": "Markaz-e Sayyidabad",
        "lat": "34.00037",
        "lng": "68.71346"
    },
    {
        "country": "AF",
        "name": "Sayad",
        "lat": "36.13529",
        "lng": "65.8297"
    },
    {
        "country": "AF",
        "name": "Sidqabad",
        "lat": "35.02298",
        "lng": "69.35112"
    },
    {
        "country": "AF",
        "name": "Sayagaz",
        "lat": "32.56521",
        "lng": "67.03324"
    },
    {
        "country": "AF",
        "name": "Sar-e Tayghan",
        "lat": "33.50998",
        "lng": "65.67632"
    },
    {
        "country": "AF",
        "name": "Sarobi",
        "lat": "34.58962",
        "lng": "69.76005"
    },
    {
        "country": "AF",
        "name": "Sar Ka?i",
        "lat": "34.79023",
        "lng": "71.10962"
    },
    {
        "country": "AF",
        "name": "Sarfiraz Kala",
        "lat": "32.98333",
        "lng": "67.96517"
    },
    {
        "country": "AF",
        "name": "Sar-e Pul",
        "lat": "36.21544",
        "lng": "65.93249"
    },
    {
        "country": "AF",
        "name": "Sar Chakan",
        "lat": "35.70177",
        "lng": "65.23055"
    },
    {
        "country": "AF",
        "name": "Sangin",
        "lat": "32.07275",
        "lng": "64.8359"
    },
    {
        "country": "AF",
        "name": "Sang-e Mashah",
        "lat": "33.1396",
        "lng": "67.44046"
    },
    {
        "country": "AF",
        "name": "Sang-e Charak",
        "lat": "35.84972",
        "lng": "66.43694"
    },
    {
        "country": "AF",
        "name": "Sang Atesh",
        "lat": "35.248",
        "lng": "63.0044"
    },
    {
        "country": "AF",
        "name": "Sangar Saray",
        "lat": "34.40744",
        "lng": "70.63937"
    },
    {
        "country": "AF",
        "name": "Aibak",
        "lat": "36.26468",
        "lng": "68.01551"
    },
    {
        "country": "AF",
        "name": "Ru-ye Sang",
        "lat": "35.31999",
        "lng": "67.63387"
    },
    {
        "country": "AF",
        "name": "Rudbar",
        "lat": "30.15",
        "lng": "62.6"
    },
    {
        "country": "AF",
        "name": "Rustaq",
        "lat": "37.12604",
        "lng": "69.83045"
    },
    {
        "country": "AF",
        "name": "Rabat-e Sangi-ye Pa\u2019in",
        "lat": "34.79951",
        "lng": "62.13917"
    },
    {
        "country": "AF",
        "name": "Ramak",
        "lat": "33.52234",
        "lng": "68.6264"
    },
    {
        "country": "AF",
        "name": "Qurghan",
        "lat": "36.91939",
        "lng": "65.0649"
    },
    {
        "country": "AF",
        "name": "Quchanghi",
        "lat": "34.06183",
        "lng": "66.27801"
    },
    {
        "country": "AF",
        "name": "Sangalak-i-Kaisar",
        "lat": "35.68747",
        "lng": "64.29318"
    },
    {
        "country": "AF",
        "name": "Qarqin",
        "lat": "37.41853",
        "lng": "66.04358"
    },
    {
        "country": "AF",
        "name": "Qarghah\u2019i",
        "lat": "34.55402",
        "lng": "70.24292"
    },
    {
        "country": "AF",
        "name": "Qarchi Gak",
        "lat": "37.03999",
        "lng": "66.78891"
    },
    {
        "country": "AF",
        "name": "Qarawul",
        "lat": "37.21959",
        "lng": "68.7802"
    },
    {
        "country": "AF",
        "name": "Qarah Bagh",
        "lat": "34.94023",
        "lng": "61.77589"
    },
    {
        "country": "AF",
        "name": "Qarah Bagh",
        "lat": "33.19801",
        "lng": "68.10798"
    },
    {
        "country": "AF",
        "name": "Qala i Naw",
        "lat": "34.98735",
        "lng": "63.12891"
    },
    {
        "country": "AF",
        "name": "Qal\u2018ah-ye Kuf",
        "lat": "38.04119",
        "lng": "70.47298"
    },
    {
        "country": "AF",
        "name": "Qal\u2018ah-ye Kuhnah",
        "lat": "32.61591",
        "lng": "63.66681"
    },
    {
        "country": "AF",
        "name": "Qal\u2018ah-ye Shahr",
        "lat": "35.54729",
        "lng": "65.5676"
    },
    {
        "country": "AF",
        "name": "Qalat",
        "lat": "32.10575",
        "lng": "66.90833"
    },
    {
        "country": "AF",
        "name": "Qal\u2018ah-ye Shahi",
        "lat": "34.64921",
        "lng": "70.5914"
    },
    {
        "country": "AF",
        "name": "Qadis",
        "lat": "34.8085",
        "lng": "63.43003"
    },
    {
        "country": "AF",
        "name": "Parun",
        "lat": "35.42064",
        "lng": "70.92261"
    },
    {
        "country": "AF",
        "name": "Pul-e Khumri",
        "lat": "35.94458",
        "lng": "68.71512"
    },
    {
        "country": "AF",
        "name": "Pul-e \u2018Alam",
        "lat": "33.99529",
        "lng": "69.02274"
    },
    {
        "country": "AF",
        "name": "Pasnay",
        "lat": "35.76664",
        "lng": "65.76486"
    },
    {
        "country": "AF",
        "name": "Pashmul",
        "lat": "31.5572",
        "lng": "65.4343"
    },
    {
        "country": "AF",
        "name": "Pasaband",
        "lat": "33.68956",
        "lng": "64.8531"
    },
    {
        "country": "AF",
        "name": "Panjab",
        "lat": "34.38795",
        "lng": "67.02327"
    },
    {
        "country": "AF",
        "name": "Paghman",
        "lat": "34.58787",
        "lng": "68.95091"
    },
    {
        "country": "AF",
        "name": "Omnah",
        "lat": "32.90029",
        "lng": "68.79627"
    },
    {
        "country": "AF",
        "name": "Qaryeh-ye Owbeh",
        "lat": "34.36972",
        "lng": "63.17639"
    },
    {
        "country": "AF",
        "name": "Uruzgan",
        "lat": "32.92775",
        "lng": "66.63253"
    },
    {
        "country": "AF",
        "name": "Urgun",
        "lat": "32.9515",
        "lng": "69.1828"
    },
    {
        "country": "AF",
        "name": "Nusay",
        "lat": "38.4435",
        "lng": "70.80413"
    },
    {
        "country": "AF",
        "name": "Nurgal",
        "lat": "34.61341",
        "lng": "70.76498"
    },
    {
        "country": "AF",
        "name": "Now Zad",
        "lat": "32.40315",
        "lng": "64.46959"
    },
    {
        "country": "AF",
        "name": "Nili",
        "lat": "33.72178",
        "lng": "66.13023"
    },
    {
        "country": "AF",
        "name": "Nayak",
        "lat": "34.73414",
        "lng": "66.95292"
    },
    {
        "country": "AF",
        "name": "Nayak",
        "lat": "32.5723",
        "lng": "66.77403"
    },
    {
        "country": "AF",
        "name": "Now Dahanak",
        "lat": "35.62398",
        "lng": "70.00511"
    },
    {
        "country": "AF",
        "name": "Okak",
        "lat": "33.89793",
        "lng": "67.95652"
    },
    {
        "country": "AF",
        "name": "Na?ay",
        "lat": "35.21995",
        "lng": "71.52284"
    },
    {
        "country": "AF",
        "name": "Narang",
        "lat": "34.76009",
        "lng": "71.04738"
    },
    {
        "country": "AF",
        "name": "Nik\u00eah",
        "lat": "33.18934",
        "lng": "69.27179"
    },
    {
        "country": "AF",
        "name": "Nahrin",
        "lat": "36.0649",
        "lng": "69.13343"
    },
    {
        "country": "AF",
        "name": "?ukumat-e Nad \u2018Ali",
        "lat": "31.64286",
        "lng": "64.23982"
    },
    {
        "country": "AF",
        "name": "Mus\u00e1 Qal\u2018ah",
        "lat": "32.44565",
        "lng": "64.74486"
    },
    {
        "country": "AF",
        "name": "Bala Murghab",
        "lat": "35.58408",
        "lng": "63.32886"
    },
    {
        "country": "AF",
        "name": "Muq\u00ear",
        "lat": "32.82009",
        "lng": "67.76934"
    },
    {
        "country": "AF",
        "name": "Mu?ammad Aghah Wuluswali",
        "lat": "34.21422",
        "lng": "69.10026"
    },
    {
        "country": "AF",
        "name": "Mizan \u2018Alaqahdari",
        "lat": "32.17635",
        "lng": "66.51271"
    },
    {
        "country": "AF",
        "name": "Mir Bachah Ko?",
        "lat": "34.74999",
        "lng": "69.11899"
    },
    {
        "country": "AF",
        "name": "Miran",
        "lat": "34.22037",
        "lng": "68.31259"
    },
    {
        "country": "AF",
        "name": "Mirabad",
        "lat": "30.43624",
        "lng": "61.8383"
    },
    {
        "country": "AF",
        "name": "Maymana",
        "lat": "35.92139",
        "lng": "64.78361"
    },
    {
        "country": "AF",
        "name": "Maidan Khulah",
        "lat": "33.64916",
        "lng": "69.7812"
    },
    {
        "country": "AF",
        "name": "Mingajik",
        "lat": "37.0279",
        "lng": "66.12817"
    },
    {
        "country": "AF",
        "name": "Mehtar Lam",
        "lat": "34.67139",
        "lng": "70.20944"
    },
    {
        "country": "AF",
        "name": "Mazar-e Sharif",
        "lat": "36.70904",
        "lng": "67.11087"
    },
    {
        "country": "AF",
        "name": "Maymay",
        "lat": "38.40856",
        "lng": "71.03839"
    },
    {
        "country": "AF",
        "name": "Muta Khan",
        "lat": "33.24001",
        "lng": "68.8663"
    },
    {
        "country": "AF",
        "name": "Mashhad",
        "lat": "36.81665",
        "lng": "70.10211"
    },
    {
        "country": "AF",
        "name": "Mardian",
        "lat": "36.99252",
        "lng": "66.29654"
    },
    {
        "country": "AF",
        "name": "Mandol",
        "lat": "35.28403",
        "lng": "70.17017"
    },
    {
        "country": "AF",
        "name": "Mama Khel",
        "lat": "34.24494",
        "lng": "69.9968"
    },
    {
        "country": "AF",
        "name": "Lashkar Gah",
        "lat": "31.59382",
        "lng": "64.37161"
    },
    {
        "country": "AF",
        "name": "Lash-e Juwayn",
        "lat": "31.71382",
        "lng": "61.62272"
    },
    {
        "country": "AF",
        "name": "Larkird",
        "lat": "35.48936",
        "lng": "66.66409"
    },
    {
        "country": "AF",
        "name": "La\u2018l",
        "lat": "34.50141",
        "lng": "66.27997"
    },
    {
        "country": "AF",
        "name": "Kushk",
        "lat": "33.29565",
        "lng": "61.95221"
    },
    {
        "country": "AF",
        "name": "Ko?owal",
        "lat": "34.10319",
        "lng": "70.46073"
    },
    {
        "country": "AF",
        "name": "Kushk-e Kuhnah",
        "lat": "34.8711",
        "lng": "62.54762"
    },
    {
        "country": "AF",
        "name": "Kuran wa Munjan",
        "lat": "36.02866",
        "lng": "70.77258"
    },
    {
        "country": "AF",
        "name": "Kunduz",
        "lat": "36.72895",
        "lng": "68.857"
    },
    {
        "country": "AF",
        "name": "Khoshi",
        "lat": "33.99916",
        "lng": "69.21582"
    },
    {
        "country": "AF",
        "name": "Khoshamand",
        "lat": "32.68567",
        "lng": "68.23801"
    },
    {
        "country": "AF",
        "name": "Khwajah Ghar",
        "lat": "37.06588",
        "lng": "69.42126"
    },
    {
        "country": "AF",
        "name": "Khwajah Du Koh",
        "lat": "36.82881",
        "lng": "65.62432"
    },
    {
        "country": "AF",
        "name": "Deh Khwahan",
        "lat": "37.88965",
        "lng": "70.21875"
    },
    {
        "country": "AF",
        "name": "Khulbisat",
        "lat": "33.4948",
        "lng": "70.00605"
    },
    {
        "country": "AF",
        "name": "Khugya?i",
        "lat": "31.56267",
        "lng": "66.5814"
    },
    {
        "country": "AF",
        "name": "Khost",
        "lat": "33.33951",
        "lng": "69.92041"
    },
    {
        "country": "AF",
        "name": "Khulm",
        "lat": "36.69736",
        "lng": "67.69826"
    },
    {
        "country": "AF",
        "name": "Khudaydad Khel",
        "lat": "35.17835",
        "lng": "67.68758"
    },
    {
        "country": "AF",
        "name": "Khinjan",
        "lat": "35.58908",
        "lng": "68.90093"
    },
    {
        "country": "AF",
        "name": "Khinj",
        "lat": "35.42898",
        "lng": "69.73482"
    },
    {
        "country": "AF",
        "name": "Khash",
        "lat": "31.52919",
        "lng": "62.79055"
    },
    {
        "country": "AF",
        "name": "Khan Neshin",
        "lat": "30.5488",
        "lng": "63.7888"
    },
    {
        "country": "AF",
        "name": "Khanaqah",
        "lat": "36.62587",
        "lng": "69.53695"
    },
    {
        "country": "AF",
        "name": "Chahar Bagh",
        "lat": "37.00108",
        "lng": "65.22392"
    },
    {
        "country": "AF",
        "name": "Khandud",
        "lat": "36.95127",
        "lng": "72.318"
    },
    {
        "country": "AF",
        "name": "Khanaqah",
        "lat": "36.86279",
        "lng": "66.16656"
    },
    {
        "country": "AF",
        "name": "Khanabad",
        "lat": "36.6825",
        "lng": "69.11556"
    },
    {
        "country": "AF",
        "name": "Khamyab",
        "lat": "37.5275",
        "lng": "65.75833"
    },
    {
        "country": "AF",
        "name": "Khakiran",
        "lat": "32.8385",
        "lng": "67.07377"
    },
    {
        "country": "AF",
        "name": "Kaz_h_ah",
        "lat": "34.24088",
        "lng": "70.18274"
    },
    {
        "country": "AF",
        "name": "Kishk-e Nakhud",
        "lat": "31.62519",
        "lng": "65.05511"
    },
    {
        "country": "AF",
        "name": "Karukh",
        "lat": "34.48108",
        "lng": "62.5863"
    },
    {
        "country": "AF",
        "name": "Kan?ay",
        "lat": "34.9536",
        "lng": "70.77897"
    },
    {
        "country": "AF",
        "name": "Kandahar",
        "lat": "31.61332",
        "lng": "65.71013"
    },
    {
        "country": "AF",
        "name": "Kalan Deh",
        "lat": "33.83676",
        "lng": "68.40233"
    },
    {
        "country": "AF",
        "name": "Kalakan",
        "lat": "34.78371",
        "lng": "69.15001"
    },
    {
        "country": "AF",
        "name": "Kalafgan",
        "lat": "36.77226",
        "lng": "69.94489"
    },
    {
        "country": "AF",
        "name": "Kajran",
        "lat": "33.20357",
        "lng": "65.47311"
    },
    {
        "country": "AF",
        "name": "Kai",
        "lat": "34.12819",
        "lng": "70.71828"
    },
    {
        "country": "AF",
        "name": "Kabul",
        "lat": "34.52813",
        "lng": "69.17233"
    },
    {
        "country": "AF",
        "name": "Jurm",
        "lat": "36.86477",
        "lng": "70.83421"
    },
    {
        "country": "AF",
        "name": "Jawand",
        "lat": "35.06361",
        "lng": "64.14917"
    },
    {
        "country": "AF",
        "name": "Jani Khel",
        "lat": "32.76315",
        "lng": "68.39722"
    },
    {
        "country": "AF",
        "name": "Jalrez",
        "lat": "34.4708",
        "lng": "68.65438"
    },
    {
        "country": "AF",
        "name": "Jalalabad",
        "lat": "34.42647",
        "lng": "70.45153"
    },
    {
        "country": "AF",
        "name": "Jabal os Saraj",
        "lat": "35.11833",
        "lng": "69.23778"
    },
    {
        "country": "AF",
        "name": "?ukumat-e Shinkai",
        "lat": "31.98303",
        "lng": "67.33558"
    },
    {
        "country": "AF",
        "name": "Herat",
        "lat": "34.34817",
        "lng": "62.19967"
    },
    {
        "country": "AF",
        "name": "?aji Khel",
        "lat": "35.10922",
        "lng": "69.43341"
    },
    {
        "country": "AF",
        "name": "?afiz\u00b8 Moghul",
        "lat": "37.05643",
        "lng": "70.40061"
    },
    {
        "country": "AF",
        "name": "Khafizan",
        "lat": "34.28665",
        "lng": "70.37247"
    },
    {
        "country": "AF",
        "name": "Guz\u00afarah",
        "lat": "34.21223",
        "lng": "62.21235"
    },
    {
        "country": "AF",
        "name": "Goshtah",
        "lat": "34.35822",
        "lng": "70.76264"
    },
    {
        "country": "AF",
        "name": "Gomal K\u00ealay",
        "lat": "32.50989",
        "lng": "68.85598"
    },
    {
        "country": "AF",
        "name": "\u2018Alaqahdari Gelan",
        "lat": "32.72692",
        "lng": "67.63696"
    },
    {
        "country": "AF",
        "name": "Ghoriyan",
        "lat": "34.3448",
        "lng": "61.49321"
    },
    {
        "country": "AF",
        "name": "Ghormach",
        "lat": "35.73062",
        "lng": "63.78264"
    },
    {
        "country": "AF",
        "name": "Ghurayd Gharame",
        "lat": "36.5222",
        "lng": "70.79063"
    },
    {
        "country": "AF",
        "name": "Ghazni",
        "lat": "33.55391",
        "lng": "68.42096"
    },
    {
        "country": "AF",
        "name": "Gereshk",
        "lat": "31.82089",
        "lng": "64.57005"
    },
    {
        "country": "AF",
        "name": "Gardez",
        "lat": "33.59744",
        "lng": "69.22592"
    },
    {
        "country": "AF",
        "name": "Fayzabad",
        "lat": "37.11664",
        "lng": "70.58002"
    },
    {
        "country": "AF",
        "name": "Fai?abad",
        "lat": "36.82091",
        "lng": "66.45921"
    },
    {
        "country": "AF",
        "name": "Fay?abad",
        "lat": "36.29111",
        "lng": "64.86222"
    },
    {
        "country": "AF",
        "name": "Qal\u2018ah-ye Farsi",
        "lat": "33.78529",
        "lng": "63.24735"
    },
    {
        "country": "AF",
        "name": "Farkhar",
        "lat": "36.57288",
        "lng": "69.85783"
    },
    {
        "country": "AF",
        "name": "Farah",
        "lat": "32.37451",
        "lng": "62.11638"
    },
    {
        "country": "AF",
        "name": "Istalif",
        "lat": "34.83268",
        "lng": "69.07756"
    },
    {
        "country": "AF",
        "name": "Kafir Qala",
        "lat": "34.66667",
        "lng": "61.06667"
    },
    {
        "country": "AF",
        "name": "Injil",
        "lat": "34.30157",
        "lng": "62.2465"
    },
    {
        "country": "AF",
        "name": "Imam Sa?ib",
        "lat": "37.18897",
        "lng": "68.93644"
    },
    {
        "country": "AF",
        "name": "Doshi",
        "lat": "35.60918",
        "lng": "68.68473"
    },
    {
        "country": "AF",
        "name": "Dowlatyar",
        "lat": "34.55132",
        "lng": "65.79302"
    },
    {
        "country": "AF",
        "name": "Dowlat Shah",
        "lat": "34.9504",
        "lng": "70.07102"
    },
    {
        "country": "AF",
        "name": "Dowlatabad",
        "lat": "36.98821",
        "lng": "66.82069"
    },
    {
        "country": "AF",
        "name": "Dowlatabad",
        "lat": "36.43259",
        "lng": "64.92071"
    },
    {
        "country": "AF",
        "name": "Du Qal\u2018ah",
        "lat": "32.14237",
        "lng": "61.4469"
    },
    {
        "country": "AF",
        "name": "Duab",
        "lat": "35.56277",
        "lng": "67.82191"
    },
    {
        "country": "AF",
        "name": "D\u00ea Narkhel K\u00ealay",
        "lat": "32.43205",
        "lng": "65.63484"
    },
    {
        "country": "AF",
        "name": "Dehi",
        "lat": "35.95806",
        "lng": "67.27998"
    },
    {
        "country": "AF",
        "name": "Deh-e Sala?",
        "lat": "35.69031",
        "lng": "69.31511"
    },
    {
        "country": "AF",
        "name": "Deh-e Now",
        "lat": "34.74767",
        "lng": "69.04784"
    },
    {
        "country": "AF",
        "name": "Dehdadi",
        "lat": "36.66319",
        "lng": "66.99339"
    },
    {
        "country": "AF",
        "name": "Dwah Man?ay",
        "lat": "33.28159",
        "lng": "69.58531"
    },
    {
        "country": "AF",
        "name": "Dasht-e Qal\u2018ah",
        "lat": "37.1539",
        "lng": "69.4435"
    },
    {
        "country": "AF",
        "name": "Dasht-e Qal\u2018ah",
        "lat": "33.02978",
        "lng": "63.8395"
    },
    {
        "country": "AF",
        "name": "Dasht-e Archi",
        "lat": "37.13333",
        "lng": "69.16667"
    },
    {
        "country": "AF",
        "name": "Darzab",
        "lat": "35.97744",
        "lng": "65.37828"
    },
    {
        "country": "AF",
        "name": "Markaz-e ?ukumat-e Darweshan",
        "lat": "31.13231",
        "lng": "64.1934"
    },
    {
        "country": "AF",
        "name": "Darqad",
        "lat": "37.38414",
        "lng": "69.45294"
    },
    {
        "country": "AF",
        "name": "Darayim",
        "lat": "36.86667",
        "lng": "70.38333"
    },
    {
        "country": "AF",
        "name": "Dangam",
        "lat": "34.99249",
        "lng": "71.41935"
    },
    {
        "country": "AF",
        "name": "?an?ar",
        "lat": "34.79095",
        "lng": "69.47504"
    },
    {
        "country": "AF",
        "name": "?ukumati Dahanah-ye Ghori",
        "lat": "35.90617",
        "lng": "68.48869"
    },
    {
        "country": "AF",
        "name": "Tsowk\u00eay",
        "lat": "34.69246",
        "lng": "70.92688"
    },
    {
        "country": "AF",
        "name": "Chiras",
        "lat": "35.41674",
        "lng": "65.98234"
    },
    {
        "country": "AF",
        "name": "Chisht-e Sharif",
        "lat": "34.34731",
        "lng": "63.73966"
    },
    {
        "country": "AF",
        "name": "Chinar",
        "lat": "32.01583",
        "lng": "65.10721"
    },
    {
        "country": "AF",
        "name": "Chimtal",
        "lat": "36.67818",
        "lng": "66.80325"
    },
    {
        "country": "AF",
        "name": "Charkh",
        "lat": "33.79712",
        "lng": "68.93749"
    },
    {
        "country": "AF",
        "name": "Charikar",
        "lat": "35.01361",
        "lng": "69.17139"
    },
    {
        "country": "AF",
        "name": "Dowr-e Rabat",
        "lat": "36.69132",
        "lng": "68.79093"
    },
    {
        "country": "AF",
        "name": "Tsap\u00earai",
        "lat": "33.83003",
        "lng": "69.9192"
    },
    {
        "country": "AF",
        "name": "Tsamkani",
        "lat": "33.80298",
        "lng": "69.81671"
    },
    {
        "country": "AF",
        "name": "Chakaray",
        "lat": "34.34099",
        "lng": "69.4377"
    },
    {
        "country": "AF",
        "name": "Chakaran",
        "lat": "36.91112",
        "lng": "71.0688"
    },
    {
        "country": "AF",
        "name": "Chahar Qal\u2018ah",
        "lat": "33.55267",
        "lng": "68.29828"
    },
    {
        "country": "AF",
        "name": "Chahar Burj",
        "lat": "34.24475",
        "lng": "62.19165"
    },
    {
        "country": "AF",
        "name": "Chah Ab",
        "lat": "37.39773",
        "lng": "69.81464"
    },
    {
        "country": "AF",
        "name": "Fayroz Koh",
        "lat": "34.51952",
        "lng": "65.25093"
    },
    {
        "country": "AF",
        "name": "Bulolah",
        "lat": "34.87706",
        "lng": "68.0879"
    },
    {
        "country": "AF",
        "name": "Bal Chiragh",
        "lat": "35.84026",
        "lng": "65.2309"
    },
    {
        "country": "AF",
        "name": "Bazar-e Talah",
        "lat": "35.39205",
        "lng": "68.22317"
    },
    {
        "country": "AF",
        "name": "Basawul",
        "lat": "34.24749",
        "lng": "70.87218"
    },
    {
        "country": "AF",
        "name": "Burkah",
        "lat": "36.22242",
        "lng": "69.15037"
    },
    {
        "country": "AF",
        "name": "Barg-e Matal",
        "lat": "35.67283",
        "lng": "71.34339"
    },
    {
        "country": "AF",
        "name": "Baraki Barak",
        "lat": "33.96744",
        "lng": "68.9492"
    },
    {
        "country": "AF",
        "name": "Banu",
        "lat": "35.63348",
        "lng": "69.26019"
    },
    {
        "country": "AF",
        "name": "Bamyan",
        "lat": "34.82156",
        "lng": "67.82734"
    },
    {
        "country": "AF",
        "name": "Balkh",
        "lat": "36.75635",
        "lng": "66.8972"
    },
    {
        "country": "AF",
        "name": "Baharak",
        "lat": "37.00254",
        "lng": "70.90664"
    },
    {
        "country": "AF",
        "name": "Bagrami",
        "lat": "34.49376",
        "lng": "69.27427"
    },
    {
        "country": "AF",
        "name": "Baghlan",
        "lat": "36.13068",
        "lng": "68.70829"
    },
    {
        "country": "AF",
        "name": "?ukumati Azrah",
        "lat": "34.17355",
        "lng": "69.64573"
    },
    {
        "country": "AF",
        "name": "Art Khwajah",
        "lat": "37.08571",
        "lng": "69.47958"
    },
    {
        "country": "AF",
        "name": "\u2018Alaqahdari A?ghar",
        "lat": "31.73506",
        "lng": "67.3574"
    },
    {
        "country": "AF",
        "name": "Asmar",
        "lat": "35.03333",
        "lng": "71.35809"
    },
    {
        "country": "AF",
        "name": "Ashkasham",
        "lat": "36.68333",
        "lng": "71.53333"
    },
    {
        "country": "AF",
        "name": "Asadabad",
        "lat": "34.87311",
        "lng": "71.14697"
    },
    {
        "country": "AF",
        "name": "Aqchah",
        "lat": "36.905",
        "lng": "66.18341"
    },
    {
        "country": "AF",
        "name": "Andkhoy",
        "lat": "36.95293",
        "lng": "65.12376"
    },
    {
        "country": "AF",
        "name": "\u2019Unabah",
        "lat": "35.23251",
        "lng": "69.37719"
    },
    {
        "country": "AF",
        "name": "Anar Darah",
        "lat": "32.7587",
        "lng": "61.65397"
    },
    {
        "country": "AF",
        "name": "Amanzi",
        "lat": "30.21144",
        "lng": "66.04765"
    },
    {
        "country": "AF",
        "name": "\u2018Alaqahdari-ye Almar",
        "lat": "35.84616",
        "lng": "64.53074"
    },
    {
        "country": "AF",
        "name": "\u2018Ali Sher \u2018Alaqahdari",
        "lat": "33.4362",
        "lng": "70.06711"
    },
    {
        "country": "AF",
        "name": "Wuluswali \u2018Alingar",
        "lat": "34.83529",
        "lng": "70.3593"
    },
    {
        "country": "AF",
        "name": "\u2018Ali Khel",
        "lat": "33.94253",
        "lng": "69.71908"
    },
    {
        "country": "AF",
        "name": "\u2018Alaqahdari Yosuf Khel",
        "lat": "33.05195",
        "lng": "68.65"
    },
    {
        "country": "AF",
        "name": "\u2018Alaqahdari Dishu",
        "lat": "30.43206",
        "lng": "63.29802"
    },
    {
        "country": "AF",
        "name": "Alah Say",
        "lat": "34.8965",
        "lng": "69.72049"
    },
    {
        "country": "AF",
        "name": "Pachir wa Agam",
        "lat": "34.20011",
        "lng": "70.27806"
    },
    {
        "country": "AF",
        "name": "Afaki",
        "lat": "36.66172",
        "lng": "69.35095"
    },
    {
        "country": "AF",
        "name": "Adraskan",
        "lat": "33.64573",
        "lng": "62.26959"
    },
    {
        "country": "AF",
        "name": "Ab-e Kamari",
        "lat": "35.08796",
        "lng": "63.0678"
    },
    {
        "country": "AF",
        "name": "Khadir",
        "lat": "33.92232",
        "lng": "65.93398"
    },
    {
        "country": "AF",
        "name": "Ghulam \u2018Ali",
        "lat": "34.95076",
        "lng": "69.2287"
    },
    {
        "country": "AF",
        "name": "Qarah Bagh Bazar",
        "lat": "34.8529",
        "lng": "69.17062"
    },
    {
        "country": "AF",
        "name": "Zargaran",
        "lat": "34.78764",
        "lng": "69.05878"
    },
    {
        "country": "AF",
        "name": "Surkh Bilandi",
        "lat": "34.68474",
        "lng": "69.02863"
    },
    {
        "country": "AF",
        "name": "Pul-e Sangi",
        "lat": "34.59972",
        "lng": "69.25993"
    },
    {
        "country": "AF",
        "name": "Langar",
        "lat": "35.99474",
        "lng": "68.05081"
    },
    {
        "country": "AF",
        "name": "Bagh-e Maidan",
        "lat": "35.22156",
        "lng": "69.21397"
    },
    {
        "country": "AF",
        "name": "Ibrahim Khan",
        "lat": "35.05352",
        "lng": "69.25654"
    },
    {
        "country": "AF",
        "name": "Qaranghu Toghai",
        "lat": "37.21528",
        "lng": "67.63972"
    },
    {
        "country": "AF",
        "name": "Bazarak",
        "lat": "35.31292",
        "lng": "69.51519"
    },
    {
        "country": "AF",
        "name": "Sherwani-ye Bala",
        "lat": "35.01468",
        "lng": "69.59934"
    },
    {
        "country": "AF",
        "name": "Kiraman",
        "lat": "35.2973",
        "lng": "69.68125"
    },
    {
        "country": "AF",
        "name": "\u2018Alaqahdari Sa?obi",
        "lat": "32.79331",
        "lng": "69.0866"
    },
    {
        "country": "AF",
        "name": "Zerok-Alakadari",
        "lat": "33.15806",
        "lng": "69.31278"
    },
    {
        "country": "AF",
        "name": "Kushkak",
        "lat": "32.28991",
        "lng": "61.52194"
    },
    {
        "country": "AF",
        "name": "Khayr Ko?",
        "lat": "32.85355",
        "lng": "68.44971"
    },
    {
        "country": "AF",
        "name": "Chow?\u00eay",
        "lat": "33.38278",
        "lng": "66.27233"
    },
    {
        "country": "AF",
        "name": "Wu?ahpur",
        "lat": "34.91914",
        "lng": "71.09863"
    },
    {
        "country": "AF",
        "name": "Karbori",
        "lat": "34.96597",
        "lng": "71.2746"
    },
    {
        "country": "AF",
        "name": "Sultanpur-e \u2018Ulya",
        "lat": "34.41204",
        "lng": "70.29634"
    },
    {
        "country": "AF",
        "name": "Babasakhib",
        "lat": "31.66144",
        "lng": "65.66098"
    },
    {
        "country": "AF",
        "name": "Chandal Ba\u2019i",
        "lat": "34.58469",
        "lng": "68.95524"
    },
    {
        "country": "AF",
        "name": "Dahan-e Jarf",
        "lat": "34.92891",
        "lng": "68.46273"
    },
    {
        "country": "AF",
        "name": "Maydanshakhr",
        "lat": "34.39561",
        "lng": "68.86618"
    },
    {
        "country": "AF",
        "name": "Du Lainah",
        "lat": "34.15599",
        "lng": "64.78566"
    },
    {
        "country": "AF",
        "name": "Qaram Qol",
        "lat": "36.83006",
        "lng": "65.04299"
    },
    {
        "country": "AF",
        "name": "Pul-e ?isar",
        "lat": "35.61794",
        "lng": "69.47134"
    },
    {
        "country": "AF",
        "name": "Lab-Sar",
        "lat": "36.02634",
        "lng": "66.83799"
    },
    {
        "country": "AF",
        "name": "Taqchah Khanah",
        "lat": "36.61922",
        "lng": "69.62805"
    },
    {
        "country": "AF",
        "name": "March",
        "lat": "37.52845",
        "lng": "70.4482"
    },
    {
        "country": "AF",
        "name": "Ziraki",
        "lat": "37.59233",
        "lng": "70.55814"
    },
    {
        "country": "AF",
        "name": "Aliabad",
        "lat": "36.52115",
        "lng": "68.89985"
    },
    {
        "country": "AF",
        "name": "Pas Pul",
        "lat": "37.47355",
        "lng": "70.61617"
    },
    {
        "country": "AF",
        "name": "Qal\u2018ah-ye Na\u2018im",
        "lat": "34.39951",
        "lng": "69.16705"
    },
    {
        "country": "AF",
        "name": "Markaz-e Woluswali-ye Achin",
        "lat": "34.12583",
        "lng": "70.70778"
    },
    {
        "country": "AF",
        "name": "Manogay",
        "lat": "34.99015",
        "lng": "70.91302"
    },
    {
        "country": "AF",
        "name": "St\u00ear Giyan",
        "lat": "32.97704",
        "lng": "69.37308"
    },
    {
        "country": "AF",
        "name": "Sharan",
        "lat": "33.17568",
        "lng": "68.73045"
    },
    {
        "country": "AF",
        "name": "Salam Khel",
        "lat": "33.67067",
        "lng": "69.32983"
    }
]