[
    {
        "country": "AL",
        "name": "Xarr\u00eb",
        "lat": "39.72833",
        "lng": "20.05444"
    },
    {
        "country": "AL",
        "name": "Sarand\u00eb",
        "lat": "39.87556",
        "lng": "20.00528"
    },
    {
        "country": "AL",
        "name": "Mesopotam",
        "lat": "39.91028",
        "lng": "20.09222"
    },
    {
        "country": "AL",
        "name": "Markat",
        "lat": "39.73278",
        "lng": "20.19528"
    },
    {
        "country": "AL",
        "name": "Livadhja",
        "lat": "39.78917",
        "lng": "20.12194"
    },
    {
        "country": "AL",
        "name": "Konispol",
        "lat": "39.65889",
        "lng": "20.18139"
    },
    {
        "country": "AL",
        "name": "Kakavij\u00eb",
        "lat": "39.90778",
        "lng": "20.35833"
    },
    {
        "country": "AL",
        "name": "Finiq",
        "lat": "39.90639",
        "lng": "20.05833"
    },
    {
        "country": "AL",
        "name": "Dhiv\u00ebr",
        "lat": "39.83611",
        "lng": "20.16861"
    },
    {
        "country": "AL",
        "name": "Delvin\u00eb",
        "lat": "39.95111",
        "lng": "20.09778"
    },
    {
        "country": "AL",
        "name": "Aliko",
        "lat": "39.85861",
        "lng": "20.07917"
    },
    {
        "country": "AL",
        "name": "Bu\u00e7imas",
        "lat": "40.89139",
        "lng": "20.68139"
    },
    {
        "country": "AL",
        "name": "Zhep\u00eb",
        "lat": "40.67778",
        "lng": "20.28694"
    },
    {
        "country": "AL",
        "name": "Zerqan",
        "lat": "41.50222",
        "lng": "20.36056"
    },
    {
        "country": "AL",
        "name": "Zavalin\u00eb",
        "lat": "40.98083",
        "lng": "20.28083"
    },
    {
        "country": "AL",
        "name": "Zapod",
        "lat": "42.05056",
        "lng": "20.5525"
    },
    {
        "country": "AL",
        "name": "Zall-Re\u00e7",
        "lat": "41.87611",
        "lng": "20.32"
    },
    {
        "country": "AL",
        "name": "Zall-Dardh\u00eb",
        "lat": "41.80667",
        "lng": "20.33611"
    },
    {
        "country": "AL",
        "name": "Xib\u00ebr-Murriz\u00eb",
        "lat": "41.45472",
        "lng": "20.02556"
    },
    {
        "country": "AL",
        "name": "Vreshtas",
        "lat": "40.79694",
        "lng": "20.77694"
    },
    {
        "country": "AL",
        "name": "Voskopoj\u00eb",
        "lat": "40.63306",
        "lng": "20.58889"
    },
    {
        "country": "AL",
        "name": "Voskop",
        "lat": "40.61194",
        "lng": "20.69028"
    },
    {
        "country": "AL",
        "name": "Vithkuq",
        "lat": "40.525",
        "lng": "20.5825"
    },
    {
        "country": "AL",
        "name": "Vithkuq",
        "lat": "40.20472",
        "lng": "20.25944"
    },
    {
        "country": "AL",
        "name": "V\u00ebrtop",
        "lat": "40.62889",
        "lng": "20.05389"
    },
    {
        "country": "AL",
        "name": "Vergo",
        "lat": "40.00667",
        "lng": "20.00889"
    },
    {
        "country": "AL",
        "name": "Vendresha e Vog\u00ebl",
        "lat": "40.50722",
        "lng": "20.13472"
    },
    {
        "country": "AL",
        "name": "Vel\u00e7an",
        "lat": "40.95472",
        "lng": "20.46222"
    },
    {
        "country": "AL",
        "name": "Ujmisht",
        "lat": "41.90833",
        "lng": "20.34694"
    },
    {
        "country": "AL",
        "name": "Ud\u00ebnisht",
        "lat": "40.96333",
        "lng": "20.63917"
    },
    {
        "country": "AL",
        "name": "Tunj\u00eb",
        "lat": "40.83417",
        "lng": "20.11194"
    },
    {
        "country": "AL",
        "name": "Tregan",
        "lat": "41.02472",
        "lng": "20.07833"
    },
    {
        "country": "AL",
        "name": "Trebisht-Mu\u00e7in\u00eb",
        "lat": "41.41111",
        "lng": "20.53556"
    },
    {
        "country": "AL",
        "name": "Trebinj\u00eb",
        "lat": "40.91333",
        "lng": "20.55306"
    },
    {
        "country": "AL",
        "name": "Topojan",
        "lat": "40.37722",
        "lng": "20.21333"
    },
    {
        "country": "AL",
        "name": "Tomin",
        "lat": "41.69083",
        "lng": "20.42167"
    },
    {
        "country": "AL",
        "name": "Tepelen\u00eb",
        "lat": "40.29583",
        "lng": "20.01917"
    },
    {
        "country": "AL",
        "name": "Surroj",
        "lat": "41.99222",
        "lng": "20.34417"
    },
    {
        "country": "AL",
        "name": "Sult",
        "lat": "40.88472",
        "lng": "20.09944"
    },
    {
        "country": "AL",
        "name": "Suk\u00eb",
        "lat": "40.37528",
        "lng": "20.15472"
    },
    {
        "country": "AL",
        "name": "Su\u00e7",
        "lat": "41.57694",
        "lng": "20.05139"
    },
    {
        "country": "AL",
        "name": "Stravaj",
        "lat": "41.00528",
        "lng": "20.42306"
    },
    {
        "country": "AL",
        "name": "Steblev\u00eb",
        "lat": "41.33722",
        "lng": "20.47"
    },
    {
        "country": "AL",
        "name": "Sllov\u00eb",
        "lat": "41.80111",
        "lng": "20.40833"
    },
    {
        "country": "AL",
        "name": "Skore",
        "lat": "40.10722",
        "lng": "20.36639"
    },
    {
        "country": "AL",
        "name": "Sk\u00ebnderbegas",
        "lat": "40.77611",
        "lng": "20.24056"
    },
    {
        "country": "AL",
        "name": "Shushic\u00eb",
        "lat": "41.0975",
        "lng": "20.14833"
    },
    {
        "country": "AL",
        "name": "Shupenz\u00eb",
        "lat": "41.53",
        "lng": "20.42361"
    },
    {
        "country": "AL",
        "name": "Shtiq\u00ebn",
        "lat": "42.04056",
        "lng": "20.43417"
    },
    {
        "country": "AL",
        "name": "Shishtavec",
        "lat": "41.98",
        "lng": "20.60583"
    },
    {
        "country": "AL",
        "name": "Shirgjan",
        "lat": "41.05194",
        "lng": "20.05333"
    },
    {
        "country": "AL",
        "name": "Sh\u00ebngjin",
        "lat": "41.92611",
        "lng": "20.18833"
    },
    {
        "country": "AL",
        "name": "Sh\u00ebnm\u00ebri",
        "lat": "42.10417",
        "lng": "20.23833"
    },
    {
        "country": "AL",
        "name": "Selisht\u00eb",
        "lat": "41.6275",
        "lng": "20.27917"
    },
    {
        "country": "AL",
        "name": "Saraqinisht\u00eb",
        "lat": "40.10528",
        "lng": "20.22944"
    },
    {
        "country": "AL",
        "name": "Rukaj",
        "lat": "41.68361",
        "lng": "20.01917"
    },
    {
        "country": "AL",
        "name": "Rajc\u00eb",
        "lat": "41.09028",
        "lng": "20.57639"
    },
    {
        "country": "AL",
        "name": "Roshnik",
        "lat": "40.73278",
        "lng": "20.03944"
    },
    {
        "country": "AL",
        "name": "Quk\u00ebs-Sk\u00ebnderbe",
        "lat": "41.08389",
        "lng": "20.43806"
    },
    {
        "country": "AL",
        "name": "Qestorat",
        "lat": "40.1175",
        "lng": "20.19972"
    },
    {
        "country": "AL",
        "name": "Qaf\u00ebmal",
        "lat": "42.09333",
        "lng": "20.09056"
    },
    {
        "country": "AL",
        "name": "P\u00ebrrenjas-Fshat",
        "lat": "41.06667",
        "lng": "20.53528"
    },
    {
        "country": "AL",
        "name": "P\u00ebrrenjas",
        "lat": "41.07306",
        "lng": "20.54889"
    },
    {
        "country": "AL",
        "name": "Proptisht",
        "lat": "40.98611",
        "lng": "20.5025"
    },
    {
        "country": "AL",
        "name": "Prog\u00ebr",
        "lat": "40.69417",
        "lng": "20.94028"
    },
    {
        "country": "AL",
        "name": "Potom",
        "lat": "40.48833",
        "lng": "20.37333"
    },
    {
        "country": "AL",
        "name": "Poro\u00e7an",
        "lat": "40.94194",
        "lng": "20.29861"
    },
    {
        "country": "AL",
        "name": "Polis-Gostim\u00eb",
        "lat": "41.13333",
        "lng": "20.25833"
    },
    {
        "country": "AL",
        "name": "Poli\u00e7an",
        "lat": "40.61222",
        "lng": "20.09806"
    },
    {
        "country": "AL",
        "name": "Pojan",
        "lat": "40.72583",
        "lng": "20.8375"
    },
    {
        "country": "AL",
        "name": "Pogradec",
        "lat": "40.9025",
        "lng": "20.6525"
    },
    {
        "country": "AL",
        "name": "Pishaj",
        "lat": "40.88111",
        "lng": "20.18278"
    },
    {
        "country": "AL",
        "name": "Pirg",
        "lat": "40.785",
        "lng": "20.70611"
    },
    {
        "country": "AL",
        "name": "Gjinkar",
        "lat": "40.19944",
        "lng": "20.40611"
    },
    {
        "country": "AL",
        "name": "Petran",
        "lat": "40.20944",
        "lng": "20.41833"
    },
    {
        "country": "AL",
        "name": "Peshkopi",
        "lat": "41.685",
        "lng": "20.42889"
    },
    {
        "country": "AL",
        "name": "P\u00ebrmet",
        "lat": "40.23361",
        "lng": "20.35167"
    },
    {
        "country": "AL",
        "name": "Ostreni i Math",
        "lat": "41.43083",
        "lng": "20.45556"
    },
    {
        "country": "AL",
        "name": "Orosh",
        "lat": "41.83333",
        "lng": "20.08333"
    },
    {
        "country": "AL",
        "name": "Orenj\u00eb",
        "lat": "41.28472",
        "lng": "20.21194"
    },
    {
        "country": "AL",
        "name": "Odrie",
        "lat": "40.13333",
        "lng": "20.16667"
    },
    {
        "country": "AL",
        "name": "Novosel\u00eb",
        "lat": "40.76139",
        "lng": "20.69833"
    },
    {
        "country": "AL",
        "name": "Picar",
        "lat": "40.16667",
        "lng": "20.04833"
    },
    {
        "country": "AL",
        "name": "Mollas",
        "lat": "40.92694",
        "lng": "20.00361"
    },
    {
        "country": "AL",
        "name": "Mollas",
        "lat": "40.42556",
        "lng": "20.67444"
    },
    {
        "country": "AL",
        "name": "Mollaj",
        "lat": "40.56028",
        "lng": "20.74028"
    },
    {
        "country": "AL",
        "name": "Miras",
        "lat": "40.50917",
        "lng": "20.92833"
    },
    {
        "country": "AL",
        "name": "Melan",
        "lat": "41.65417",
        "lng": "20.46528"
    },
    {
        "country": "AL",
        "name": "Martanesh",
        "lat": "41.4",
        "lng": "20.2"
    },
    {
        "country": "AL",
        "name": "Maqellar\u00eb",
        "lat": "41.58889",
        "lng": "20.48306"
    },
    {
        "country": "AL",
        "name": "Maliq",
        "lat": "40.70583",
        "lng": "20.69972"
    },
    {
        "country": "AL",
        "name": "Macukull",
        "lat": "41.68861",
        "lng": "20.11028"
    },
    {
        "country": "AL",
        "name": "Lunik",
        "lat": "41.28917",
        "lng": "20.32361"
    },
    {
        "country": "AL",
        "name": "Llugaj",
        "lat": "42.34139",
        "lng": "20.10861"
    },
    {
        "country": "AL",
        "name": "Lis",
        "lat": "41.6275",
        "lng": "20.08528"
    },
    {
        "country": "AL",
        "name": "Liqenas",
        "lat": "40.78667",
        "lng": "20.90222"
    },
    {
        "country": "AL",
        "name": "Librazhd",
        "lat": "41.17944",
        "lng": "20.315"
    },
    {
        "country": "AL",
        "name": "Libonik",
        "lat": "40.70444",
        "lng": "20.70861"
    },
    {
        "country": "AL",
        "name": "Libohov\u00eb",
        "lat": "40.03111",
        "lng": "20.26306"
    },
    {
        "country": "AL",
        "name": "Leskovik",
        "lat": "40.15139",
        "lng": "20.59722"
    },
    {
        "country": "AL",
        "name": "Leshnj\u00eb",
        "lat": "40.53694",
        "lng": "20.31333"
    },
    {
        "country": "AL",
        "name": "Lenias",
        "lat": "40.76667",
        "lng": "20.39139"
    },
    {
        "country": "AL",
        "name": "Lekas",
        "lat": "40.60222",
        "lng": "20.5125"
    },
    {
        "country": "AL",
        "name": "Lazarat",
        "lat": "40.04667",
        "lng": "20.1475"
    },
    {
        "country": "AL",
        "name": "Labinot-Mal",
        "lat": "41.20083",
        "lng": "20.15222"
    },
    {
        "country": "AL",
        "name": "Labinot-Fush\u00eb",
        "lat": "41.14056",
        "lng": "20.14611"
    },
    {
        "country": "AL",
        "name": "Kushov\u00eb",
        "lat": "40.78889",
        "lng": "20.18889"
    },
    {
        "country": "AL",
        "name": "Kurbnesh",
        "lat": "41.77972",
        "lng": "20.08361"
    },
    {
        "country": "AL",
        "name": "Kukur",
        "lat": "40.86778",
        "lng": "20.36361"
    },
    {
        "country": "AL",
        "name": "Kuk\u00ebs",
        "lat": "42.07694",
        "lng": "20.42194"
    },
    {
        "country": "AL",
        "name": "Kthella e Ep\u00ebrme",
        "lat": "41.81194",
        "lng": "20.05889"
    },
    {
        "country": "AL",
        "name": "Krum\u00eb",
        "lat": "42.19694",
        "lng": "20.41333"
    },
    {
        "country": "AL",
        "name": "Kor\u00e7\u00eb",
        "lat": "40.61861",
        "lng": "20.78083"
    },
    {
        "country": "AL",
        "name": "Kolsh",
        "lat": "42.07806",
        "lng": "20.34194"
    },
    {
        "country": "AL",
        "name": "Kodovjat",
        "lat": "40.80556",
        "lng": "20.25111"
    },
    {
        "country": "AL",
        "name": "Klos",
        "lat": "41.50694",
        "lng": "20.08667"
    },
    {
        "country": "AL",
        "name": "Klos",
        "lat": "40.94611",
        "lng": "20.00972"
    },
    {
        "country": "AL",
        "name": "K\u00eblcyr\u00eb",
        "lat": "40.31306",
        "lng": "20.18944"
    },
    {
        "country": "AL",
        "name": "Kastriot",
        "lat": "41.72944",
        "lng": "20.37722"
    },
    {
        "country": "AL",
        "name": "Kardhiq",
        "lat": "40.12167",
        "lng": "20.0275"
    },
    {
        "country": "AL",
        "name": "Kalis",
        "lat": "41.83889",
        "lng": "20.36667"
    },
    {
        "country": "AL",
        "name": "Iball\u00eb",
        "lat": "42.1875",
        "lng": "20.0025"
    },
    {
        "country": "AL",
        "name": "Hotolisht",
        "lat": "41.15667",
        "lng": "20.39722"
    },
    {
        "country": "AL",
        "name": "Ho\u00e7isht",
        "lat": "40.60833",
        "lng": "20.91417"
    },
    {
        "country": "AL",
        "name": "Gramsh",
        "lat": "40.86972",
        "lng": "20.18444"
    },
    {
        "country": "AL",
        "name": "Gostim\u00eb",
        "lat": "41.14556",
        "lng": "20.24"
    },
    {
        "country": "AL",
        "name": "Golaj",
        "lat": "42.2475",
        "lng": "20.38028"
    },
    {
        "country": "AL",
        "name": "Gjorica e Sip\u00ebrme",
        "lat": "41.53444",
        "lng": "20.45"
    },
    {
        "country": "AL",
        "name": "Gjirokast\u00ebr",
        "lat": "40.07583",
        "lng": "20.13889"
    },
    {
        "country": "AL",
        "name": "Gjinar",
        "lat": "41.0225",
        "lng": "20.18889"
    },
    {
        "country": "AL",
        "name": "Gjinaj",
        "lat": "42.11806",
        "lng": "20.43583"
    },
    {
        "country": "AL",
        "name": "Gjergjan",
        "lat": "41.04306",
        "lng": "20.02972"
    },
    {
        "country": "AL",
        "name": "Gjegjan",
        "lat": "41.93778",
        "lng": "20.01111"
    },
    {
        "country": "AL",
        "name": "Fush\u00eb-Muhurr",
        "lat": "41.67972",
        "lng": "20.33139"
    },
    {
        "country": "AL",
        "name": "Fush\u00eb-Lur\u00eb",
        "lat": "41.80611",
        "lng": "20.23194"
    },
    {
        "country": "AL",
        "name": "Fush\u00eb-\u00c7idhn\u00eb",
        "lat": "41.76056",
        "lng": "20.34111"
    },
    {
        "country": "AL",
        "name": "Fush\u00eb-Bulqiz\u00eb",
        "lat": "41.52194",
        "lng": "20.28222"
    },
    {
        "country": "AL",
        "name": "Fush\u00eb-Arr\u00ebz",
        "lat": "42.06222",
        "lng": "20.01667"
    },
    {
        "country": "AL",
        "name": "Frash\u00ebr",
        "lat": "40.36889",
        "lng": "20.42444"
    },
    {
        "country": "AL",
        "name": "Fierz\u00eb",
        "lat": "42.26056",
        "lng": "20.01694"
    },
    {
        "country": "AL",
        "name": "Fajz\u00eb",
        "lat": "42.16694",
        "lng": "20.35083"
    },
    {
        "country": "AL",
        "name": "Ersek\u00eb",
        "lat": "40.33778",
        "lng": "20.67889"
    },
    {
        "country": "AL",
        "name": "Elbasan",
        "lat": "41.1125",
        "lng": "20.08222"
    },
    {
        "country": "AL",
        "name": "Drenov\u00eb",
        "lat": "40.58333",
        "lng": "20.79222"
    },
    {
        "country": "AL",
        "name": "Dishnic\u00eb",
        "lat": "40.65139",
        "lng": "20.81361"
    },
    {
        "country": "AL",
        "name": "Dervi\u00e7ian",
        "lat": "40.0325",
        "lng": "20.17333"
    },
    {
        "country": "AL",
        "name": "Derjan",
        "lat": "41.67361",
        "lng": "20.05833"
    },
    {
        "country": "AL",
        "name": "Gjerb\u00ebs",
        "lat": "40.62917",
        "lng": "20.25111"
    },
    {
        "country": "AL",
        "name": "\u00c7orovod\u00eb",
        "lat": "40.50417",
        "lng": "20.22722"
    },
    {
        "country": "AL",
        "name": "\u00c7lirim",
        "lat": "40.4175",
        "lng": "20.55028"
    },
    {
        "country": "AL",
        "name": "Cerava",
        "lat": "40.85139",
        "lng": "20.725"
    },
    {
        "country": "AL",
        "name": "\u00c7epan",
        "lat": "40.42056",
        "lng": "20.26056"
    },
    {
        "country": "AL",
        "name": "\u00c7arshov\u00eb",
        "lat": "40.11806",
        "lng": "20.54083"
    },
    {
        "country": "AL",
        "name": "Kokaj",
        "lat": "41.87833",
        "lng": "20.50472"
    },
    {
        "country": "AL",
        "name": "Buz",
        "lat": "40.445",
        "lng": "20.00472"
    },
    {
        "country": "AL",
        "name": "Bushtric\u00eb",
        "lat": "41.87861",
        "lng": "20.42194"
    },
    {
        "country": "AL",
        "name": "Burrel",
        "lat": "41.61028",
        "lng": "20.00889"
    },
    {
        "country": "AL",
        "name": "Bulqiz\u00eb",
        "lat": "41.49167",
        "lng": "20.22194"
    },
    {
        "country": "AL",
        "name": "Bujan",
        "lat": "42.32639",
        "lng": "20.07639"
    },
    {
        "country": "AL",
        "name": "Bradashesh",
        "lat": "41.105",
        "lng": "20.0225"
    },
    {
        "country": "AL",
        "name": "Blinisht",
        "lat": "41.86139",
        "lng": "20"
    },
    {
        "country": "AL",
        "name": "Blerim",
        "lat": "42.16056",
        "lng": "20.19194"
    },
    {
        "country": "AL",
        "name": "Bilisht",
        "lat": "40.6275",
        "lng": "20.99"
    },
    {
        "country": "AL",
        "name": "Bicaj",
        "lat": "41.99472",
        "lng": "20.4125"
    },
    {
        "country": "AL",
        "name": "Dardhas",
        "lat": "40.84583",
        "lng": "20.65722"
    },
    {
        "country": "AL",
        "name": "Barmash",
        "lat": "40.27778",
        "lng": "20.61833"
    },
    {
        "country": "AL",
        "name": "Ballaban",
        "lat": "40.41667",
        "lng": "20.13444"
    },
    {
        "country": "AL",
        "name": "Arr\u00ebn",
        "lat": "41.91306",
        "lng": "20.28833"
    },
    {
        "country": "AL",
        "name": "Arras",
        "lat": "41.73583",
        "lng": "20.32417"
    },
    {
        "country": "AL",
        "name": "Byty\u00e7",
        "lat": "42.31",
        "lng": "20.20278"
    },
    {
        "country": "AL",
        "name": "Librazhd-Qend\u00ebr",
        "lat": "41.19694",
        "lng": "20.33556"
    },
    {
        "country": "AL",
        "name": "Funar\u00eb",
        "lat": "41.19639",
        "lng": "20.05972"
    },
    {
        "country": "AL",
        "name": "Moglic\u00eb",
        "lat": "40.71806",
        "lng": "20.43806"
    },
    {
        "country": "AL",
        "name": "Bogov\u00eb",
        "lat": "40.57111",
        "lng": "20.15"
    },
    {
        "country": "AL",
        "name": "Piskov\u00eb",
        "lat": "40.27917",
        "lng": "20.2725"
    },
    {
        "country": "AL",
        "name": "Lukov\u00eb",
        "lat": "39.99222",
        "lng": "19.91389"
    },
    {
        "country": "AL",
        "name": "Ksamil",
        "lat": "39.76889",
        "lng": "19.99972"
    },
    {
        "country": "AL",
        "name": "Zharr\u00ebz",
        "lat": "40.70917",
        "lng": "19.64972"
    },
    {
        "country": "AL",
        "name": "Zejmen",
        "lat": "41.70778",
        "lng": "19.68917"
    },
    {
        "country": "AL",
        "name": "Zall-Herr",
        "lat": "41.38944",
        "lng": "19.8275"
    },
    {
        "country": "AL",
        "name": "Zall-Bastar",
        "lat": "41.42972",
        "lng": "19.93028"
    },
    {
        "country": "AL",
        "name": "Xhafzotaj",
        "lat": "41.34444",
        "lng": "19.5475"
    },
    {
        "country": "AL",
        "name": "Vukatan\u00eb",
        "lat": "42.02806",
        "lng": "19.54778"
    },
    {
        "country": "AL",
        "name": "Vranisht",
        "lat": "40.20972",
        "lng": "19.69083"
    },
    {
        "country": "AL",
        "name": "Vor\u00eb",
        "lat": "41.39083",
        "lng": "19.655"
    },
    {
        "country": "AL",
        "name": "Vlor\u00eb",
        "lat": "40.46667",
        "lng": "19.48972"
    },
    {
        "country": "AL",
        "name": "Velipoj\u00eb",
        "lat": "41.87833",
        "lng": "19.40556"
    },
    {
        "country": "AL",
        "name": "Velabisht",
        "lat": "40.70167",
        "lng": "19.93222"
    },
    {
        "country": "AL",
        "name": "Vaqarr",
        "lat": "41.29917",
        "lng": "19.74417"
    },
    {
        "country": "AL",
        "name": "Ura Vajgurore",
        "lat": "40.76889",
        "lng": "19.87778"
    },
    {
        "country": "AL",
        "name": "Ungrej",
        "lat": "41.87528",
        "lng": "19.79472"
    },
    {
        "country": "AL",
        "name": "Ul\u00ebz",
        "lat": "41.68278",
        "lng": "19.89333"
    },
    {
        "country": "AL",
        "name": "Topoj\u00eb",
        "lat": "40.76306",
        "lng": "19.43278"
    },
    {
        "country": "AL",
        "name": "Tirana",
        "lat": "41.3275",
        "lng": "19.81889"
    },
    {
        "country": "AL",
        "name": "Thuman\u00eb",
        "lat": "41.5475",
        "lng": "19.67778"
    },
    {
        "country": "AL",
        "name": "T\u00ebrbuf",
        "lat": "41.04",
        "lng": "19.61417"
    },
    {
        "country": "AL",
        "name": "Synej",
        "lat": "41.18",
        "lng": "19.5425"
    },
    {
        "country": "AL",
        "name": "Sukth",
        "lat": "41.38056",
        "lng": "19.53778"
    },
    {
        "country": "AL",
        "name": "Strum",
        "lat": "40.75111",
        "lng": "19.7375"
    },
    {
        "country": "AL",
        "name": "Sinj\u00eb",
        "lat": "40.64806",
        "lng": "19.86806"
    },
    {
        "country": "AL",
        "name": "Sinaballaj",
        "lat": "41.06889",
        "lng": "19.69944"
    },
    {
        "country": "AL",
        "name": "Shkod\u00ebr",
        "lat": "42.06828",
        "lng": "19.51258"
    },
    {
        "country": "AL",
        "name": "Shijak",
        "lat": "41.34556",
        "lng": "19.56722"
    },
    {
        "country": "AL",
        "name": "Shez\u00eb",
        "lat": "41.02417",
        "lng": "19.81611"
    },
    {
        "country": "AL",
        "name": "Sh\u00ebnkoll",
        "lat": "41.69083",
        "lng": "19.65333"
    },
    {
        "country": "AL",
        "name": "Sh\u00ebngjin",
        "lat": "41.81361",
        "lng": "19.59389"
    },
    {
        "country": "AL",
        "name": "Sh\u00ebngjergj",
        "lat": "41.18333",
        "lng": "19.53333"
    },
    {
        "country": "AL",
        "name": "Shal\u00ebs",
        "lat": "40.99861",
        "lng": "19.94778"
    },
    {
        "country": "AL",
        "name": "Nicaj-Shal\u00eb",
        "lat": "42.29944",
        "lng": "19.805"
    },
    {
        "country": "AL",
        "name": "Sevaster",
        "lat": "40.39639",
        "lng": "19.72972"
    },
    {
        "country": "AL",
        "name": "Selit\u00eb",
        "lat": "41.63528",
        "lng": "19.755"
    },
    {
        "country": "AL",
        "name": "Valbon\u00eb",
        "lat": "42.45139",
        "lng": "19.89167"
    },
    {
        "country": "AL",
        "name": "Selenic\u00eb",
        "lat": "40.53056",
        "lng": "19.63583"
    },
    {
        "country": "AL",
        "name": "Ruzhdie",
        "lat": "40.67083",
        "lng": "19.69833"
    },
    {
        "country": "AL",
        "name": "Rubik",
        "lat": "41.77444",
        "lng": "19.78611"
    },
    {
        "country": "AL",
        "name": "Rrogozhin\u00eb",
        "lat": "41.07639",
        "lng": "19.66528"
    },
    {
        "country": "AL",
        "name": "Rr\u00ebshen",
        "lat": "41.7675",
        "lng": "19.87556"
    },
    {
        "country": "AL",
        "name": "Rrashbull",
        "lat": "41.32278",
        "lng": "19.51028"
    },
    {
        "country": "AL",
        "name": "Rrasa e Sip\u00ebrme",
        "lat": "40.96778",
        "lng": "19.82111"
    },
    {
        "country": "AL",
        "name": "Rrap\u00eb",
        "lat": "42.04444",
        "lng": "19.97056"
    },
    {
        "country": "AL",
        "name": "Roskovec",
        "lat": "40.7375",
        "lng": "19.70222"
    },
    {
        "country": "AL",
        "name": "Remas",
        "lat": "40.88639",
        "lng": "19.51139"
    },
    {
        "country": "AL",
        "name": "Qerret",
        "lat": "42.05306",
        "lng": "19.83722"
    },
    {
        "country": "AL",
        "name": "Qel\u00ebz",
        "lat": "42.08972",
        "lng": "19.895"
    },
    {
        "country": "AL",
        "name": "Puk\u00eb",
        "lat": "42.04444",
        "lng": "19.89972"
    },
    {
        "country": "AL",
        "name": "Progonat",
        "lat": "40.21333",
        "lng": "19.94472"
    },
    {
        "country": "AL",
        "name": "Prez\u00eb",
        "lat": "41.42722",
        "lng": "19.67278"
    },
    {
        "country": "AL",
        "name": "Poshnje",
        "lat": "40.78028",
        "lng": "19.84417"
    },
    {
        "country": "AL",
        "name": "Port\u00ebz",
        "lat": "40.69917",
        "lng": "19.57444"
    },
    {
        "country": "AL",
        "name": "Peza e Madhe",
        "lat": "41.2175",
        "lng": "19.69611"
    },
    {
        "country": "AL",
        "name": "Petrel\u00eb",
        "lat": "41.25306",
        "lng": "19.85306"
    },
    {
        "country": "AL",
        "name": "P\u00ebrparim",
        "lat": "41.05",
        "lng": "19.79917"
    },
    {
        "country": "AL",
        "name": "Perondi",
        "lat": "40.77889",
        "lng": "19.92306"
    },
    {
        "country": "AL",
        "name": "Peqin",
        "lat": "41.04611",
        "lng": "19.75111"
    },
    {
        "country": "AL",
        "name": "Patos Fshat",
        "lat": "40.64278",
        "lng": "19.65083"
    },
    {
        "country": "AL",
        "name": "Patos",
        "lat": "40.68333",
        "lng": "19.61944"
    },
    {
        "country": "AL",
        "name": "Paskuqan",
        "lat": "41.35389",
        "lng": "19.80667"
    },
    {
        "country": "AL",
        "name": "Pap\u00ebr",
        "lat": "41.05167",
        "lng": "19.96083"
    },
    {
        "country": "AL",
        "name": "Pajov\u00eb",
        "lat": "41.05472",
        "lng": "19.8375"
    },
    {
        "country": "AL",
        "name": "Otllak",
        "lat": "40.74389",
        "lng": "19.93528"
    },
    {
        "country": "AL",
        "name": "Orikum",
        "lat": "40.32528",
        "lng": "19.47139"
    },
    {
        "country": "AL",
        "name": "Novosel\u00eb",
        "lat": "40.625",
        "lng": "19.46694"
    },
    {
        "country": "AL",
        "name": "Nik\u00ebl",
        "lat": "41.44417",
        "lng": "19.74833"
    },
    {
        "country": "AL",
        "name": "Nicaj-Shosh",
        "lat": "42.24444",
        "lng": "19.75806"
    },
    {
        "country": "AL",
        "name": "Ngra\u00e7an",
        "lat": "40.64444",
        "lng": "19.7925"
    },
    {
        "country": "AL",
        "name": "Ndroq",
        "lat": "41.26389",
        "lng": "19.65583"
    },
    {
        "country": "AL",
        "name": "Milot",
        "lat": "41.68389",
        "lng": "19.71556"
    },
    {
        "country": "AL",
        "name": "Memaliaj",
        "lat": "40.35167",
        "lng": "19.98028"
    },
    {
        "country": "AL",
        "name": "Mbrostar-Ur\u00eb",
        "lat": "40.75361",
        "lng": "19.57944"
    },
    {
        "country": "AL",
        "name": "Manz\u00eb",
        "lat": "41.42861",
        "lng": "19.59306"
    },
    {
        "country": "AL",
        "name": "Mamurras",
        "lat": "41.5775",
        "lng": "19.69222"
    },
    {
        "country": "AL",
        "name": "Maminas",
        "lat": "41.37917",
        "lng": "19.6075"
    },
    {
        "country": "AL",
        "name": "Luzi i Vog\u00ebl",
        "lat": "41.1275",
        "lng": "19.57389"
    },
    {
        "country": "AL",
        "name": "Lushnj\u00eb",
        "lat": "40.94194",
        "lng": "19.705"
    },
    {
        "country": "AL",
        "name": "Luftinj\u00eb",
        "lat": "40.44278",
        "lng": "19.95444"
    },
    {
        "country": "AL",
        "name": "Libofsh\u00eb",
        "lat": "40.83444",
        "lng": "19.55222"
    },
    {
        "country": "AL",
        "name": "Lezh\u00eb",
        "lat": "41.78361",
        "lng": "19.64361"
    },
    {
        "country": "AL",
        "name": "Levan",
        "lat": "40.67611",
        "lng": "19.48972"
    },
    {
        "country": "AL",
        "name": "Lekbibaj",
        "lat": "42.29472",
        "lng": "19.93167"
    },
    {
        "country": "AL",
        "name": "Lekaj",
        "lat": "41.11444",
        "lng": "19.60972"
    },
    {
        "country": "AL",
        "name": "La\u00e7",
        "lat": "41.63556",
        "lng": "19.71306"
    },
    {
        "country": "AL",
        "name": "Kut\u00eb",
        "lat": "40.47333",
        "lng": "19.76639"
    },
    {
        "country": "AL",
        "name": "Kutalli",
        "lat": "40.78389",
        "lng": "19.78667"
    },
    {
        "country": "AL",
        "name": "Kurjan",
        "lat": "40.7175",
        "lng": "19.74556"
    },
    {
        "country": "AL",
        "name": "Kuman",
        "lat": "40.72667",
        "lng": "19.68667"
    },
    {
        "country": "AL",
        "name": "Ku\u00e7ov\u00eb",
        "lat": "40.80028",
        "lng": "19.91667"
    },
    {
        "country": "AL",
        "name": "Ku\u00e7",
        "lat": "42.03972",
        "lng": "19.52528"
    },
    {
        "country": "AL",
        "name": "Kryevidh",
        "lat": "41.10056",
        "lng": "19.5275"
    },
    {
        "country": "AL",
        "name": "Krutja e Poshtme",
        "lat": "40.87194",
        "lng": "19.68083"
    },
    {
        "country": "AL",
        "name": "Kruj\u00eb",
        "lat": "41.50917",
        "lng": "19.79278"
    },
    {
        "country": "AL",
        "name": "Krrab\u00eb",
        "lat": "41.21556",
        "lng": "19.97139"
    },
    {
        "country": "AL",
        "name": "Krah\u00ebs",
        "lat": "40.43861",
        "lng": "19.84444"
    },
    {
        "country": "AL",
        "name": "Kozar\u00eb",
        "lat": "40.83083",
        "lng": "19.90056"
    },
    {
        "country": "AL",
        "name": "Kot\u00eb",
        "lat": "40.38944",
        "lng": "19.60222"
    },
    {
        "country": "AL",
        "name": "Koplik",
        "lat": "42.21361",
        "lng": "19.43639"
    },
    {
        "country": "AL",
        "name": "Komb\u00ebsi",
        "lat": "41.58167",
        "lng": "19.98556"
    },
    {
        "country": "AL",
        "name": "Kolonj\u00eb",
        "lat": "40.82417",
        "lng": "19.60389"
    },
    {
        "country": "AL",
        "name": "Kol\u00e7",
        "lat": "41.78667",
        "lng": "19.67611"
    },
    {
        "country": "AL",
        "name": "Kavaj\u00eb",
        "lat": "41.18556",
        "lng": "19.55694"
    },
    {
        "country": "AL",
        "name": "Katundi i Ri",
        "lat": "41.40306",
        "lng": "19.51806"
    },
    {
        "country": "AL",
        "name": "Kastrat",
        "lat": "42.3525",
        "lng": "19.48917"
    },
    {
        "country": "AL",
        "name": "Kashar",
        "lat": "41.34972",
        "lng": "19.71028"
    },
    {
        "country": "AL",
        "name": "Karin\u00eb",
        "lat": "41.06306",
        "lng": "19.71611"
    },
    {
        "country": "AL",
        "name": "Karbunara e Vog\u00ebl",
        "lat": "40.92194",
        "lng": "19.71778"
    },
    {
        "country": "AL",
        "name": "Kam\u00ebz",
        "lat": "41.38167",
        "lng": "19.76028"
    },
    {
        "country": "AL",
        "name": "Kallmeti i Madh",
        "lat": "41.84889",
        "lng": "19.68694"
    },
    {
        "country": "AL",
        "name": "Kallmet",
        "lat": "41.41806",
        "lng": "19.82139"
    },
    {
        "country": "AL",
        "name": "Kalenj\u00eb",
        "lat": "40.59",
        "lng": "19.77833"
    },
    {
        "country": "AL",
        "name": "Kajan",
        "lat": "40.91417",
        "lng": "19.88944"
    },
    {
        "country": "AL",
        "name": "Ka\u00e7inar",
        "lat": "41.89333",
        "lng": "19.89861"
    },
    {
        "country": "AL",
        "name": "Ish\u00ebm",
        "lat": "41.54528",
        "lng": "19.6"
    },
    {
        "country": "AL",
        "name": "Hysgjokaj",
        "lat": "40.97167",
        "lng": "19.78972"
    },
    {
        "country": "AL",
        "name": "Hot",
        "lat": "42.36194",
        "lng": "19.44417"
    },
    {
        "country": "AL",
        "name": "Himar\u00eb",
        "lat": "40.10167",
        "lng": "19.74472"
    },
    {
        "country": "AL",
        "name": "Helmas",
        "lat": "41.18028",
        "lng": "19.60694"
    },
    {
        "country": "AL",
        "name": "Hekal",
        "lat": "40.56194",
        "lng": "19.73583"
    },
    {
        "country": "AL",
        "name": "Hasan",
        "lat": "41.48278",
        "lng": "19.69972"
    },
    {
        "country": "AL",
        "name": "Hajmel",
        "lat": "41.95306",
        "lng": "19.63778"
    },
    {
        "country": "AL",
        "name": "Gurra e Vog\u00ebl",
        "lat": "41.53611",
        "lng": "19.99083"
    },
    {
        "country": "AL",
        "name": "Guri i Zi",
        "lat": "42.045",
        "lng": "19.57472"
    },
    {
        "country": "AL",
        "name": "Gruemir\u00eb",
        "lat": "42.15917",
        "lng": "19.51889"
    },
    {
        "country": "AL",
        "name": "Greshic\u00eb",
        "lat": "40.55194",
        "lng": "19.77833"
    },
    {
        "country": "AL",
        "name": "Grekan",
        "lat": "40.92944",
        "lng": "19.9475"
    },
    {
        "country": "AL",
        "name": "Gradisht\u00eb",
        "lat": "40.88806",
        "lng": "19.58583"
    },
    {
        "country": "AL",
        "name": "Gracen",
        "lat": "41.15194",
        "lng": "19.96361"
    },
    {
        "country": "AL",
        "name": "Grabjan",
        "lat": "40.95306",
        "lng": "19.58083"
    },
    {
        "country": "AL",
        "name": "Gos\u00eb e Madhe",
        "lat": "41.09056",
        "lng": "19.62472"
    },
    {
        "country": "AL",
        "name": "Golem",
        "lat": "40.96778",
        "lng": "19.68528"
    },
    {
        "country": "AL",
        "name": "Gjo\u00e7aj",
        "lat": "41.02556",
        "lng": "19.72389"
    },
    {
        "country": "AL",
        "name": "Gjepalaj",
        "lat": "41.33306",
        "lng": "19.57806"
    },
    {
        "country": "AL",
        "name": "Fush\u00ebkuqe",
        "lat": "41.65028",
        "lng": "19.62"
    },
    {
        "country": "AL",
        "name": "Fush\u00eb-Kruj\u00eb",
        "lat": "41.47833",
        "lng": "19.71778"
    },
    {
        "country": "AL",
        "name": "Fratar",
        "lat": "40.5",
        "lng": "19.81667"
    },
    {
        "country": "AL",
        "name": "Frakulla e Madhe",
        "lat": "40.65583",
        "lng": "19.5025"
    },
    {
        "country": "AL",
        "name": "Fier-Shegan",
        "lat": "40.86722",
        "lng": "19.78528"
    },
    {
        "country": "AL",
        "name": "Fier-\u00c7if\u00e7i",
        "lat": "40.71667",
        "lng": "19.56667"
    },
    {
        "country": "AL",
        "name": "Fier",
        "lat": "40.72389",
        "lng": "19.55611"
    },
    {
        "country": "AL",
        "name": "Farka e Madhe",
        "lat": "41.30556",
        "lng": "19.86694"
    },
    {
        "country": "AL",
        "name": "Durr\u00ebs",
        "lat": "41.32306",
        "lng": "19.44139"
    },
    {
        "country": "AL",
        "name": "Drenov\u00eb",
        "lat": "40.60056",
        "lng": "19.70083"
    },
    {
        "country": "AL",
        "name": "Divjak\u00eb",
        "lat": "40.99667",
        "lng": "19.52944"
    },
    {
        "country": "AL",
        "name": "D\u00ebrm\u00ebnas",
        "lat": "40.74556",
        "lng": "19.49389"
    },
    {
        "country": "AL",
        "name": "Vau i Dej\u00ebs",
        "lat": "42.01",
        "lng": "19.62472"
    },
    {
        "country": "AL",
        "name": "Dajt",
        "lat": "41.39361",
        "lng": "19.91583"
    },
    {
        "country": "AL",
        "name": "Daj\u00e7",
        "lat": "41.99167",
        "lng": "19.41056"
    },
    {
        "country": "AL",
        "name": "Daj\u00e7",
        "lat": "41.91556",
        "lng": "19.60444"
    },
    {
        "country": "AL",
        "name": "Cukalat",
        "lat": "40.73028",
        "lng": "19.79056"
    },
    {
        "country": "AL",
        "name": "Cudhi Zall",
        "lat": "41.50944",
        "lng": "19.84583"
    },
    {
        "country": "AL",
        "name": "C\u00ebrrik",
        "lat": "41.03167",
        "lng": "19.97583"
    },
    {
        "country": "AL",
        "name": "Cakran",
        "lat": "40.60333",
        "lng": "19.62611"
    },
    {
        "country": "AL",
        "name": "Bushat",
        "lat": "42.11944",
        "lng": "19.89972"
    },
    {
        "country": "AL",
        "name": "Bubullim\u00eb",
        "lat": "40.81806",
        "lng": "19.64083"
    },
    {
        "country": "AL",
        "name": "Bubq",
        "lat": "41.47417",
        "lng": "19.65167"
    },
    {
        "country": "AL",
        "name": "Brataj",
        "lat": "40.26778",
        "lng": "19.66917"
    },
    {
        "country": "AL",
        "name": "B\u00ebrzhit\u00eb",
        "lat": "41.24528",
        "lng": "19.90111"
    },
    {
        "country": "AL",
        "name": "B\u00ebrxull",
        "lat": "41.38",
        "lng": "19.6875"
    },
    {
        "country": "AL",
        "name": "B\u00ebrdica e Madhe",
        "lat": "42.01528",
        "lng": "19.48167"
    },
    {
        "country": "AL",
        "name": "Berat",
        "lat": "40.70583",
        "lng": "19.95222"
    },
    {
        "country": "AL",
        "name": "Belsh",
        "lat": "40.975",
        "lng": "19.88194"
    },
    {
        "country": "AL",
        "name": "Baz",
        "lat": "41.63194",
        "lng": "19.92917"
    },
    {
        "country": "AL",
        "name": "Banaj",
        "lat": "40.82472",
        "lng": "19.83917"
    },
    {
        "country": "AL",
        "name": "Ballsh",
        "lat": "40.59889",
        "lng": "19.73472"
    },
    {
        "country": "AL",
        "name": "Ballagat",
        "lat": "40.99528",
        "lng": "19.76528"
    },
    {
        "country": "AL",
        "name": "Baldushk",
        "lat": "41.21389",
        "lng": "19.79694"
    },
    {
        "country": "AL",
        "name": "Armen",
        "lat": "40.53639",
        "lng": "19.59611"
    },
    {
        "country": "AL",
        "name": "Aranitas",
        "lat": "40.59444",
        "lng": "19.80667"
    },
    {
        "country": "AL",
        "name": "Allkaj",
        "lat": "40.8575",
        "lng": "19.75528"
    },
    {
        "country": "AL",
        "name": "Golem",
        "lat": "41.24583",
        "lng": "19.53472"
    },
    {
        "country": "AL",
        "name": "Balldreni i Ri",
        "lat": "41.81917",
        "lng": "19.64028"
    },
    {
        "country": "AL",
        "name": "Grud\u00eb-Fush\u00eb",
        "lat": "42.16222",
        "lng": "19.49667"
    },
    {
        "country": "AL",
        "name": "Fierz\u00eb",
        "lat": "40.92056",
        "lng": "19.84694"
    },
    {
        "country": "AL",
        "name": "Dushk",
        "lat": "40.72667",
        "lng": "19.75722"
    },
    {
        "country": "AL",
        "name": "Selit\u00eb",
        "lat": "40.5475",
        "lng": "19.84806"
    },
    {
        "country": "AL",
        "name": "Vllahin\u00eb",
        "lat": "40.45694",
        "lng": "19.64361"
    },
    {
        "country": "AL",
        "name": "Bajram Curri",
        "lat": "42.35734",
        "lng": "20.07679"
    }
]