[
    {
        "country": "AM",
        "name": "Zarrit\u2019ap\u2019",
        "lat": "39.63892",
        "lng": "45.51111"
    },
    {
        "country": "AM",
        "name": "Zangakatun",
        "lat": "39.82233",
        "lng": "45.04169"
    },
    {
        "country": "AM",
        "name": "Goravan",
        "lat": "39.90832",
        "lng": "44.73328"
    },
    {
        "country": "AM",
        "name": "Yeghegnavan",
        "lat": "39.83893",
        "lng": "44.61951"
    },
    {
        "country": "AM",
        "name": "Yeghegnadzor",
        "lat": "39.76389",
        "lng": "45.33239"
    },
    {
        "country": "AM",
        "name": "Vostan",
        "lat": "39.96515",
        "lng": "44.55937"
    },
    {
        "country": "AM",
        "name": "Vosketap\u2019",
        "lat": "39.88114",
        "lng": "44.64917"
    },
    {
        "country": "AM",
        "name": "Vernashen",
        "lat": "39.79236",
        "lng": "45.36389"
    },
    {
        "country": "AM",
        "name": "Verishen",
        "lat": "39.53543",
        "lng": "46.32063"
    },
    {
        "country": "AM",
        "name": "Vedi",
        "lat": "39.91388",
        "lng": "44.7251"
    },
    {
        "country": "AM",
        "name": "Vayk\u2019",
        "lat": "39.6889",
        "lng": "45.46668"
    },
    {
        "country": "AM",
        "name": "Tegh",
        "lat": "39.55826",
        "lng": "46.48054"
    },
    {
        "country": "AM",
        "name": "Surenavan",
        "lat": "39.79449",
        "lng": "44.77508"
    },
    {
        "country": "AM",
        "name": "Sisavan",
        "lat": "39.90802",
        "lng": "44.66721"
    },
    {
        "country": "AM",
        "name": "Shinuhayr",
        "lat": "39.4367",
        "lng": "46.31787"
    },
    {
        "country": "AM",
        "name": "Shahumyan",
        "lat": "39.94171",
        "lng": "44.57233"
    },
    {
        "country": "AM",
        "name": "Shatin",
        "lat": "39.83612",
        "lng": "45.30292"
    },
    {
        "country": "AM",
        "name": "Shaghat",
        "lat": "39.55829",
        "lng": "45.91669"
    },
    {
        "country": "AM",
        "name": "Rrind",
        "lat": "39.76111",
        "lng": "45.17792"
    },
    {
        "country": "AM",
        "name": "Noyakert",
        "lat": "39.83069",
        "lng": "44.66949"
    },
    {
        "country": "AM",
        "name": "Mrgavan",
        "lat": "39.97251",
        "lng": "44.53565"
    },
    {
        "country": "AM",
        "name": "Meghri",
        "lat": "38.90292",
        "lng": "46.24458"
    },
    {
        "country": "AM",
        "name": "Malishka",
        "lat": "39.74731",
        "lng": "45.4057"
    },
    {
        "country": "AM",
        "name": "Khndzoresk",
        "lat": "39.50568",
        "lng": "46.4361"
    },
    {
        "country": "AM",
        "name": "Kapan",
        "lat": "39.20755",
        "lng": "46.40576"
    },
    {
        "country": "AM",
        "name": "Jermuk",
        "lat": "39.84168",
        "lng": "45.66949"
    },
    {
        "country": "AM",
        "name": "Goris",
        "lat": "39.51111",
        "lng": "46.34168"
    },
    {
        "country": "AM",
        "name": "Gladzor",
        "lat": "39.7807",
        "lng": "45.34729"
    },
    {
        "country": "AM",
        "name": "Getap\u2019",
        "lat": "39.76392",
        "lng": "45.30829"
    },
    {
        "country": "AM",
        "name": "Dzorastan",
        "lat": "39.27059",
        "lng": "46.3572"
    },
    {
        "country": "AM",
        "name": "Dalar",
        "lat": "39.97653",
        "lng": "44.52649"
    },
    {
        "country": "AM",
        "name": "Burastan",
        "lat": "39.99157",
        "lng": "44.49681"
    },
    {
        "country": "AM",
        "name": "Akner",
        "lat": "39.53491",
        "lng": "46.30732"
    },
    {
        "country": "AM",
        "name": "Brrnakot\u2019",
        "lat": "39.49742",
        "lng": "45.97241"
    },
    {
        "country": "AM",
        "name": "Berk\u2019anush",
        "lat": "39.9779",
        "lng": "44.51672"
    },
    {
        "country": "AM",
        "name": "Aygezard",
        "lat": "39.95436",
        "lng": "44.60229"
    },
    {
        "country": "AM",
        "name": "Aygepat",
        "lat": "39.95845",
        "lng": "44.59981"
    },
    {
        "country": "AM",
        "name": "Aygavan",
        "lat": "39.87327",
        "lng": "44.66984"
    },
    {
        "country": "AM",
        "name": "Avshar",
        "lat": "39.85553",
        "lng": "44.65832"
    },
    {
        "country": "AM",
        "name": "Hats\u2019avan",
        "lat": "39.46405",
        "lng": "45.97047"
    },
    {
        "country": "AM",
        "name": "Artashat",
        "lat": "39.96144",
        "lng": "44.54447"
    },
    {
        "country": "AM",
        "name": "Yeghegis",
        "lat": "39.87231",
        "lng": "45.3501"
    },
    {
        "country": "AM",
        "name": "Armash",
        "lat": "39.76672",
        "lng": "44.8111"
    },
    {
        "country": "AM",
        "name": "Areni",
        "lat": "39.71668",
        "lng": "45.18329"
    },
    {
        "country": "AM",
        "name": "Ararat",
        "lat": "39.83069",
        "lng": "44.70569"
    },
    {
        "country": "AM",
        "name": "Angeghakot\u2019",
        "lat": "39.56952",
        "lng": "45.94452"
    },
    {
        "country": "AM",
        "name": "Aghavnadzor",
        "lat": "39.78607",
        "lng": "45.2279"
    },
    {
        "country": "AM",
        "name": "Agarakadzor",
        "lat": "39.73608",
        "lng": "45.35553"
    },
    {
        "country": "AM",
        "name": "Agarak",
        "lat": "39.20684",
        "lng": "46.5446"
    },
    {
        "country": "AM",
        "name": "Aralez",
        "lat": "39.90008",
        "lng": "44.6557"
    },
    {
        "country": "AM",
        "name": "Horrom",
        "lat": "40.65973",
        "lng": "43.89032"
    },
    {
        "country": "AM",
        "name": "Margara",
        "lat": "40.03332",
        "lng": "44.18048"
    },
    {
        "country": "AM",
        "name": "Zovuni",
        "lat": "40.51111",
        "lng": "44.4389"
    },
    {
        "country": "AM",
        "name": "Zovaber",
        "lat": "40.56671",
        "lng": "44.79028"
    },
    {
        "country": "AM",
        "name": "Zorak",
        "lat": "40.09168",
        "lng": "44.39447"
    },
    {
        "country": "AM",
        "name": "Zarr",
        "lat": "40.25848",
        "lng": "44.73328"
    },
    {
        "country": "AM",
        "name": "Yerevan",
        "lat": "40.18111",
        "lng": "44.51361"
    },
    {
        "country": "AM",
        "name": "Yerazgavors",
        "lat": "40.69505",
        "lng": "43.74722"
    },
    {
        "country": "AM",
        "name": "Yeraskhahun",
        "lat": "40.07233",
        "lng": "44.21948"
    },
    {
        "country": "AM",
        "name": "Yeranos",
        "lat": "40.20428",
        "lng": "45.19209"
    },
    {
        "country": "AM",
        "name": "Yeghegnut",
        "lat": "40.90302",
        "lng": "44.63155"
    },
    {
        "country": "AM",
        "name": "Yeghegnut",
        "lat": "40.08893",
        "lng": "44.16669"
    },
    {
        "country": "AM",
        "name": "Ejmiatsin",
        "lat": "40.16557",
        "lng": "44.29462"
    },
    {
        "country": "AM",
        "name": "Yeghvard",
        "lat": "40.32507",
        "lng": "44.48608"
    },
    {
        "country": "AM",
        "name": "Voskevaz",
        "lat": "40.27508",
        "lng": "44.30011"
    },
    {
        "country": "AM",
        "name": "Voskevan",
        "lat": "41.12081",
        "lng": "45.06381"
    },
    {
        "country": "AM",
        "name": "Voskehask",
        "lat": "40.76426",
        "lng": "43.77474"
    },
    {
        "country": "AM",
        "name": "Verin Getashen",
        "lat": "40.13068",
        "lng": "45.25293"
    },
    {
        "country": "AM",
        "name": "Verin Dvin",
        "lat": "40.02434",
        "lng": "44.59038"
    },
    {
        "country": "AM",
        "name": "Verin Artashat",
        "lat": "39.99731",
        "lng": "44.58893"
    },
    {
        "country": "AM",
        "name": "Akht\u2019ala",
        "lat": "41.16838",
        "lng": "44.75811"
    },
    {
        "country": "AM",
        "name": "Varser",
        "lat": "40.55548",
        "lng": "44.90832"
    },
    {
        "country": "AM",
        "name": "Vardenis",
        "lat": "40.18329",
        "lng": "45.73053"
    },
    {
        "country": "AM",
        "name": "Vardenik",
        "lat": "40.13348",
        "lng": "45.44311"
    },
    {
        "country": "AM",
        "name": "Vahan",
        "lat": "40.57549",
        "lng": "45.39769"
    },
    {
        "country": "AM",
        "name": "Vaghashen",
        "lat": "40.13611",
        "lng": "45.33069"
    },
    {
        "country": "AM",
        "name": "Vahagni",
        "lat": "40.90698",
        "lng": "44.60873"
    },
    {
        "country": "AM",
        "name": "Ushi",
        "lat": "40.34729",
        "lng": "44.37512"
    },
    {
        "country": "AM",
        "name": "Urrut",
        "lat": "41.06778",
        "lng": "44.39628"
    },
    {
        "country": "AM",
        "name": "Tsovinar",
        "lat": "40.15959",
        "lng": "45.46786"
    },
    {
        "country": "AM",
        "name": "Tsovazard",
        "lat": "40.4751",
        "lng": "45.05011"
    },
    {
        "country": "AM",
        "name": "Tsovak",
        "lat": "40.18254",
        "lng": "45.63286"
    },
    {
        "country": "AM",
        "name": "Tsovagyugh",
        "lat": "40.63348",
        "lng": "44.96112"
    },
    {
        "country": "AM",
        "name": "Tsaghkunk\u2019",
        "lat": "40.18048",
        "lng": "44.27228"
    },
    {
        "country": "AM",
        "name": "Tsaghkahovit",
        "lat": "40.63428",
        "lng": "44.22241"
    },
    {
        "country": "AM",
        "name": "Tsaghkaber",
        "lat": "40.79849",
        "lng": "44.10144"
    },
    {
        "country": "AM",
        "name": "Tsaghkadzor",
        "lat": "40.53259",
        "lng": "44.72025"
    },
    {
        "country": "AM",
        "name": "Tsovasar",
        "lat": "40.1382",
        "lng": "45.19096"
    },
    {
        "country": "AM",
        "name": "Tashir",
        "lat": "41.12072",
        "lng": "44.28462"
    },
    {
        "country": "AM",
        "name": "Tandzut",
        "lat": "40.06952",
        "lng": "44.07788"
    },
    {
        "country": "AM",
        "name": "T\u2019alin",
        "lat": "40.39172",
        "lng": "43.87793"
    },
    {
        "country": "AM",
        "name": "Step\u2019anavan",
        "lat": "41.00995",
        "lng": "44.38531"
    },
    {
        "country": "AM",
        "name": "Spitak",
        "lat": "40.83221",
        "lng": "44.26731"
    },
    {
        "country": "AM",
        "name": "Spandaryan",
        "lat": "40.66105",
        "lng": "44.01551"
    },
    {
        "country": "AM",
        "name": "Alashkert",
        "lat": "40.10712",
        "lng": "44.05108"
    },
    {
        "country": "AM",
        "name": "Solak",
        "lat": "40.46252",
        "lng": "44.70709"
    },
    {
        "country": "AM",
        "name": "Sis",
        "lat": "40.05829",
        "lng": "44.38892"
    },
    {
        "country": "AM",
        "name": "Shnogh",
        "lat": "41.14693",
        "lng": "44.84043"
    },
    {
        "country": "AM",
        "name": "Shirak",
        "lat": "40.84042",
        "lng": "43.91582"
    },
    {
        "country": "AM",
        "name": "Shenavan",
        "lat": "40.48328",
        "lng": "44.38348"
    },
    {
        "country": "AM",
        "name": "Shenavan",
        "lat": "40.05548",
        "lng": "43.93048"
    },
    {
        "country": "AM",
        "name": "Sevan",
        "lat": "40.5473",
        "lng": "44.94171"
    },
    {
        "country": "AM",
        "name": "Sarukhan",
        "lat": "40.29169",
        "lng": "45.13068"
    },
    {
        "country": "AM",
        "name": "Sarigyugh",
        "lat": "41.03531",
        "lng": "45.14486"
    },
    {
        "country": "AM",
        "name": "Saratak",
        "lat": "40.6709",
        "lng": "43.87231"
    },
    {
        "country": "AM",
        "name": "Saramej",
        "lat": "40.77487",
        "lng": "44.2222"
    },
    {
        "country": "AM",
        "name": "Sarahart\u2019",
        "lat": "40.87043",
        "lng": "44.21407"
    },
    {
        "country": "AM",
        "name": "Geghakert",
        "lat": "40.18516",
        "lng": "44.24331"
    },
    {
        "country": "AM",
        "name": "Ptghni",
        "lat": "40.25568",
        "lng": "44.58612"
    },
    {
        "country": "AM",
        "name": "Ptghunk\u2019",
        "lat": "40.16388",
        "lng": "44.36389"
    },
    {
        "country": "AM",
        "name": "P\u2019shatavan",
        "lat": "40.03888",
        "lng": "44.06671"
    },
    {
        "country": "AM",
        "name": "Prroshyan",
        "lat": "40.24731",
        "lng": "44.41949"
    },
    {
        "country": "AM",
        "name": "P\u2019ok\u2019r Mant\u2019ash",
        "lat": "40.64026",
        "lng": "44.04666"
    },
    {
        "country": "AM",
        "name": "Zoravan",
        "lat": "40.35553",
        "lng": "44.52228"
    },
    {
        "country": "AM",
        "name": "Pemzashen",
        "lat": "40.58612",
        "lng": "43.94311"
    },
    {
        "country": "AM",
        "name": "Parravak\u2019ar",
        "lat": "40.98248",
        "lng": "45.36696"
    },
    {
        "country": "AM",
        "name": "Oshakan",
        "lat": "40.26392",
        "lng": "44.31671"
    },
    {
        "country": "AM",
        "name": "Sardarapat",
        "lat": "40.13206",
        "lng": "44.00969"
    },
    {
        "country": "AM",
        "name": "Odzun",
        "lat": "41.05321",
        "lng": "44.61341"
    },
    {
        "country": "AM",
        "name": "Noyemberyan",
        "lat": "41.17244",
        "lng": "44.99917"
    },
    {
        "country": "AM",
        "name": "Nor Gyugh",
        "lat": "40.26672",
        "lng": "44.65832"
    },
    {
        "country": "AM",
        "name": "Nor Geghi",
        "lat": "40.32233",
        "lng": "44.58331"
    },
    {
        "country": "AM",
        "name": "Norashen",
        "lat": "41.18886",
        "lng": "44.33336"
    },
    {
        "country": "AM",
        "name": "Norashen",
        "lat": "40.0013",
        "lng": "44.59296"
    },
    {
        "country": "AM",
        "name": "Nor Armavir",
        "lat": "40.08612",
        "lng": "43.99451"
    },
    {
        "country": "AM",
        "name": "Noramarg",
        "lat": "40.02228",
        "lng": "44.42511"
    },
    {
        "country": "AM",
        "name": "Norakert",
        "lat": "40.19733",
        "lng": "44.3501"
    },
    {
        "country": "AM",
        "name": "Noratus",
        "lat": "40.37793",
        "lng": "45.18048"
    },
    {
        "country": "AM",
        "name": "Nerk\u2019in Getashen",
        "lat": "40.14172",
        "lng": "45.27087"
    },
    {
        "country": "AM",
        "name": "Navur",
        "lat": "40.86695",
        "lng": "45.34179"
    },
    {
        "country": "AM",
        "name": "Nalbandyan",
        "lat": "40.0639",
        "lng": "43.98889"
    },
    {
        "country": "AM",
        "name": "Basen",
        "lat": "40.75767",
        "lng": "43.99274"
    },
    {
        "country": "AM",
        "name": "Hovtamej",
        "lat": "40.18329",
        "lng": "44.25848"
    },
    {
        "country": "AM",
        "name": "Mrgashen",
        "lat": "40.28607",
        "lng": "44.54449"
    },
    {
        "country": "AM",
        "name": "Mrgashat",
        "lat": "40.13068",
        "lng": "44.08069"
    },
    {
        "country": "AM",
        "name": "Mrganush",
        "lat": "40.02857",
        "lng": "44.55831"
    },
    {
        "country": "AM",
        "name": "Mosesgegh",
        "lat": "40.90534",
        "lng": "45.48838"
    },
    {
        "country": "AM",
        "name": "Mets Parni",
        "lat": "40.83472",
        "lng": "44.11108"
    },
    {
        "country": "AM",
        "name": "Mets Masrik",
        "lat": "40.21948",
        "lng": "45.76391"
    },
    {
        "country": "AM",
        "name": "Mets Mant\u2019ash",
        "lat": "40.64376",
        "lng": "44.05653"
    },
    {
        "country": "AM",
        "name": "Metsavan",
        "lat": "41.20156",
        "lng": "44.22877"
    },
    {
        "country": "AM",
        "name": "Metsamor",
        "lat": "40.07233",
        "lng": "44.29169"
    },
    {
        "country": "AM",
        "name": "Merdzavan",
        "lat": "40.1814",
        "lng": "44.40033"
    },
    {
        "country": "AM",
        "name": "Meghrashen",
        "lat": "40.6723",
        "lng": "43.95831"
    },
    {
        "country": "AM",
        "name": "Meghradzor",
        "lat": "40.60611",
        "lng": "44.65147"
    },
    {
        "country": "AM",
        "name": "Mayakovski",
        "lat": "40.25293",
        "lng": "44.63892"
    },
    {
        "country": "AM",
        "name": "Masis",
        "lat": "40.06542",
        "lng": "44.41618"
    },
    {
        "country": "AM",
        "name": "Martuni",
        "lat": "40.13892",
        "lng": "45.30548"
    },
    {
        "country": "AM",
        "name": "Marmarashen",
        "lat": "40.05829",
        "lng": "44.47229"
    },
    {
        "country": "AM",
        "name": "Marmashen",
        "lat": "40.83486",
        "lng": "43.7779"
    },
    {
        "country": "AM",
        "name": "Margahovit",
        "lat": "40.73381",
        "lng": "44.68474"
    },
    {
        "country": "AM",
        "name": "Maralik",
        "lat": "40.57507",
        "lng": "43.87231"
    },
    {
        "country": "AM",
        "name": "Mayisyan",
        "lat": "40.84715",
        "lng": "43.83938"
    },
    {
        "country": "AM",
        "name": "Madina",
        "lat": "40.07637",
        "lng": "45.25507"
    },
    {
        "country": "AM",
        "name": "Lukashin",
        "lat": "40.18726",
        "lng": "44.0039"
    },
    {
        "country": "AM",
        "name": "Lorut",
        "lat": "40.93717",
        "lng": "44.77142"
    },
    {
        "country": "AM",
        "name": "Lichk\u2019",
        "lat": "40.15933",
        "lng": "45.23467"
    },
    {
        "country": "AM",
        "name": "Lerrnavan",
        "lat": "40.7882",
        "lng": "44.16024"
    },
    {
        "country": "AM",
        "name": "Lerrnapat",
        "lat": "40.81538",
        "lng": "44.39344"
    },
    {
        "country": "AM",
        "name": "Lerrnants\u2019k\u2019",
        "lat": "40.79532",
        "lng": "44.27435"
    },
    {
        "country": "AM",
        "name": "Lerrnanist",
        "lat": "40.46676",
        "lng": "44.79249"
    },
    {
        "country": "AM",
        "name": "Lerrnakert",
        "lat": "40.5625",
        "lng": "43.9389"
    },
    {
        "country": "AM",
        "name": "Khoronk\u2019",
        "lat": "40.13611",
        "lng": "44.24731"
    },
    {
        "country": "AM",
        "name": "Lchashen",
        "lat": "40.51947",
        "lng": "44.93048"
    },
    {
        "country": "AM",
        "name": "Lchap\u2019",
        "lat": "40.45569",
        "lng": "45.07507"
    },
    {
        "country": "AM",
        "name": "Lanjaghbyur",
        "lat": "40.26947",
        "lng": "45.14447"
    },
    {
        "country": "AM",
        "name": "Kotayk\u2019",
        "lat": "40.27789",
        "lng": "44.66388"
    },
    {
        "country": "AM",
        "name": "Kosh",
        "lat": "40.30011",
        "lng": "44.16107"
    },
    {
        "country": "AM",
        "name": "Vanadzor",
        "lat": "40.80456",
        "lng": "44.4939"
    },
    {
        "country": "AM",
        "name": "Hnaberd",
        "lat": "40.63721",
        "lng": "44.14058"
    },
    {
        "country": "AM",
        "name": "Khasht\u2019arrak",
        "lat": "40.93668",
        "lng": "45.1821"
    },
    {
        "country": "AM",
        "name": "Kasakh",
        "lat": "40.53697",
        "lng": "44.41046"
    },
    {
        "country": "AM",
        "name": "Karchaghbyur",
        "lat": "40.17048",
        "lng": "45.57785"
    },
    {
        "country": "AM",
        "name": "Karbi",
        "lat": "40.33069",
        "lng": "44.37793"
    },
    {
        "country": "AM",
        "name": "Karanlukh",
        "lat": "40.10444",
        "lng": "45.28972"
    },
    {
        "country": "AM",
        "name": "Kaputan",
        "lat": "40.32507",
        "lng": "44.70007"
    },
    {
        "country": "AM",
        "name": "K\u2019anak\u2019erravan",
        "lat": "40.24739",
        "lng": "44.53511"
    },
    {
        "country": "AM",
        "name": "Kamo",
        "lat": "40.82572",
        "lng": "43.95071"
    },
    {
        "country": "AM",
        "name": "Gavarr",
        "lat": "40.35398",
        "lng": "45.12386"
    },
    {
        "country": "AM",
        "name": "Mayisyan",
        "lat": "40.15701",
        "lng": "44.09192"
    },
    {
        "country": "AM",
        "name": "Shahumyan",
        "lat": "40.77482",
        "lng": "44.54596"
    },
    {
        "country": "AM",
        "name": "Ijevan",
        "lat": "40.87877",
        "lng": "45.14851"
    },
    {
        "country": "AM",
        "name": "Hrazdan",
        "lat": "40.49748",
        "lng": "44.7662"
    },
    {
        "country": "AM",
        "name": "Armavir",
        "lat": "40.15446",
        "lng": "44.03815"
    },
    {
        "country": "AM",
        "name": "Hayanist",
        "lat": "40.12231",
        "lng": "44.37793"
    },
    {
        "country": "AM",
        "name": "Haghartsin",
        "lat": "40.77614",
        "lng": "44.96847"
    },
    {
        "country": "AM",
        "name": "Gyumri",
        "lat": "40.7942",
        "lng": "43.84528"
    },
    {
        "country": "AM",
        "name": "Gyulagarak",
        "lat": "40.96715",
        "lng": "44.47144"
    },
    {
        "country": "AM",
        "name": "Ghukasavan",
        "lat": "40.12793",
        "lng": "44.41669"
    },
    {
        "country": "AM",
        "name": "Geghamasar",
        "lat": "40.31091",
        "lng": "45.67924"
    },
    {
        "country": "AM",
        "name": "Gugark\u2019",
        "lat": "40.8046",
        "lng": "44.54025"
    },
    {
        "country": "AM",
        "name": "Tsiatsan",
        "lat": "40.1861",
        "lng": "44.26947"
    },
    {
        "country": "AM",
        "name": "Goght\u2019",
        "lat": "40.1347",
        "lng": "44.78332"
    },
    {
        "country": "AM",
        "name": "Gogaran",
        "lat": "40.89255",
        "lng": "44.19915"
    },
    {
        "country": "AM",
        "name": "Getazat",
        "lat": "40.03844",
        "lng": "44.56369"
    },
    {
        "country": "AM",
        "name": "Getashen",
        "lat": "40.04449",
        "lng": "43.94171"
    },
    {
        "country": "AM",
        "name": "Geghanist",
        "lat": "40.14587",
        "lng": "44.43048"
    },
    {
        "country": "AM",
        "name": "Geghamavan",
        "lat": "40.5625",
        "lng": "44.88892"
    },
    {
        "country": "AM",
        "name": "Garrni",
        "lat": "40.11931",
        "lng": "44.73442"
    },
    {
        "country": "AM",
        "name": "Gagarin",
        "lat": "40.54026",
        "lng": "44.86962"
    },
    {
        "country": "AM",
        "name": "Fantan",
        "lat": "40.39447",
        "lng": "44.6861"
    },
    {
        "country": "AM",
        "name": "Fioletovo",
        "lat": "40.72241",
        "lng": "44.71769"
    },
    {
        "country": "AM",
        "name": "Dzoraghbyur",
        "lat": "40.20412",
        "lng": "44.6415"
    },
    {
        "country": "AM",
        "name": "Dzoragyugh",
        "lat": "40.16957",
        "lng": "45.18337"
    },
    {
        "country": "AM",
        "name": "Dzit\u2019hank\u2019ov",
        "lat": "40.50848",
        "lng": "43.82092"
    },
    {
        "country": "AM",
        "name": "Jrashen",
        "lat": "40.79028",
        "lng": "44.18664"
    },
    {
        "country": "AM",
        "name": "Jrashen",
        "lat": "40.05275",
        "lng": "44.51259"
    },
    {
        "country": "AM",
        "name": "Jrahovit",
        "lat": "40.0473",
        "lng": "44.4751"
    },
    {
        "country": "AM",
        "name": "Janfida",
        "lat": "40.04449",
        "lng": "44.02789"
    },
    {
        "country": "AM",
        "name": "Dvin",
        "lat": "40.01984",
        "lng": "44.58376"
    },
    {
        "country": "AM",
        "name": "Dsegh",
        "lat": "40.9617",
        "lng": "44.65003"
    },
    {
        "country": "AM",
        "name": "Drakhtik",
        "lat": "40.56497",
        "lng": "45.2367"
    },
    {
        "country": "AM",
        "name": "Doghs",
        "lat": "40.22229",
        "lng": "44.27228"
    },
    {
        "country": "AM",
        "name": "Dilijan",
        "lat": "40.7417",
        "lng": "44.8501"
    },
    {
        "country": "AM",
        "name": "Ddmashen",
        "lat": "40.57028",
        "lng": "44.82295"
    },
    {
        "country": "AM",
        "name": "Darpas",
        "lat": "40.83674",
        "lng": "44.42494"
    },
    {
        "country": "AM",
        "name": "Dalarik",
        "lat": "40.2279",
        "lng": "43.87793"
    },
    {
        "country": "AM",
        "name": "Chochkan",
        "lat": "41.18118",
        "lng": "44.83217"
    },
    {
        "country": "AM",
        "name": "Chambarak",
        "lat": "40.59655",
        "lng": "45.35498"
    },
    {
        "country": "AM",
        "name": "Bjni",
        "lat": "40.45831",
        "lng": "44.65008"
    },
    {
        "country": "AM",
        "name": "Byureghavan",
        "lat": "40.31417",
        "lng": "44.59333"
    },
    {
        "country": "AM",
        "name": "Byurakan",
        "lat": "40.33894",
        "lng": "44.27275"
    },
    {
        "country": "AM",
        "name": "Buzhakan",
        "lat": "40.45569",
        "lng": "44.51947"
    },
    {
        "country": "AM",
        "name": "Berd",
        "lat": "40.88135",
        "lng": "45.38901"
    },
    {
        "country": "AM",
        "name": "Bazum",
        "lat": "40.86763",
        "lng": "44.43978"
    },
    {
        "country": "AM",
        "name": "Byuravan",
        "lat": "40.01604",
        "lng": "44.51889"
    },
    {
        "country": "AM",
        "name": "Bambakashat",
        "lat": "40.10828",
        "lng": "44.01947"
    },
    {
        "country": "AM",
        "name": "Balahovit",
        "lat": "40.25153",
        "lng": "44.60828"
    },
    {
        "country": "AM",
        "name": "Bagratashen",
        "lat": "41.24358",
        "lng": "44.81737"
    },
    {
        "country": "AM",
        "name": "Azatan",
        "lat": "40.71959",
        "lng": "43.82727"
    },
    {
        "country": "AM",
        "name": "Haykavan",
        "lat": "40.80312",
        "lng": "43.75173"
    },
    {
        "country": "AM",
        "name": "Aygestan",
        "lat": "40.00293",
        "lng": "44.55829"
    },
    {
        "country": "AM",
        "name": "Aygeshat",
        "lat": "40.23608",
        "lng": "44.28888"
    },
    {
        "country": "AM",
        "name": "Aygeshat",
        "lat": "40.07507",
        "lng": "44.0611"
    },
    {
        "country": "AM",
        "name": "Aknalich",
        "lat": "40.14728",
        "lng": "44.16669"
    },
    {
        "country": "AM",
        "name": "Aygehovit",
        "lat": "40.97951",
        "lng": "45.25033"
    },
    {
        "country": "AM",
        "name": "Artimet",
        "lat": "40.15008",
        "lng": "44.26672"
    },
    {
        "country": "AM",
        "name": "Astghadzor",
        "lat": "40.12231",
        "lng": "45.35553"
    },
    {
        "country": "AM",
        "name": "Ashtarak",
        "lat": "40.2991",
        "lng": "44.36204"
    },
    {
        "country": "AM",
        "name": "Ashnak",
        "lat": "40.33069",
        "lng": "43.91669"
    },
    {
        "country": "AM",
        "name": "Arzni",
        "lat": "40.2973",
        "lng": "44.59869"
    },
    {
        "country": "AM",
        "name": "Arzakan",
        "lat": "40.45007",
        "lng": "44.60828"
    },
    {
        "country": "AM",
        "name": "Arteni",
        "lat": "40.2973",
        "lng": "43.76672"
    },
    {
        "country": "AM",
        "name": "Arshaluys",
        "lat": "40.16949",
        "lng": "44.21393"
    },
    {
        "country": "AM",
        "name": "Argel",
        "lat": "40.37793",
        "lng": "44.6001"
    },
    {
        "country": "AM",
        "name": "Argavand",
        "lat": "40.15289",
        "lng": "44.4389"
    },
    {
        "country": "AM",
        "name": "Argavand",
        "lat": "40.0611",
        "lng": "44.09448"
    },
    {
        "country": "AM",
        "name": "Arevshat",
        "lat": "40.65345",
        "lng": "44.04419"
    },
    {
        "country": "AM",
        "name": "Arevshat",
        "lat": "40.03963",
        "lng": "44.54179"
    },
    {
        "country": "AM",
        "name": "Arevik",
        "lat": "40.7417",
        "lng": "43.9043"
    },
    {
        "country": "AM",
        "name": "Arevik",
        "lat": "40.1001",
        "lng": "44.09448"
    },
    {
        "country": "AM",
        "name": "Arevashogh",
        "lat": "40.86039",
        "lng": "44.27438"
    },
    {
        "country": "AM",
        "name": "Arevashat",
        "lat": "40.14447",
        "lng": "44.37512"
    },
    {
        "country": "AM",
        "name": "Archis",
        "lat": "41.16351",
        "lng": "44.87631"
    },
    {
        "country": "AM",
        "name": "Arbat\u2019",
        "lat": "40.13892",
        "lng": "44.40289"
    },
    {
        "country": "AM",
        "name": "Arazap\u2019",
        "lat": "40.04169",
        "lng": "44.14728"
    },
    {
        "country": "AM",
        "name": "Arrap\u2019i",
        "lat": "40.78276",
        "lng": "43.80583"
    },
    {
        "country": "AM",
        "name": "Aramus",
        "lat": "40.25095",
        "lng": "44.66351"
    },
    {
        "country": "AM",
        "name": "Arak\u2019s",
        "lat": "40.05548",
        "lng": "44.30292"
    },
    {
        "country": "AM",
        "name": "Aragats",
        "lat": "40.48889",
        "lng": "44.3529"
    },
    {
        "country": "AM",
        "name": "Aparan",
        "lat": "40.59323",
        "lng": "44.3589"
    },
    {
        "country": "AM",
        "name": "Apaga",
        "lat": "40.09729",
        "lng": "44.25293"
    },
    {
        "country": "AM",
        "name": "Anushavan",
        "lat": "40.65008",
        "lng": "43.98053"
    },
    {
        "country": "AM",
        "name": "Amasia",
        "lat": "40.95442",
        "lng": "43.7872"
    },
    {
        "country": "AM",
        "name": "Alaverdi",
        "lat": "41.09766",
        "lng": "44.67316"
    },
    {
        "country": "AM",
        "name": "Akunk\u2019",
        "lat": "40.26672",
        "lng": "44.6861"
    },
    {
        "country": "AM",
        "name": "Akunk\u2019",
        "lat": "40.15886",
        "lng": "45.72568"
    },
    {
        "country": "AM",
        "name": "Akhuryan",
        "lat": "40.78003",
        "lng": "43.90027"
    },
    {
        "country": "AM",
        "name": "Aghavnatun",
        "lat": "40.2333",
        "lng": "44.25295"
    },
    {
        "country": "AM",
        "name": "Aghavnadzor",
        "lat": "40.58195",
        "lng": "44.69581"
    },
    {
        "country": "AM",
        "name": "Agarak",
        "lat": "41.01072",
        "lng": "44.46845"
    },
    {
        "country": "AM",
        "name": "Agarakavan",
        "lat": "40.33069",
        "lng": "44.07233"
    },
    {
        "country": "AM",
        "name": "Abovyan",
        "lat": "40.27368",
        "lng": "44.63348"
    },
    {
        "country": "AM",
        "name": "Abovyan",
        "lat": "40.04851",
        "lng": "44.54742"
    },
    {
        "country": "AM",
        "name": "Vardablur",
        "lat": "40.97083",
        "lng": "44.50889"
    },
    {
        "country": "AM",
        "name": "Bardzrashen",
        "lat": "40.08533",
        "lng": "44.57957"
    },
    {
        "country": "AM",
        "name": "Nshavan",
        "lat": "40.02787",
        "lng": "44.52565"
    },
    {
        "country": "AM",
        "name": "Norabats\u2019",
        "lat": "40.10553",
        "lng": "44.43329"
    },
    {
        "country": "AM",
        "name": "Berdavan",
        "lat": "41.20503",
        "lng": "44.99967"
    },
    {
        "country": "AM",
        "name": "Shirakamut",
        "lat": "40.86056",
        "lng": "44.15278"
    },
    {
        "country": "AM",
        "name": "Azatamut",
        "lat": "40.98204",
        "lng": "45.18551"
    },
    {
        "country": "AM",
        "name": "Getahovit",
        "lat": "40.89784",
        "lng": "45.13971"
    },
    {
        "country": "AM",
        "name": "Artsvaberd",
        "lat": "40.83947",
        "lng": "45.47033"
    },
    {
        "country": "AM",
        "name": "Nor Yerznka",
        "lat": "40.30011",
        "lng": "44.38892"
    },
    {
        "country": "AM",
        "name": "Sasunik",
        "lat": "40.25012",
        "lng": "44.34448"
    },
    {
        "country": "AM",
        "name": "Kamaris",
        "lat": "40.23539",
        "lng": "44.69459"
    },
    {
        "country": "AM",
        "name": "Gandzak",
        "lat": "40.31472",
        "lng": "45.11139"
    },
    {
        "country": "AM",
        "name": "Myasnikyan",
        "lat": "40.18048",
        "lng": "43.91949"
    },
    {
        "country": "AM",
        "name": "Lenughi",
        "lat": "40.12512",
        "lng": "43.96393"
    },
    {
        "country": "AM",
        "name": "Metsamor",
        "lat": "40.14447",
        "lng": "44.1167"
    },
    {
        "country": "AM",
        "name": "Gay",
        "lat": "40.08444",
        "lng": "44.30528"
    },
    {
        "country": "AM",
        "name": "Baghramyan",
        "lat": "40.19452",
        "lng": "44.36951"
    },
    {
        "country": "AM",
        "name": "Musalerr",
        "lat": "40.1557",
        "lng": "44.37793"
    },
    {
        "country": "AM",
        "name": "Darakert",
        "lat": "40.10553",
        "lng": "44.41388"
    },
    {
        "country": "AM",
        "name": "Dashtavan",
        "lat": "40.1001",
        "lng": "44.39172"
    },
    {
        "country": "AM",
        "name": "Nizami",
        "lat": "40.09168",
        "lng": "44.4057"
    },
    {
        "country": "AM",
        "name": "Artsvanist",
        "lat": "40.14617",
        "lng": "45.51711"
    },
    {
        "country": "AM",
        "name": "Vardadzor",
        "lat": "40.18701",
        "lng": "45.19212"
    },
    {
        "country": "AM",
        "name": "Taronik",
        "lat": "40.13367",
        "lng": "44.19957"
    },
    {
        "country": "AM",
        "name": "Aknashen",
        "lat": "40.09551",
        "lng": "44.28604"
    },
    {
        "country": "AM",
        "name": "Haykashen",
        "lat": "40.07233",
        "lng": "44.30829"
    },
    {
        "country": "AM",
        "name": "Hovtashat",
        "lat": "40.09729",
        "lng": "44.34448"
    },
    {
        "country": "AM",
        "name": "Sayat\u2019-Nova",
        "lat": "40.07507",
        "lng": "44.40008"
    },
    {
        "country": "AM",
        "name": "Voskehat",
        "lat": "40.14172",
        "lng": "44.33069"
    },
    {
        "country": "AM",
        "name": "Griboyedov",
        "lat": "40.11307",
        "lng": "44.27169"
    },
    {
        "country": "AM",
        "name": "Gmbet\u2019",
        "lat": "40.22369",
        "lng": "44.25409"
    },
    {
        "country": "AM",
        "name": "Aygek",
        "lat": "40.1889",
        "lng": "44.38611"
    },
    {
        "country": "AM",
        "name": "Hovtashen",
        "lat": "40.02508",
        "lng": "44.45007"
    },
    {
        "country": "AM",
        "name": "Dimitrov",
        "lat": "40.00848",
        "lng": "44.4917"
    },
    {
        "country": "AM",
        "name": "Mrgavet",
        "lat": "40.02789",
        "lng": "44.48328"
    },
    {
        "country": "AM",
        "name": "Arevabuyr",
        "lat": "40.03607",
        "lng": "44.46948"
    }
]