[
    {
        "country": "AS",
        "name": "Aua",
        "lat": "-14.27611",
        "lng": "-170.66389"
    },
    {
        "country": "AS",
        "name": "Vaitogi",
        "lat": "-14.35889",
        "lng": "-170.73472"
    },
    {
        "country": "AS",
        "name": "Vailoatai",
        "lat": "-14.36111",
        "lng": "-170.78222"
    },
    {
        "country": "AS",
        "name": "Taulaga",
        "lat": "-11.05528",
        "lng": "-171.08833"
    },
    {
        "country": "AS",
        "name": "Ta`u",
        "lat": "-14.23361",
        "lng": "-169.51444"
    },
    {
        "country": "AS",
        "name": "Tafuna",
        "lat": "-14.33583",
        "lng": "-170.72"
    },
    {
        "country": "AS",
        "name": "Faleniu",
        "lat": "-14.3325",
        "lng": "-170.74444"
    },
    {
        "country": "AS",
        "name": "Fagatogo",
        "lat": "-14.2825",
        "lng": "-170.69"
    },
    {
        "country": "AS",
        "name": "Faleasao",
        "lat": "-14.2222",
        "lng": "-169.51278"
    },
    {
        "country": "AS",
        "name": "Leone",
        "lat": "-14.34389",
        "lng": "-170.785"
    },
    {
        "country": "AS",
        "name": "Malaeimi",
        "lat": "-14.32278",
        "lng": "-170.73389"
    },
    {
        "country": "AS",
        "name": "Mapusagafou",
        "lat": "-14.33056",
        "lng": "-170.75278"
    },
    {
        "country": "AS",
        "name": "Ofu",
        "lat": "-14.17528",
        "lng": "-169.6775"
    },
    {
        "country": "AS",
        "name": "Pago Pago",
        "lat": "-14.27806",
        "lng": "-170.7025"
    }
]