[
    {
        "country": "AU",
        "name": "York",
        "lat": "-31.88809",
        "lng": "116.7678"
    },
    {
        "country": "AU",
        "name": "Yanchep",
        "lat": "-31.54678",
        "lng": "115.63171"
    },
    {
        "country": "AU",
        "name": "Yallingup",
        "lat": "-33.64592",
        "lng": "115.03514"
    },
    {
        "country": "AU",
        "name": "Wundowie",
        "lat": "-31.76163",
        "lng": "116.3799"
    },
    {
        "country": "AU",
        "name": "Wooroloo",
        "lat": "-31.8038",
        "lng": "116.31311"
    },
    {
        "country": "AU",
        "name": "Woodville",
        "lat": "-34.88333",
        "lng": "138.55"
    },
    {
        "country": "AU",
        "name": "Woodside",
        "lat": "-34.95433",
        "lng": "138.87901"
    },
    {
        "country": "AU",
        "name": "Wongan Hills",
        "lat": "-30.89294",
        "lng": "116.71925"
    },
    {
        "country": "AU",
        "name": "Williamstown",
        "lat": "-34.6721",
        "lng": "138.89108"
    },
    {
        "country": "AU",
        "name": "Willaston",
        "lat": "-34.58333",
        "lng": "138.75"
    },
    {
        "country": "AU",
        "name": "Whyalla",
        "lat": "-33.03268",
        "lng": "137.56483"
    },
    {
        "country": "AU",
        "name": "Wembley",
        "lat": "-31.93333",
        "lng": "115.8"
    },
    {
        "country": "AU",
        "name": "Wellard",
        "lat": "-32.26667",
        "lng": "115.83333"
    },
    {
        "country": "AU",
        "name": "Wayville",
        "lat": "-34.95",
        "lng": "138.58333"
    },
    {
        "country": "AU",
        "name": "Waroona",
        "lat": "-32.84323",
        "lng": "115.92201"
    },
    {
        "country": "AU",
        "name": "Wanneroo",
        "lat": "-31.75",
        "lng": "115.8"
    },
    {
        "country": "AU",
        "name": "Wallaroo",
        "lat": "-33.93881",
        "lng": "137.63365"
    },
    {
        "country": "AU",
        "name": "Waikerie",
        "lat": "-34.18178",
        "lng": "139.98552"
    },
    {
        "country": "AU",
        "name": "Wagin",
        "lat": "-33.30894",
        "lng": "117.34328"
    },
    {
        "country": "AU",
        "name": "Waggrakine",
        "lat": "-28.71883",
        "lng": "114.63924"
    },
    {
        "country": "AU",
        "name": "Virginia",
        "lat": "-34.6663",
        "lng": "138.56027"
    },
    {
        "country": "AU",
        "name": "Victor Harbor",
        "lat": "-35.55042",
        "lng": "138.62154"
    },
    {
        "country": "AU",
        "name": "Vasse",
        "lat": "-33.66667",
        "lng": "115.25"
    },
    {
        "country": "AU",
        "name": "Upper Sturt",
        "lat": "-35.01667",
        "lng": "138.68333"
    },
    {
        "country": "AU",
        "name": "Unley",
        "lat": "-34.95",
        "lng": "138.6"
    },
    {
        "country": "AU",
        "name": "Two Wells",
        "lat": "-34.59327",
        "lng": "138.51367"
    },
    {
        "country": "AU",
        "name": "Tumby Bay",
        "lat": "-34.3773",
        "lng": "136.10065"
    },
    {
        "country": "AU",
        "name": "Trigg",
        "lat": "-31.86939",
        "lng": "115.7571"
    },
    {
        "country": "AU",
        "name": "Toodyay",
        "lat": "-31.54977",
        "lng": "116.46743"
    },
    {
        "country": "AU",
        "name": "Thebarton",
        "lat": "-34.91667",
        "lng": "138.56667"
    },
    {
        "country": "AU",
        "name": "Tennant Creek",
        "lat": "-19.6497",
        "lng": "134.19147"
    },
    {
        "country": "AU",
        "name": "Tanunda",
        "lat": "-34.52336",
        "lng": "138.95982"
    },
    {
        "country": "AU",
        "name": "Tailem Bend",
        "lat": "-35.25226",
        "lng": "139.45546"
    },
    {
        "country": "AU",
        "name": "Swan View",
        "lat": "-31.88333",
        "lng": "116.05"
    },
    {
        "country": "AU",
        "name": "Swanbourne",
        "lat": "-31.96878",
        "lng": "115.7673"
    },
    {
        "country": "AU",
        "name": "Subiaco",
        "lat": "-31.9485",
        "lng": "115.8268"
    },
    {
        "country": "AU",
        "name": "Sturt",
        "lat": "-35.01667",
        "lng": "138.55"
    },
    {
        "country": "AU",
        "name": "Streaky Bay",
        "lat": "-32.79554",
        "lng": "134.20928"
    },
    {
        "country": "AU",
        "name": "Strathalbyn",
        "lat": "-35.25979",
        "lng": "138.89247"
    },
    {
        "country": "AU",
        "name": "Stoneville",
        "lat": "-30.86667",
        "lng": "121.76667"
    },
    {
        "country": "AU",
        "name": "Stirling",
        "lat": "-35.01518",
        "lng": "138.73637"
    },
    {
        "country": "AU",
        "name": "Spearwood",
        "lat": "-32.10534",
        "lng": "115.77797"
    },
    {
        "country": "AU",
        "name": "South Perth",
        "lat": "-31.98333",
        "lng": "115.86667"
    },
    {
        "country": "AU",
        "name": "Solomontown",
        "lat": "-33.1853",
        "lng": "138.02364"
    },
    {
        "country": "AU",
        "name": "Smithfield",
        "lat": "-34.68333",
        "lng": "138.68333"
    },
    {
        "country": "AU",
        "name": "Serpentine",
        "lat": "-32.36051",
        "lng": "115.97723"
    },
    {
        "country": "AU",
        "name": "Seaton",
        "lat": "-34.9",
        "lng": "138.51667"
    },
    {
        "country": "AU",
        "name": "Seaford",
        "lat": "-35.1898",
        "lng": "138.47589"
    },
    {
        "country": "AU",
        "name": "Scarborough",
        "lat": "-31.89578",
        "lng": "115.76431"
    },
    {
        "country": "AU",
        "name": "Salisbury",
        "lat": "-34.76667",
        "lng": "138.63333"
    },
    {
        "country": "AU",
        "name": "Safety Bay",
        "lat": "-32.30463",
        "lng": "115.74213"
    },
    {
        "country": "AU",
        "name": "Roxby Downs",
        "lat": "-30.56305",
        "lng": "136.89546"
    },
    {
        "country": "AU",
        "name": "Roseworthy",
        "lat": "-34.53397",
        "lng": "138.75023"
    },
    {
        "country": "AU",
        "name": "Roebourne",
        "lat": "-20.77229",
        "lng": "117.14648"
    },
    {
        "country": "AU",
        "name": "Rockingham",
        "lat": "-32.27682",
        "lng": "115.72978"
    },
    {
        "country": "AU",
        "name": "Maida Vale",
        "lat": "-31.95187",
        "lng": "116.02764"
    },
    {
        "country": "AU",
        "name": "Reynella",
        "lat": "-35.09372",
        "lng": "138.53082"
    },
    {
        "country": "AU",
        "name": "Ravensthorpe",
        "lat": "-33.58303",
        "lng": "120.04688"
    },
    {
        "country": "AU",
        "name": "Quorn",
        "lat": "-32.34676",
        "lng": "138.04176"
    },
    {
        "country": "AU",
        "name": "Quindalup",
        "lat": "-33.6356",
        "lng": "115.14899"
    },
    {
        "country": "AU",
        "name": "Prospect",
        "lat": "-34.88241",
        "lng": "138.5933"
    },
    {
        "country": "AU",
        "name": "Port Willunga",
        "lat": "-35.27792",
        "lng": "138.4523"
    },
    {
        "country": "AU",
        "name": "Port Victoria",
        "lat": "-34.49602",
        "lng": "137.4827"
    },
    {
        "country": "AU",
        "name": "Port Pirie",
        "lat": "-33.19176",
        "lng": "138.01746"
    },
    {
        "country": "AU",
        "name": "Port Noarlunga",
        "lat": "-35.14802",
        "lng": "138.47099"
    },
    {
        "country": "AU",
        "name": "Port Lincoln",
        "lat": "-34.72625",
        "lng": "135.87442"
    },
    {
        "country": "AU",
        "name": "Port Hedland",
        "lat": "-20.31215",
        "lng": "118.61059"
    },
    {
        "country": "AU",
        "name": "Port Elliot",
        "lat": "-35.53017",
        "lng": "138.67922"
    },
    {
        "country": "AU",
        "name": "Port Augusta West",
        "lat": "-32.48611",
        "lng": "137.75833"
    },
    {
        "country": "AU",
        "name": "Port Augusta",
        "lat": "-32.49597",
        "lng": "137.77281"
    },
    {
        "country": "AU",
        "name": "Port Adelaide",
        "lat": "-34.85",
        "lng": "138.46667"
    },
    {
        "country": "AU",
        "name": "Plympton",
        "lat": "-34.95",
        "lng": "138.55"
    },
    {
        "country": "AU",
        "name": "Pinjarra",
        "lat": "-32.6298",
        "lng": "115.87351"
    },
    {
        "country": "AU",
        "name": "Peterborough",
        "lat": "-32.97205",
        "lng": "138.84073"
    },
    {
        "country": "AU",
        "name": "Perth",
        "lat": "-31.95224",
        "lng": "115.8614"
    },
    {
        "country": "AU",
        "name": "Pemberton",
        "lat": "-34.44311",
        "lng": "116.03689"
    },
    {
        "country": "AU",
        "name": "Pearce",
        "lat": "-31.66667",
        "lng": "116.01667"
    },
    {
        "country": "AU",
        "name": "Parkerville",
        "lat": "-31.87472",
        "lng": "116.138"
    },
    {
        "country": "AU",
        "name": "Parap",
        "lat": "-12.43054",
        "lng": "130.84142"
    },
    {
        "country": "AU",
        "name": "One Tree Hill",
        "lat": "-34.7",
        "lng": "138.76667"
    },
    {
        "country": "AU",
        "name": "Oakbank",
        "lat": "-34.9834",
        "lng": "138.84528"
    },
    {
        "country": "AU",
        "name": "Nuriootpa",
        "lat": "-34.46825",
        "lng": "138.99767"
    },
    {
        "country": "AU",
        "name": "North Fremantle",
        "lat": "-32.03333",
        "lng": "115.75"
    },
    {
        "country": "AU",
        "name": "North Beach",
        "lat": "-31.86298",
        "lng": "115.75624"
    },
    {
        "country": "AU",
        "name": "Northampton",
        "lat": "-28.34994",
        "lng": "114.63821"
    },
    {
        "country": "AU",
        "name": "Northam",
        "lat": "-31.64932",
        "lng": "116.67423"
    },
    {
        "country": "AU",
        "name": "Normanville",
        "lat": "-35.44623",
        "lng": "138.3213"
    },
    {
        "country": "AU",
        "name": "Noarlunga",
        "lat": "-35.18209",
        "lng": "138.50138"
    },
    {
        "country": "AU",
        "name": "Nhulunbuy",
        "lat": "-12.18165",
        "lng": "136.77841"
    },
    {
        "country": "AU",
        "name": "Newman",
        "lat": "-23.35644",
        "lng": "119.73553"
    },
    {
        "country": "AU",
        "name": "Nedlands",
        "lat": "-31.98184",
        "lng": "115.8073"
    },
    {
        "country": "AU",
        "name": "Narrogin",
        "lat": "-32.93282",
        "lng": "117.17763"
    },
    {
        "country": "AU",
        "name": "Nairne",
        "lat": "-35.0345",
        "lng": "138.91154"
    },
    {
        "country": "AU",
        "name": "Murray Bridge",
        "lat": "-35.11986",
        "lng": "139.27345"
    },
    {
        "country": "AU",
        "name": "Mundijong",
        "lat": "-32.29217",
        "lng": "115.98564"
    },
    {
        "country": "AU",
        "name": "Mundaring",
        "lat": "-31.9021",
        "lng": "116.16757"
    },
    {
        "country": "AU",
        "name": "Mount Isa",
        "lat": "-20.72523",
        "lng": "139.49727"
    },
    {
        "country": "AU",
        "name": "Mount Helena",
        "lat": "-31.87606",
        "lng": "116.21025"
    },
    {
        "country": "AU",
        "name": "Mount Compass",
        "lat": "-35.34685",
        "lng": "138.62032"
    },
    {
        "country": "AU",
        "name": "Mount Barker",
        "lat": "-35.06667",
        "lng": "138.86667"
    },
    {
        "country": "AU",
        "name": "Mount Barker",
        "lat": "-34.63084",
        "lng": "117.66606"
    },
    {
        "country": "AU",
        "name": "Mosman Park",
        "lat": "-32.00538",
        "lng": "115.7638"
    },
    {
        "country": "AU",
        "name": "Morphett Vale",
        "lat": "-35.13333",
        "lng": "138.51667"
    },
    {
        "country": "AU",
        "name": "Moora",
        "lat": "-30.64003",
        "lng": "116.00365"
    },
    {
        "country": "AU",
        "name": "Modbury",
        "lat": "-34.83333",
        "lng": "138.68333"
    },
    {
        "country": "AU",
        "name": "Moana",
        "lat": "-35.19394",
        "lng": "138.47614"
    },
    {
        "country": "AU",
        "name": "Mitcham",
        "lat": "-34.97892",
        "lng": "138.62184"
    },
    {
        "country": "AU",
        "name": "Midland",
        "lat": "-31.9",
        "lng": "116"
    },
    {
        "country": "AU",
        "name": "Middle Swan",
        "lat": "-31.85",
        "lng": "116.01667"
    },
    {
        "country": "AU",
        "name": "Merredin",
        "lat": "-31.48094",
        "lng": "118.27448"
    },
    {
        "country": "AU",
        "name": "Meningie",
        "lat": "-35.68637",
        "lng": "139.34007"
    },
    {
        "country": "AU",
        "name": "Melville",
        "lat": "-28.18333",
        "lng": "116.73333"
    },
    {
        "country": "AU",
        "name": "Medina",
        "lat": "-32.23333",
        "lng": "115.78333"
    },
    {
        "country": "AU",
        "name": "Meadows",
        "lat": "-35.18021",
        "lng": "138.7625"
    },
    {
        "country": "AU",
        "name": "McMinns Lagoon",
        "lat": "-12.55397",
        "lng": "131.11165"
    },
    {
        "country": "AU",
        "name": "McLaren Vale",
        "lat": "-35.21895",
        "lng": "138.54326"
    },
    {
        "country": "AU",
        "name": "Maylands",
        "lat": "-31.93097",
        "lng": "115.89486"
    },
    {
        "country": "AU",
        "name": "Marion",
        "lat": "-35.00423",
        "lng": "138.55313"
    },
    {
        "country": "AU",
        "name": "Marino",
        "lat": "-35.04468",
        "lng": "138.51236"
    },
    {
        "country": "AU",
        "name": "Margaret River",
        "lat": "-33.95504",
        "lng": "115.07599"
    },
    {
        "country": "AU",
        "name": "Mannum",
        "lat": "-34.91529",
        "lng": "139.30325"
    },
    {
        "country": "AU",
        "name": "Manning",
        "lat": "-32.01594",
        "lng": "115.86714"
    },
    {
        "country": "AU",
        "name": "Manjimup",
        "lat": "-34.24122",
        "lng": "116.14564"
    },
    {
        "country": "AU",
        "name": "Mandurah",
        "lat": "-32.5269",
        "lng": "115.7217"
    },
    {
        "country": "AU",
        "name": "Mallala",
        "lat": "-34.4374",
        "lng": "138.50987"
    },
    {
        "country": "AU",
        "name": "Maitland",
        "lat": "-34.37386",
        "lng": "137.67333"
    },
    {
        "country": "AU",
        "name": "Maddington",
        "lat": "-32.05",
        "lng": "115.98333"
    },
    {
        "country": "AU",
        "name": "Macclesfield",
        "lat": "-35.17182",
        "lng": "138.83589"
    },
    {
        "country": "AU",
        "name": "Lyndoch",
        "lat": "-34.60124",
        "lng": "138.89094"
    },
    {
        "country": "AU",
        "name": "Lower Chittering",
        "lat": "-31.58333",
        "lng": "116.11667"
    },
    {
        "country": "AU",
        "name": "Lobethal",
        "lat": "-34.90455",
        "lng": "138.87477"
    },
    {
        "country": "AU",
        "name": "Little Hampton",
        "lat": "-35.05",
        "lng": "138.85"
    },
    {
        "country": "AU",
        "name": "Lewiston",
        "lat": "-34.60449",
        "lng": "138.59125"
    },
    {
        "country": "AU",
        "name": "Langhorne Creek",
        "lat": "-35.29596",
        "lng": "139.03591"
    },
    {
        "country": "AU",
        "name": "Kwinana",
        "lat": "-32.23013",
        "lng": "115.78128"
    },
    {
        "country": "AU",
        "name": "Kununurra",
        "lat": "-15.77825",
        "lng": "128.74208"
    },
    {
        "country": "AU",
        "name": "Kojonup",
        "lat": "-33.8305",
        "lng": "117.15946"
    },
    {
        "country": "AU",
        "name": "Kingscote",
        "lat": "-35.6559",
        "lng": "137.6393"
    },
    {
        "country": "AU",
        "name": "Kenwick",
        "lat": "-32.03333",
        "lng": "115.96667"
    },
    {
        "country": "AU",
        "name": "Kendenup",
        "lat": "-34.48213",
        "lng": "117.62533"
    },
    {
        "country": "AU",
        "name": "Kelmscott",
        "lat": "-32.12434",
        "lng": "116.0259"
    },
    {
        "country": "AU",
        "name": "Katherine",
        "lat": "-14.46517",
        "lng": "132.26347"
    },
    {
        "country": "AU",
        "name": "Katanning",
        "lat": "-33.68787",
        "lng": "117.5584"
    },
    {
        "country": "AU",
        "name": "Kapunda",
        "lat": "-34.33871",
        "lng": "138.91644"
    },
    {
        "country": "AU",
        "name": "Kalgoorlie",
        "lat": "-30.74614",
        "lng": "121.4742"
    },
    {
        "country": "AU",
        "name": "Kalbarri",
        "lat": "-27.7105",
        "lng": "114.16505"
    },
    {
        "country": "AU",
        "name": "Kadina",
        "lat": "-33.96495",
        "lng": "137.71634"
    },
    {
        "country": "AU",
        "name": "Jamestown",
        "lat": "-33.20531",
        "lng": "138.60503"
    },
    {
        "country": "AU",
        "name": "Ingle Farm",
        "lat": "-34.83333",
        "lng": "138.63333"
    },
    {
        "country": "AU",
        "name": "Hope Valley",
        "lat": "-34.83333",
        "lng": "138.7"
    },
    {
        "country": "AU",
        "name": "Honiton",
        "lat": "-35.11667",
        "lng": "137.65"
    },
    {
        "country": "AU",
        "name": "Hindmarsh Island",
        "lat": "-35.51014",
        "lng": "138.86762"
    },
    {
        "country": "AU",
        "name": "Heathfield",
        "lat": "-35.01667",
        "lng": "138.71667"
    },
    {
        "country": "AU",
        "name": "Harvey",
        "lat": "-33.07863",
        "lng": "115.91512"
    },
    {
        "country": "AU",
        "name": "Happy Valley",
        "lat": "-35.08333",
        "lng": "138.53333"
    },
    {
        "country": "AU",
        "name": "Halls Creek",
        "lat": "-18.22485",
        "lng": "127.66647"
    },
    {
        "country": "AU",
        "name": "Hahndorf",
        "lat": "-35.02863",
        "lng": "138.80779"
    },
    {
        "country": "AU",
        "name": "Hackham",
        "lat": "-35.15",
        "lng": "138.51667"
    },
    {
        "country": "AU",
        "name": "Gumeracha",
        "lat": "-34.82388",
        "lng": "138.88467"
    },
    {
        "country": "AU",
        "name": "Guildford",
        "lat": "-31.9",
        "lng": "115.96667"
    },
    {
        "country": "AU",
        "name": "Greenmount",
        "lat": "-31.90072",
        "lng": "116.0495"
    },
    {
        "country": "AU",
        "name": "Grasmere",
        "lat": "-35.01806",
        "lng": "117.75556"
    },
    {
        "country": "AU",
        "name": "Grange",
        "lat": "-34.90223",
        "lng": "138.49022"
    },
    {
        "country": "AU",
        "name": "Gosnells",
        "lat": "-32.081",
        "lng": "116.0054"
    },
    {
        "country": "AU",
        "name": "Gooseberry Hill",
        "lat": "-31.95444",
        "lng": "116.0492"
    },
    {
        "country": "AU",
        "name": "Goolwa",
        "lat": "-35.50159",
        "lng": "138.78191"
    },
    {
        "country": "AU",
        "name": "Golden Grove",
        "lat": "-34.78333",
        "lng": "138.73333"
    },
    {
        "country": "AU",
        "name": "Glenelg",
        "lat": "-34.98079",
        "lng": "138.515"
    },
    {
        "country": "AU",
        "name": "Gilles Plains",
        "lat": "-34.85",
        "lng": "138.65"
    },
    {
        "country": "AU",
        "name": "Geraldton",
        "lat": "-28.77897",
        "lng": "114.61459"
    },
    {
        "country": "AU",
        "name": "Gawler",
        "lat": "-34.60251",
        "lng": "138.74902"
    },
    {
        "country": "AU",
        "name": "Fremantle",
        "lat": "-32.05632",
        "lng": "115.74557"
    },
    {
        "country": "AU",
        "name": "Freeling",
        "lat": "-34.45407",
        "lng": "138.80868"
    },
    {
        "country": "AU",
        "name": "Findon",
        "lat": "-34.9",
        "lng": "138.53333"
    },
    {
        "country": "AU",
        "name": "Esperance",
        "lat": "-33.85919",
        "lng": "121.89164"
    },
    {
        "country": "AU",
        "name": "Encounter Bay",
        "lat": "-35.57419",
        "lng": "138.60055"
    },
    {
        "country": "AU",
        "name": "Elizabeth",
        "lat": "-34.71944",
        "lng": "138.67707"
    },
    {
        "country": "AU",
        "name": "Donnybrook",
        "lat": "-33.5713",
        "lng": "115.82446"
    },
    {
        "country": "AU",
        "name": "Dongara",
        "lat": "-29.25818",
        "lng": "114.93276"
    },
    {
        "country": "AU",
        "name": "Chidlow",
        "lat": "-31.86094",
        "lng": "116.27243"
    },
    {
        "country": "AU",
        "name": "Derby",
        "lat": "-17.30295",
        "lng": "123.62864"
    },
    {
        "country": "AU",
        "name": "Denmark",
        "lat": "-34.96067",
        "lng": "117.35321"
    },
    {
        "country": "AU",
        "name": "Port Denison",
        "lat": "-29.27367",
        "lng": "114.92068"
    },
    {
        "country": "AU",
        "name": "Darwin",
        "lat": "-12.46113",
        "lng": "130.84185"
    },
    {
        "country": "AU",
        "name": "Darlington",
        "lat": "-35.03333",
        "lng": "138.56667"
    },
    {
        "country": "AU",
        "name": "Darlington",
        "lat": "-31.91906",
        "lng": "116.0812"
    },
    {
        "country": "AU",
        "name": "Dampier",
        "lat": "-20.66275",
        "lng": "116.71256"
    },
    {
        "country": "AU",
        "name": "Cunderdin",
        "lat": "-31.65398",
        "lng": "117.23374"
    },
    {
        "country": "AU",
        "name": "Cummins",
        "lat": "-34.26396",
        "lng": "135.726"
    },
    {
        "country": "AU",
        "name": "Crystal Brook",
        "lat": "-33.35256",
        "lng": "138.20955"
    },
    {
        "country": "AU",
        "name": "Craigburn Farm",
        "lat": "-35.05",
        "lng": "138.61667"
    },
    {
        "country": "AU",
        "name": "Crafers",
        "lat": "-35",
        "lng": "138.7"
    },
    {
        "country": "AU",
        "name": "Cottesloe",
        "lat": "-32",
        "lng": "115.76667"
    },
    {
        "country": "AU",
        "name": "Coromandel Valley",
        "lat": "-35.05",
        "lng": "138.61667"
    },
    {
        "country": "AU",
        "name": "Coogee",
        "lat": "-32.11934",
        "lng": "115.7665"
    },
    {
        "country": "AU",
        "name": "Coober Pedy",
        "lat": "-29.01415",
        "lng": "134.75495"
    },
    {
        "country": "AU",
        "name": "Collie",
        "lat": "-33.36206",
        "lng": "116.15617"
    },
    {
        "country": "AU",
        "name": "Cleve",
        "lat": "-33.7",
        "lng": "136.5"
    },
    {
        "country": "AU",
        "name": "Clare",
        "lat": "-33.83325",
        "lng": "138.61064"
    },
    {
        "country": "AU",
        "name": "Cheltenham",
        "lat": "-34.86667",
        "lng": "138.51667"
    },
    {
        "country": "AU",
        "name": "Ceduna",
        "lat": "-32.1266",
        "lng": "133.67271"
    },
    {
        "country": "AU",
        "name": "Caversham",
        "lat": "-31.88333",
        "lng": "115.96667"
    },
    {
        "country": "AU",
        "name": "Carnarvon",
        "lat": "-24.88258",
        "lng": "113.65713"
    },
    {
        "country": "AU",
        "name": "Capel",
        "lat": "-33.55808",
        "lng": "115.56278"
    },
    {
        "country": "AU",
        "name": "Cannington",
        "lat": "-32.01667",
        "lng": "115.95"
    },
    {
        "country": "AU",
        "name": "Campbelltown",
        "lat": "-34.88333",
        "lng": "138.66667"
    },
    {
        "country": "AU",
        "name": "Callington",
        "lat": "-35.11977",
        "lng": "139.0414"
    },
    {
        "country": "AU",
        "name": "Byford",
        "lat": "-32.22099",
        "lng": "116.009"
    },
    {
        "country": "AU",
        "name": "Busselton",
        "lat": "-33.65249",
        "lng": "115.3455"
    },
    {
        "country": "AU",
        "name": "Bunbury",
        "lat": "-33.32711",
        "lng": "115.64137"
    },
    {
        "country": "AU",
        "name": "Bullsbrook",
        "lat": "-31.66905",
        "lng": "115.9999"
    },
    {
        "country": "AU",
        "name": "Broome",
        "lat": "-17.95538",
        "lng": "122.23922"
    },
    {
        "country": "AU",
        "name": "Brighton",
        "lat": "-35.0182",
        "lng": "138.52351"
    },
    {
        "country": "AU",
        "name": "Bridgewater",
        "lat": "-35",
        "lng": "138.75"
    },
    {
        "country": "AU",
        "name": "Bridgetown",
        "lat": "-33.96242",
        "lng": "116.13598"
    },
    {
        "country": "AU",
        "name": "Boyup Brook",
        "lat": "-33.83425",
        "lng": "116.38776"
    },
    {
        "country": "AU",
        "name": "Boyanup",
        "lat": "-33.48295",
        "lng": "115.72838"
    },
    {
        "country": "AU",
        "name": "Boulder",
        "lat": "-30.78204",
        "lng": "121.4912"
    },
    {
        "country": "AU",
        "name": "Blackwood",
        "lat": "-35.02139",
        "lng": "138.61429"
    },
    {
        "country": "AU",
        "name": "Birkenhead",
        "lat": "-34.83685",
        "lng": "138.49788"
    },
    {
        "country": "AU",
        "name": "Birdwood",
        "lat": "-34.81826",
        "lng": "138.96478"
    },
    {
        "country": "AU",
        "name": "Beverley",
        "lat": "-32.10839",
        "lng": "116.92736"
    },
    {
        "country": "AU",
        "name": "Bentley",
        "lat": "-32",
        "lng": "115.91667"
    },
    {
        "country": "AU",
        "name": "Bellevue",
        "lat": "-31.9",
        "lng": "116.01667"
    },
    {
        "country": "AU",
        "name": "Belair",
        "lat": "-34.99766",
        "lng": "138.62077"
    },
    {
        "country": "AU",
        "name": "Bedford Park",
        "lat": "-35.03333",
        "lng": "138.56667"
    },
    {
        "country": "AU",
        "name": "Bedfordale",
        "lat": "-32.17406",
        "lng": "116.0504"
    },
    {
        "country": "AU",
        "name": "Beaumont",
        "lat": "-34.94899",
        "lng": "138.66188"
    },
    {
        "country": "AU",
        "name": "Bassendean",
        "lat": "-31.90906",
        "lng": "115.9437"
    },
    {
        "country": "AU",
        "name": "Balhannah",
        "lat": "-34.99094",
        "lng": "138.82565"
    },
    {
        "country": "AU",
        "name": "Balaklava",
        "lat": "-34.14542",
        "lng": "138.41148"
    },
    {
        "country": "AU",
        "name": "Australind",
        "lat": "-33.2792",
        "lng": "115.71504"
    },
    {
        "country": "AU",
        "name": "Augusta",
        "lat": "-34.31566",
        "lng": "115.15922"
    },
    {
        "country": "AU",
        "name": "Armadale",
        "lat": "-32.14607",
        "lng": "116.0093"
    },
    {
        "country": "AU",
        "name": "Ardrossan",
        "lat": "-34.42217",
        "lng": "137.91907"
    },
    {
        "country": "AU",
        "name": "Applecross",
        "lat": "-32.01667",
        "lng": "115.83333"
    },
    {
        "country": "AU",
        "name": "Angle Vale",
        "lat": "-34.64098",
        "lng": "138.6461"
    },
    {
        "country": "AU",
        "name": "Angaston",
        "lat": "-34.50129",
        "lng": "139.04625"
    },
    {
        "country": "AU",
        "name": "Alice Springs",
        "lat": "-23.69748",
        "lng": "133.88362"
    },
    {
        "country": "AU",
        "name": "Aldinga",
        "lat": "-35.28333",
        "lng": "138.48333"
    },
    {
        "country": "AU",
        "name": "Aldgate",
        "lat": "-35.01667",
        "lng": "138.73333"
    },
    {
        "country": "AU",
        "name": "Albany",
        "lat": "-35.02692",
        "lng": "117.88369"
    },
    {
        "country": "AU",
        "name": "Adelaide",
        "lat": "-34.92866",
        "lng": "138.59863"
    },
    {
        "country": "AU",
        "name": "Dunsborough",
        "lat": "-33.61512",
        "lng": "115.10561"
    },
    {
        "country": "AU",
        "name": "Eaton",
        "lat": "-33.31664",
        "lng": "115.70503"
    },
    {
        "country": "AU",
        "name": "Seacliff",
        "lat": "-35.03474",
        "lng": "138.52288"
    },
    {
        "country": "AU",
        "name": "Clapham",
        "lat": "-34.98989",
        "lng": "138.60158"
    },
    {
        "country": "AU",
        "name": "Two Rocks",
        "lat": "-31.49985",
        "lng": "115.58737"
    },
    {
        "country": "AU",
        "name": "Quinns Rocks",
        "lat": "-31.67379",
        "lng": "115.70372"
    },
    {
        "country": "AU",
        "name": "East Fremantle",
        "lat": "-32.03823",
        "lng": "115.7676"
    },
    {
        "country": "AU",
        "name": "Peppermint Grove",
        "lat": "-31.99878",
        "lng": "115.7682"
    },
    {
        "country": "AU",
        "name": "Claremont",
        "lat": "-31.97961",
        "lng": "115.7823"
    },
    {
        "country": "AU",
        "name": "Bicton",
        "lat": "-32.02778",
        "lng": "115.78333"
    },
    {
        "country": "AU",
        "name": "Attadale",
        "lat": "-32.02489",
        "lng": "115.802"
    },
    {
        "country": "AU",
        "name": "Shenton Park",
        "lat": "-31.95833",
        "lng": "115.79722"
    },
    {
        "country": "AU",
        "name": "Dalkeith",
        "lat": "-31.99517",
        "lng": "115.7998"
    },
    {
        "country": "AU",
        "name": "Jurien Bay",
        "lat": "-30.30591",
        "lng": "115.03825"
    },
    {
        "country": "AU",
        "name": "Warnbro",
        "lat": "-32.34017",
        "lng": "115.7473"
    },
    {
        "country": "AU",
        "name": "Mullaloo",
        "lat": "-31.77896",
        "lng": "115.73676"
    },
    {
        "country": "AU",
        "name": "Alyangula",
        "lat": "-13.85413",
        "lng": "136.42129"
    },
    {
        "country": "AU",
        "name": "Stuart Park",
        "lat": "-12.4486",
        "lng": "130.84249"
    },
    {
        "country": "AU",
        "name": "Larrakeyah",
        "lat": "-12.45527",
        "lng": "130.83172"
    },
    {
        "country": "AU",
        "name": "Leanyer",
        "lat": "-12.36667",
        "lng": "130.9"
    },
    {
        "country": "AU",
        "name": "Ludmilla",
        "lat": "-12.42032",
        "lng": "130.85506"
    },
    {
        "country": "AU",
        "name": "Fannie Bay",
        "lat": "-12.42275",
        "lng": "130.83627"
    },
    {
        "country": "AU",
        "name": "Nightcliff",
        "lat": "-12.38299",
        "lng": "130.8517"
    },
    {
        "country": "AU",
        "name": "Glen Iris",
        "lat": "-33.33713",
        "lng": "115.6743"
    },
    {
        "country": "AU",
        "name": "Lower King",
        "lat": "-34.95778",
        "lng": "117.93833"
    },
    {
        "country": "AU",
        "name": "Young",
        "lat": "-34.3135",
        "lng": "148.30107"
    },
    {
        "country": "AU",
        "name": "Yeppoon",
        "lat": "-23.12683",
        "lng": "150.74406"
    },
    {
        "country": "AU",
        "name": "Yatala",
        "lat": "-27.71667",
        "lng": "153.21667"
    },
    {
        "country": "AU",
        "name": "Yass",
        "lat": "-34.84036",
        "lng": "148.90987"
    },
    {
        "country": "AU",
        "name": "Yarrawonga",
        "lat": "-36.01923",
        "lng": "145.99973"
    },
    {
        "country": "AU",
        "name": "Yarraville",
        "lat": "-37.81667",
        "lng": "144.9"
    },
    {
        "country": "AU",
        "name": "Yarraman",
        "lat": "-26.84167",
        "lng": "151.98138"
    },
    {
        "country": "AU",
        "name": "Yarra Junction",
        "lat": "-37.78192",
        "lng": "145.6143"
    },
    {
        "country": "AU",
        "name": "Yarra Glen",
        "lat": "-37.65794",
        "lng": "145.37416"
    },
    {
        "country": "AU",
        "name": "Yandina",
        "lat": "-26.56165",
        "lng": "152.95595"
    },
    {
        "country": "AU",
        "name": "Wynyard",
        "lat": "-40.9897",
        "lng": "145.72617"
    },
    {
        "country": "AU",
        "name": "Wynnum",
        "lat": "-27.44527",
        "lng": "153.15813"
    },
    {
        "country": "AU",
        "name": "Worrolong",
        "lat": "-37.80619",
        "lng": "140.84803"
    },
    {
        "country": "AU",
        "name": "Woree",
        "lat": "-16.95",
        "lng": "145.75"
    },
    {
        "country": "AU",
        "name": "Woori Yallock",
        "lat": "-37.78062",
        "lng": "145.53819"
    },
    {
        "country": "AU",
        "name": "Woorim",
        "lat": "-27.06931",
        "lng": "153.20427"
    },
    {
        "country": "AU",
        "name": "Woombye",
        "lat": "-26.66054",
        "lng": "152.96947"
    },
    {
        "country": "AU",
        "name": "Woolgoolga",
        "lat": "-30.11058",
        "lng": "153.20067"
    },
    {
        "country": "AU",
        "name": "Woodridge",
        "lat": "-27.63333",
        "lng": "153.1"
    },
    {
        "country": "AU",
        "name": "Woodford",
        "lat": "-26.95291",
        "lng": "152.77747"
    },
    {
        "country": "AU",
        "name": "Wondai",
        "lat": "-26.3177",
        "lng": "151.87242"
    },
    {
        "country": "AU",
        "name": "Wodonga",
        "lat": "-36.12179",
        "lng": "146.88809"
    },
    {
        "country": "AU",
        "name": "Windsor",
        "lat": "-37.85344",
        "lng": "144.99241"
    },
    {
        "country": "AU",
        "name": "Windaroo",
        "lat": "-27.73333",
        "lng": "153.2"
    },
    {
        "country": "AU",
        "name": "Williamstown",
        "lat": "-37.86349",
        "lng": "144.899"
    },
    {
        "country": "AU",
        "name": "Whittlesea",
        "lat": "-37.51152",
        "lng": "145.11836"
    },
    {
        "country": "AU",
        "name": "Wheelers Hill",
        "lat": "-37.9",
        "lng": "145.18333"
    },
    {
        "country": "AU",
        "name": "West Wyalong",
        "lat": "-33.92373",
        "lng": "147.20473"
    },
    {
        "country": "AU",
        "name": "Westmead",
        "lat": "-33.80383",
        "lng": "150.98768"
    },
    {
        "country": "AU",
        "name": "Westcourt",
        "lat": "-26.8",
        "lng": "150.15"
    },
    {
        "country": "AU",
        "name": "Westbury",
        "lat": "-41.52914",
        "lng": "146.83914"
    },
    {
        "country": "AU",
        "name": "Westbrook",
        "lat": "-27.61667",
        "lng": "151.86667"
    },
    {
        "country": "AU",
        "name": "Werribee",
        "lat": "-37.9",
        "lng": "144.66667"
    },
    {
        "country": "AU",
        "name": "Wellington Point",
        "lat": "-27.48333",
        "lng": "153.25"
    },
    {
        "country": "AU",
        "name": "Wellington",
        "lat": "-32.55588",
        "lng": "148.94508"
    },
    {
        "country": "AU",
        "name": "Weipa",
        "lat": "-12.62346",
        "lng": "141.87883"
    },
    {
        "country": "AU",
        "name": "Wattleglen",
        "lat": "-37.66667",
        "lng": "145.18333"
    },
    {
        "country": "AU",
        "name": "Watsonia",
        "lat": "-37.71667",
        "lng": "145.08333"
    },
    {
        "country": "AU",
        "name": "Warwick",
        "lat": "-28.21901",
        "lng": "152.03438"
    },
    {
        "country": "AU",
        "name": "Warrnambool",
        "lat": "-38.38176",
        "lng": "142.48799"
    },
    {
        "country": "AU",
        "name": "Warrane",
        "lat": "-42.85546",
        "lng": "147.38297"
    },
    {
        "country": "AU",
        "name": "Warrandyte",
        "lat": "-37.75",
        "lng": "145.23333"
    },
    {
        "country": "AU",
        "name": "Warragul",
        "lat": "-38.15912",
        "lng": "145.93118"
    },
    {
        "country": "AU",
        "name": "Wantirna South",
        "lat": "-37.88333",
        "lng": "145.21667"
    },
    {
        "country": "AU",
        "name": "Wantirna",
        "lat": "-37.85",
        "lng": "145.21667"
    },
    {
        "country": "AU",
        "name": "Wangaratta",
        "lat": "-36.35846",
        "lng": "146.32056"
    },
    {
        "country": "AU",
        "name": "Walkerston",
        "lat": "-21.16097",
        "lng": "149.05814"
    },
    {
        "country": "AU",
        "name": "Wahroonga",
        "lat": "-33.71816",
        "lng": "151.11561"
    },
    {
        "country": "AU",
        "name": "Wagga Wagga",
        "lat": "-35.12577",
        "lng": "147.35375"
    },
    {
        "country": "AU",
        "name": "Wacol",
        "lat": "-27.58333",
        "lng": "152.93333"
    },
    {
        "country": "AU",
        "name": "Victoria Point",
        "lat": "-27.58329",
        "lng": "153.31172"
    },
    {
        "country": "AU",
        "name": "Vermont",
        "lat": "-37.83616",
        "lng": "145.19428"
    },
    {
        "country": "AU",
        "name": "Urraween",
        "lat": "-25.29522",
        "lng": "152.82206"
    },
    {
        "country": "AU",
        "name": "Urangan",
        "lat": "-25.29214",
        "lng": "152.90535"
    },
    {
        "country": "AU",
        "name": "Upwey",
        "lat": "-37.9",
        "lng": "145.33333"
    },
    {
        "country": "AU",
        "name": "Upper Coomera",
        "lat": "-27.9",
        "lng": "153.3"
    },
    {
        "country": "AU",
        "name": "Ulverstone",
        "lat": "-41.16026",
        "lng": "146.18242"
    },
    {
        "country": "AU",
        "name": "Ulladulla",
        "lat": "-35.35906",
        "lng": "150.47247"
    },
    {
        "country": "AU",
        "name": "Tyabb",
        "lat": "-38.25",
        "lng": "145.18333"
    },
    {
        "country": "AU",
        "name": "Tumut",
        "lat": "-35.30642",
        "lng": "148.21818"
    },
    {
        "country": "AU",
        "name": "Tumbi Vmbi",
        "lat": "-33.36667",
        "lng": "151.45"
    },
    {
        "country": "AU",
        "name": "Tullamarine",
        "lat": "-37.70128",
        "lng": "144.881"
    },
    {
        "country": "AU",
        "name": "Tugun",
        "lat": "-28.15",
        "lng": "153.5"
    },
    {
        "country": "AU",
        "name": "Truganina",
        "lat": "-37.81667",
        "lng": "144.75"
    },
    {
        "country": "AU",
        "name": "Trinity Beach",
        "lat": "-16.78876",
        "lng": "145.69682"
    },
    {
        "country": "AU",
        "name": "Tremont",
        "lat": "-37.9",
        "lng": "145.33333"
    },
    {
        "country": "AU",
        "name": "Traralgon",
        "lat": "-38.19528",
        "lng": "146.5415"
    },
    {
        "country": "AU",
        "name": "Townsville",
        "lat": "-19.26639",
        "lng": "146.80569"
    },
    {
        "country": "AU",
        "name": "Torquay",
        "lat": "-25.28496",
        "lng": "152.87886"
    },
    {
        "country": "AU",
        "name": "Toowoomba",
        "lat": "-27.56056",
        "lng": "151.95386"
    },
    {
        "country": "AU",
        "name": "Toorak",
        "lat": "-37.84165",
        "lng": "145.01438"
    },
    {
        "country": "AU",
        "name": "Tooradin",
        "lat": "-38.21475",
        "lng": "145.38325"
    },
    {
        "country": "AU",
        "name": "Toongabbie",
        "lat": "-33.78333",
        "lng": "150.95"
    },
    {
        "country": "AU",
        "name": "Toolooa",
        "lat": "-23.88505",
        "lng": "151.26783"
    },
    {
        "country": "AU",
        "name": "Tolga",
        "lat": "-17.23333",
        "lng": "145.48333"
    },
    {
        "country": "AU",
        "name": "Tin Can Bay",
        "lat": "-25.91914",
        "lng": "153.0032"
    },
    {
        "country": "AU",
        "name": "Thornbury",
        "lat": "-37.75",
        "lng": "145"
    },
    {
        "country": "AU",
        "name": "Thomastown",
        "lat": "-37.68333",
        "lng": "145.01667"
    },
    {
        "country": "AU",
        "name": "The Entrance",
        "lat": "-33.33876",
        "lng": "151.4978"
    },
    {
        "country": "AU",
        "name": "The Basin",
        "lat": "-37.85",
        "lng": "145.31667"
    },
    {
        "country": "AU",
        "name": "Thagoona",
        "lat": "-27.63333",
        "lng": "152.63333"
    },
    {
        "country": "AU",
        "name": "Thabeban",
        "lat": "-24.9",
        "lng": "152.35"
    },
    {
        "country": "AU",
        "name": "Tewantin",
        "lat": "-26.39104",
        "lng": "153.03432"
    },
    {
        "country": "AU",
        "name": "Templestowe Lower",
        "lat": "-37.76667",
        "lng": "145.11667"
    },
    {
        "country": "AU",
        "name": "Tarragindi",
        "lat": "-27.53333",
        "lng": "153.03333"
    },
    {
        "country": "AU",
        "name": "Taroona",
        "lat": "-42.9452",
        "lng": "147.3484"
    },
    {
        "country": "AU",
        "name": "Taroom",
        "lat": "-25.63925",
        "lng": "149.7998"
    },
    {
        "country": "AU",
        "name": "Tarneit",
        "lat": "-37.86667",
        "lng": "144.66667"
    },
    {
        "country": "AU",
        "name": "Taree",
        "lat": "-31.91099",
        "lng": "152.45387"
    },
    {
        "country": "AU",
        "name": "Tamworth",
        "lat": "-31.09048",
        "lng": "150.92905"
    },
    {
        "country": "AU",
        "name": "Tallebudgera",
        "lat": "-28.15",
        "lng": "153.43333"
    },
    {
        "country": "AU",
        "name": "Sydney",
        "lat": "-33.86785",
        "lng": "151.20732"
    },
    {
        "country": "AU",
        "name": "Sydenham",
        "lat": "-37.7",
        "lng": "144.76667"
    },
    {
        "country": "AU",
        "name": "Swan Hill",
        "lat": "-35.33781",
        "lng": "143.5544"
    },
    {
        "country": "AU",
        "name": "Surrey Hills",
        "lat": "-37.81667",
        "lng": "145.1"
    },
    {
        "country": "AU",
        "name": "Surfers Paradise",
        "lat": "-28.00274",
        "lng": "153.42999"
    },
    {
        "country": "AU",
        "name": "Sunnybank",
        "lat": "-27.58333",
        "lng": "153.05"
    },
    {
        "country": "AU",
        "name": "Sunbury",
        "lat": "-37.57742",
        "lng": "144.72607"
    },
    {
        "country": "AU",
        "name": "Strathpine",
        "lat": "-27.30414",
        "lng": "152.98977"
    },
    {
        "country": "AU",
        "name": "Strathfield",
        "lat": "-33.88096",
        "lng": "151.07986"
    },
    {
        "country": "AU",
        "name": "Port Stephens",
        "lat": "-32.71314",
        "lng": "152.06623"
    },
    {
        "country": "AU",
        "name": "Stawell",
        "lat": "-37.05632",
        "lng": "142.78088"
    },
    {
        "country": "AU",
        "name": "Stanthorpe",
        "lat": "-28.65425",
        "lng": "151.93388"
    },
    {
        "country": "AU",
        "name": "Springvale South",
        "lat": "-37.96667",
        "lng": "145.15"
    },
    {
        "country": "AU",
        "name": "Springvale",
        "lat": "-37.94853",
        "lng": "145.15274"
    },
    {
        "country": "AU",
        "name": "Spring Hill",
        "lat": "-27.46141",
        "lng": "153.02311"
    },
    {
        "country": "AU",
        "name": "Spotswood",
        "lat": "-37.82975",
        "lng": "144.88516"
    },
    {
        "country": "AU",
        "name": "Werribee South",
        "lat": "-37.9475",
        "lng": "144.71667"
    },
    {
        "country": "AU",
        "name": "Southport",
        "lat": "-27.96724",
        "lng": "153.39796"
    },
    {
        "country": "AU",
        "name": "South Melbourne",
        "lat": "-37.83333",
        "lng": "144.96667"
    },
    {
        "country": "AU",
        "name": "South Grafton",
        "lat": "-29.7076",
        "lng": "152.92627"
    },
    {
        "country": "AU",
        "name": "Sorrento",
        "lat": "-38.33958",
        "lng": "144.74126"
    },
    {
        "country": "AU",
        "name": "Sorell",
        "lat": "-42.78161",
        "lng": "147.56267"
    },
    {
        "country": "AU",
        "name": "Somerville",
        "lat": "-38.21667",
        "lng": "145.16667"
    },
    {
        "country": "AU",
        "name": "Somers",
        "lat": "-38.4",
        "lng": "145.16667"
    },
    {
        "country": "AU",
        "name": "Smithton",
        "lat": "-40.84587",
        "lng": "145.12498"
    },
    {
        "country": "AU",
        "name": "Slacks Creek",
        "lat": "-27.65",
        "lng": "153.15"
    },
    {
        "country": "AU",
        "name": "Singleton",
        "lat": "-32.56742",
        "lng": "151.16603"
    },
    {
        "country": "AU",
        "name": "Shorncliffe",
        "lat": "-27.32759",
        "lng": "153.08161"
    },
    {
        "country": "AU",
        "name": "Shepparton",
        "lat": "-36.38047",
        "lng": "145.39867"
    },
    {
        "country": "AU",
        "name": "Shellharbour Village",
        "lat": "-34.58333",
        "lng": "150.86667"
    },
    {
        "country": "AU",
        "name": "Sheffield",
        "lat": "-41.39947",
        "lng": "146.33897"
    },
    {
        "country": "AU",
        "name": "Sharon",
        "lat": "-24.87593",
        "lng": "152.26994"
    },
    {
        "country": "AU",
        "name": "Selby",
        "lat": "-37.91667",
        "lng": "145.38333"
    },
    {
        "country": "AU",
        "name": "Sebastopol",
        "lat": "-37.58532",
        "lng": "143.83953"
    },
    {
        "country": "AU",
        "name": "Seaford",
        "lat": "-38.1",
        "lng": "145.13333"
    },
    {
        "country": "AU",
        "name": "Scottsdale",
        "lat": "-41.1578",
        "lng": "147.51727"
    },
    {
        "country": "AU",
        "name": "Scoresby",
        "lat": "-37.9",
        "lng": "145.23333"
    },
    {
        "country": "AU",
        "name": "Scarness",
        "lat": "-25.28405",
        "lng": "152.856"
    },
    {
        "country": "AU",
        "name": "Sawtell",
        "lat": "-30.36459",
        "lng": "153.10141"
    },
    {
        "country": "AU",
        "name": "Sarina",
        "lat": "-21.4191",
        "lng": "149.21677"
    },
    {
        "country": "AU",
        "name": "Sandgate",
        "lat": "-27.32198",
        "lng": "153.06951"
    },
    {
        "country": "AU",
        "name": "Sandford",
        "lat": "-42.93333",
        "lng": "147.5"
    },
    {
        "country": "AU",
        "name": "Sale",
        "lat": "-38.11095",
        "lng": "147.06802"
    },
    {
        "country": "AU",
        "name": "Saint Kilda",
        "lat": "-37.8676",
        "lng": "144.98099"
    },
    {
        "country": "AU",
        "name": "St Helens",
        "lat": "-41.32028",
        "lng": "148.23889"
    },
    {
        "country": "AU",
        "name": "Saint Helena",
        "lat": "-37.7",
        "lng": "145.13333"
    },
    {
        "country": "AU",
        "name": "Saint Andrews",
        "lat": "-37.60151",
        "lng": "145.27235"
    },
    {
        "country": "AU",
        "name": "Saint Albans",
        "lat": "-37.73333",
        "lng": "144.8"
    },
    {
        "country": "AU",
        "name": "Rye",
        "lat": "-38.36667",
        "lng": "144.81667"
    },
    {
        "country": "AU",
        "name": "Rutherford",
        "lat": "-32.71667",
        "lng": "151.53333"
    },
    {
        "country": "AU",
        "name": "Rowville",
        "lat": "-37.93333",
        "lng": "145.23333"
    },
    {
        "country": "AU",
        "name": "Rosebud",
        "lat": "-38.35542",
        "lng": "144.9068"
    },
    {
        "country": "AU",
        "name": "Rosebery",
        "lat": "-41.77941",
        "lng": "145.53825"
    },
    {
        "country": "AU",
        "name": "Rosanna",
        "lat": "-37.75",
        "lng": "145.06667"
    },
    {
        "country": "AU",
        "name": "Roma",
        "lat": "-26.56741",
        "lng": "148.78751"
    },
    {
        "country": "AU",
        "name": "Rokeby",
        "lat": "-42.89875",
        "lng": "147.44917"
    },
    {
        "country": "AU",
        "name": "Rocklea",
        "lat": "-27.53917",
        "lng": "153.00402"
    },
    {
        "country": "AU",
        "name": "Rockhampton",
        "lat": "-23.38032",
        "lng": "150.50595"
    },
    {
        "country": "AU",
        "name": "Rockbank",
        "lat": "-37.73353",
        "lng": "144.67003"
    },
    {
        "country": "AU",
        "name": "Riverview",
        "lat": "-27.6",
        "lng": "152.85"
    },
    {
        "country": "AU",
        "name": "Riverstone",
        "lat": "-33.68333",
        "lng": "150.86667"
    },
    {
        "country": "AU",
        "name": "Ripponlea",
        "lat": "-37.88333",
        "lng": "145"
    },
    {
        "country": "AU",
        "name": "Ringwood East",
        "lat": "-37.81667",
        "lng": "145.25"
    },
    {
        "country": "AU",
        "name": "Richmond",
        "lat": "-37.81819",
        "lng": "145.00176"
    },
    {
        "country": "AU",
        "name": "Richmond",
        "lat": "-33.59956",
        "lng": "150.75142"
    },
    {
        "country": "AU",
        "name": "Rhodes",
        "lat": "-33.82663",
        "lng": "151.0881"
    },
    {
        "country": "AU",
        "name": "Revesby",
        "lat": "-33.95",
        "lng": "151.01667"
    },
    {
        "country": "AU",
        "name": "Reservoir",
        "lat": "-37.71667",
        "lng": "145"
    },
    {
        "country": "AU",
        "name": "Research",
        "lat": "-37.7",
        "lng": "145.18333"
    },
    {
        "country": "AU",
        "name": "Renmark West",
        "lat": "-34.16531",
        "lng": "140.7097"
    },
    {
        "country": "AU",
        "name": "Renmark",
        "lat": "-34.17702",
        "lng": "140.74697"
    },
    {
        "country": "AU",
        "name": "Regents Park",
        "lat": "-33.88333",
        "lng": "151.01667"
    },
    {
        "country": "AU",
        "name": "Redlynch",
        "lat": "-16.88333",
        "lng": "145.7"
    },
    {
        "country": "AU",
        "name": "Redland Bay",
        "lat": "-27.6113",
        "lng": "153.30022"
    },
    {
        "country": "AU",
        "name": "Red Hill",
        "lat": "-20.31667",
        "lng": "148.5"
    },
    {
        "country": "AU",
        "name": "Redhead",
        "lat": "-33.01178",
        "lng": "151.71142"
    },
    {
        "country": "AU",
        "name": "Redfern",
        "lat": "-33.89279",
        "lng": "151.20415"
    },
    {
        "country": "AU",
        "name": "Redbank",
        "lat": "-27.6",
        "lng": "152.86667"
    },
    {
        "country": "AU",
        "name": "Raworth",
        "lat": "-32.73333",
        "lng": "151.61667"
    },
    {
        "country": "AU",
        "name": "Ravenshoe",
        "lat": "-17.60901",
        "lng": "145.48413"
    },
    {
        "country": "AU",
        "name": "Rathmines",
        "lat": "-33.03773",
        "lng": "151.58443"
    },
    {
        "country": "AU",
        "name": "Quirindi",
        "lat": "-31.50763",
        "lng": "150.67902"
    },
    {
        "country": "AU",
        "name": "Queenstown",
        "lat": "-42.0805",
        "lng": "145.55646"
    },
    {
        "country": "AU",
        "name": "Queenscliff",
        "lat": "-38.26789",
        "lng": "144.66193"
    },
    {
        "country": "AU",
        "name": "Queanbeyan",
        "lat": "-35.35493",
        "lng": "149.232"
    },
    {
        "country": "AU",
        "name": "Quakers Hill",
        "lat": "-33.73333",
        "lng": "150.88333"
    },
    {
        "country": "AU",
        "name": "Pymble",
        "lat": "-33.74386",
        "lng": "151.14188"
    },
    {
        "country": "AU",
        "name": "Proserpine",
        "lat": "-20.4011",
        "lng": "148.5802"
    },
    {
        "country": "AU",
        "name": "Preston",
        "lat": "-37.75",
        "lng": "145.01667"
    },
    {
        "country": "AU",
        "name": "Port Sorell",
        "lat": "-41.16652",
        "lng": "146.55283"
    },
    {
        "country": "AU",
        "name": "Port Melbourne",
        "lat": "-37.83961",
        "lng": "144.94228"
    },
    {
        "country": "AU",
        "name": "Port Macquarie",
        "lat": "-31.43084",
        "lng": "152.90894"
    },
    {
        "country": "AU",
        "name": "Portland",
        "lat": "-38.3462",
        "lng": "141.60257"
    },
    {
        "country": "AU",
        "name": "Portland",
        "lat": "-33.35709",
        "lng": "149.98148"
    },
    {
        "country": "AU",
        "name": "Port Kembla",
        "lat": "-34.4818",
        "lng": "150.9012"
    },
    {
        "country": "AU",
        "name": "Port Fairy",
        "lat": "-38.38535",
        "lng": "142.2371"
    },
    {
        "country": "AU",
        "name": "Port Douglas",
        "lat": "-16.48383",
        "lng": "145.46725"
    },
    {
        "country": "AU",
        "name": "Point Cook",
        "lat": "-37.91482",
        "lng": "144.75088"
    },
    {
        "country": "AU",
        "name": "Point Clare",
        "lat": "-33.44378",
        "lng": "151.32732"
    },
    {
        "country": "AU",
        "name": "Plenty",
        "lat": "-37.66667",
        "lng": "145.11667"
    },
    {
        "country": "AU",
        "name": "Pitt Town",
        "lat": "-33.58718",
        "lng": "150.85857"
    },
    {
        "country": "AU",
        "name": "Picton",
        "lat": "-34.16995",
        "lng": "150.61168"
    },
    {
        "country": "AU",
        "name": "Phillip",
        "lat": "-31.13333",
        "lng": "150.85"
    },
    {
        "country": "AU",
        "name": "Perthville",
        "lat": "-33.48741",
        "lng": "149.54642"
    },
    {
        "country": "AU",
        "name": "Perth",
        "lat": "-41.57231",
        "lng": "147.17096"
    },
    {
        "country": "AU",
        "name": "Penshurst",
        "lat": "-33.96667",
        "lng": "151.08333"
    },
    {
        "country": "AU",
        "name": "Penrith",
        "lat": "-33.75",
        "lng": "150.7"
    },
    {
        "country": "AU",
        "name": "Penola",
        "lat": "-37.3752",
        "lng": "140.83678"
    },
    {
        "country": "AU",
        "name": "Pennant Hills",
        "lat": "-33.73783",
        "lng": "151.07216"
    },
    {
        "country": "AU",
        "name": "Penguin",
        "lat": "-41.12258",
        "lng": "146.07318"
    },
    {
        "country": "AU",
        "name": "Peak Hill",
        "lat": "-32.72387",
        "lng": "148.19052"
    },
    {
        "country": "AU",
        "name": "Pascoe Vale",
        "lat": "-37.73333",
        "lng": "144.93333"
    },
    {
        "country": "AU",
        "name": "Parkville",
        "lat": "-37.78333",
        "lng": "144.95"
    },
    {
        "country": "AU",
        "name": "Parkes",
        "lat": "-33.1372",
        "lng": "148.1759"
    },
    {
        "country": "AU",
        "name": "Parkdale",
        "lat": "-37.98333",
        "lng": "145.06667"
    },
    {
        "country": "AU",
        "name": "Palm Beach",
        "lat": "-33.59664",
        "lng": "151.32384"
    },
    {
        "country": "AU",
        "name": "Palm Beach",
        "lat": "-28.11694",
        "lng": "153.46584"
    },
    {
        "country": "AU",
        "name": "Pakenham Upper",
        "lat": "-38.01667",
        "lng": "145.51667"
    },
    {
        "country": "AU",
        "name": "Pakenham South",
        "lat": "-38.13333",
        "lng": "145.51667"
    },
    {
        "country": "AU",
        "name": "Ouyen",
        "lat": "-35.07087",
        "lng": "142.32034"
    },
    {
        "country": "AU",
        "name": "Ormond",
        "lat": "-37.9",
        "lng": "145.03333"
    },
    {
        "country": "AU",
        "name": "Orange",
        "lat": "-33.28397",
        "lng": "149.10018"
    },
    {
        "country": "AU",
        "name": "One Mile",
        "lat": "-27.62902",
        "lng": "152.73768"
    },
    {
        "country": "AU",
        "name": "Olinda",
        "lat": "-37.85",
        "lng": "145.36667"
    },
    {
        "country": "AU",
        "name": "Old Beach",
        "lat": "-42.77758",
        "lng": "147.26659"
    },
    {
        "country": "AU",
        "name": "Old Bar",
        "lat": "-31.9694",
        "lng": "152.58807"
    },
    {
        "country": "AU",
        "name": "Officer",
        "lat": "-38.05916",
        "lng": "145.40947"
    },
    {
        "country": "AU",
        "name": "Oberon",
        "lat": "-33.70398",
        "lng": "149.85915"
    },
    {
        "country": "AU",
        "name": "Oatley",
        "lat": "-33.98004",
        "lng": "151.07201"
    },
    {
        "country": "AU",
        "name": "Oakey",
        "lat": "-27.43305",
        "lng": "151.72063"
    },
    {
        "country": "AU",
        "name": "Oakdale",
        "lat": "-34.0793",
        "lng": "150.5132"
    },
    {
        "country": "AU",
        "name": "Nyngan",
        "lat": "-31.56375",
        "lng": "147.19373"
    },
    {
        "country": "AU",
        "name": "Nunawading",
        "lat": "-37.82043",
        "lng": "145.17308"
    },
    {
        "country": "AU",
        "name": "Nowra",
        "lat": "-34.88422",
        "lng": "150.60036"
    },
    {
        "country": "AU",
        "name": "Notting Hill",
        "lat": "-37.905",
        "lng": "145.1427"
    },
    {
        "country": "AU",
        "name": "North Wonthaggi",
        "lat": "-38.6",
        "lng": "145.6"
    },
    {
        "country": "AU",
        "name": "North Turramurra",
        "lat": "-33.71313",
        "lng": "151.14638"
    },
    {
        "country": "AU",
        "name": "North Sydney",
        "lat": "-33.839",
        "lng": "151.2072"
    },
    {
        "country": "AU",
        "name": "North Melbourne",
        "lat": "-37.79798",
        "lng": "144.94512"
    },
    {
        "country": "AU",
        "name": "Northmead",
        "lat": "-33.78333",
        "lng": "150.98333"
    },
    {
        "country": "AU",
        "name": "North Haven",
        "lat": "-31.6368",
        "lng": "152.81357"
    },
    {
        "country": "AU",
        "name": "North Fitzroy",
        "lat": "-37.78862",
        "lng": "144.97885"
    },
    {
        "country": "AU",
        "name": "Northcote",
        "lat": "-37.76667",
        "lng": "145"
    },
    {
        "country": "AU",
        "name": "Normanhurst",
        "lat": "-33.73333",
        "lng": "151.1"
    },
    {
        "country": "AU",
        "name": "Noosaville",
        "lat": "-26.4",
        "lng": "153.06667"
    },
    {
        "country": "AU",
        "name": "Noosa Heads",
        "lat": "-26.39433",
        "lng": "153.0901"
    },
    {
        "country": "AU",
        "name": "Noble Park",
        "lat": "-37.96667",
        "lng": "145.16667"
    },
    {
        "country": "AU",
        "name": "Nimbin",
        "lat": "-28.59545",
        "lng": "153.22336"
    },
    {
        "country": "AU",
        "name": "Newtown",
        "lat": "-33.89835",
        "lng": "151.17754"
    },
    {
        "country": "AU",
        "name": "Newstead",
        "lat": "-41.43333",
        "lng": "147.16667"
    },
    {
        "country": "AU",
        "name": "Newport",
        "lat": "-37.84427",
        "lng": "144.88483"
    },
    {
        "country": "AU",
        "name": "Newport",
        "lat": "-33.65639",
        "lng": "151.31401"
    },
    {
        "country": "AU",
        "name": "New Norfolk",
        "lat": "-42.78261",
        "lng": "147.0587"
    },
    {
        "country": "AU",
        "name": "Newnham",
        "lat": "-41.39714",
        "lng": "147.13127"
    },
    {
        "country": "AU",
        "name": "Newington",
        "lat": "-37.55846",
        "lng": "143.82485"
    },
    {
        "country": "AU",
        "name": "Newcastle",
        "lat": "-32.92715",
        "lng": "151.77647"
    },
    {
        "country": "AU",
        "name": "Nerang",
        "lat": "-27.98941",
        "lng": "153.33633"
    },
    {
        "country": "AU",
        "name": "Nelson Bay",
        "lat": "-32.72043",
        "lng": "152.14398"
    },
    {
        "country": "AU",
        "name": "Narromine",
        "lat": "-32.23121",
        "lng": "148.24052"
    },
    {
        "country": "AU",
        "name": "Narre Warren North",
        "lat": "-37.98333",
        "lng": "145.31667"
    },
    {
        "country": "AU",
        "name": "Narre Warren",
        "lat": "-38.03333",
        "lng": "145.3"
    },
    {
        "country": "AU",
        "name": "Narrandera",
        "lat": "-34.74752",
        "lng": "146.55096"
    },
    {
        "country": "AU",
        "name": "Narrabri",
        "lat": "-30.32488",
        "lng": "149.78266"
    },
    {
        "country": "AU",
        "name": "Narrabeen",
        "lat": "-33.71277",
        "lng": "151.29736"
    },
    {
        "country": "AU",
        "name": "Narooma",
        "lat": "-36.21783",
        "lng": "150.13247"
    },
    {
        "country": "AU",
        "name": "Narellan",
        "lat": "-34.03333",
        "lng": "150.73333"
    },
    {
        "country": "AU",
        "name": "Narara",
        "lat": "-33.4",
        "lng": "151.35"
    },
    {
        "country": "AU",
        "name": "Narangba",
        "lat": "-27.20338",
        "lng": "152.95923"
    },
    {
        "country": "AU",
        "name": "Naracoorte",
        "lat": "-36.95785",
        "lng": "140.7383"
    },
    {
        "country": "AU",
        "name": "Nana Glen",
        "lat": "-30.13333",
        "lng": "153.01667"
    },
    {
        "country": "AU",
        "name": "Nambucca Heads",
        "lat": "-30.64318",
        "lng": "153.00884"
    },
    {
        "country": "AU",
        "name": "Nambucca",
        "lat": "-30.63333",
        "lng": "152.98333"
    },
    {
        "country": "AU",
        "name": "Nambour",
        "lat": "-26.62613",
        "lng": "152.95941"
    },
    {
        "country": "AU",
        "name": "Nabiac",
        "lat": "-32.09837",
        "lng": "152.37627"
    },
    {
        "country": "AU",
        "name": "Muswellbrook",
        "lat": "-32.26118",
        "lng": "150.89009"
    },
    {
        "country": "AU",
        "name": "Murwillumbah",
        "lat": "-28.32732",
        "lng": "153.39339"
    },
    {
        "country": "AU",
        "name": "Murrumbeena",
        "lat": "-37.9",
        "lng": "145.06667"
    },
    {
        "country": "AU",
        "name": "Murrumbateman",
        "lat": "-34.97199",
        "lng": "149.02985"
    },
    {
        "country": "AU",
        "name": "Mundulla",
        "lat": "-36.36667",
        "lng": "140.68333"
    },
    {
        "country": "AU",
        "name": "Mulwala",
        "lat": "-35.98536",
        "lng": "146.00534"
    },
    {
        "country": "AU",
        "name": "Mulgrave",
        "lat": "-37.91667",
        "lng": "145.2"
    },
    {
        "country": "AU",
        "name": "Mulgoa",
        "lat": "-33.838",
        "lng": "150.64963"
    },
    {
        "country": "AU",
        "name": "Mudgee",
        "lat": "-32.59426",
        "lng": "149.5871"
    },
    {
        "country": "AU",
        "name": "Mount Waverley",
        "lat": "-37.87709",
        "lng": "145.12939"
    },
    {
        "country": "AU",
        "name": "Mount Pleasant",
        "lat": "-37.58333",
        "lng": "143.86667"
    },
    {
        "country": "AU",
        "name": "Mount Martha",
        "lat": "-38.26667",
        "lng": "145.01667"
    },
    {
        "country": "AU",
        "name": "Mount Gambier",
        "lat": "-37.8318",
        "lng": "140.77919"
    },
    {
        "country": "AU",
        "name": "Mount Evelyn",
        "lat": "-37.78333",
        "lng": "145.38333"
    },
    {
        "country": "AU",
        "name": "Mount Eliza",
        "lat": "-38.18333",
        "lng": "145.08333"
    },
    {
        "country": "AU",
        "name": "Mount Druitt",
        "lat": "-33.76667",
        "lng": "150.81667"
    },
    {
        "country": "AU",
        "name": "Mount Dandenong",
        "lat": "-37.83333",
        "lng": "145.36667"
    },
    {
        "country": "AU",
        "name": "Mount Colah",
        "lat": "-33.68333",
        "lng": "151.11667"
    },
    {
        "country": "AU",
        "name": "Mount Clear",
        "lat": "-37.6",
        "lng": "143.88333"
    },
    {
        "country": "AU",
        "name": "Mount Beauty",
        "lat": "-36.73628",
        "lng": "147.17531"
    },
    {
        "country": "AU",
        "name": "Moss Vale",
        "lat": "-34.55374",
        "lng": "150.37115"
    },
    {
        "country": "AU",
        "name": "Mosman",
        "lat": "-33.83902",
        "lng": "151.23956"
    },
    {
        "country": "AU",
        "name": "Morwell",
        "lat": "-38.23476",
        "lng": "146.39499"
    },
    {
        "country": "AU",
        "name": "Moruya",
        "lat": "-35.9125",
        "lng": "150.08144"
    },
    {
        "country": "AU",
        "name": "Mortdale",
        "lat": "-33.96667",
        "lng": "151.08333"
    },
    {
        "country": "AU",
        "name": "Mornington",
        "lat": "-38.21792",
        "lng": "145.03876"
    },
    {
        "country": "AU",
        "name": "Moree",
        "lat": "-29.46278",
        "lng": "149.84157"
    },
    {
        "country": "AU",
        "name": "Mordialloc",
        "lat": "-38",
        "lng": "145.08333"
    },
    {
        "country": "AU",
        "name": "Morayfield",
        "lat": "-27.10876",
        "lng": "152.94907"
    },
    {
        "country": "AU",
        "name": "Moorooduc",
        "lat": "-38.21667",
        "lng": "145.11667"
    },
    {
        "country": "AU",
        "name": "Moorabbin",
        "lat": "-37.93667",
        "lng": "145.03417"
    },
    {
        "country": "AU",
        "name": "Moonee Ponds",
        "lat": "-37.76667",
        "lng": "144.91667"
    },
    {
        "country": "AU",
        "name": "Moonee Beach",
        "lat": "-30.20575",
        "lng": "153.15293"
    },
    {
        "country": "AU",
        "name": "Moonah",
        "lat": "-42.84617",
        "lng": "147.30228"
    },
    {
        "country": "AU",
        "name": "Mooloolaba",
        "lat": "-26.68164",
        "lng": "153.11925"
    },
    {
        "country": "AU",
        "name": "Montrose",
        "lat": "-37.81667",
        "lng": "145.35"
    },
    {
        "country": "AU",
        "name": "Montmorency",
        "lat": "-37.71667",
        "lng": "145.11667"
    },
    {
        "country": "AU",
        "name": "Mont Albert",
        "lat": "-37.81667",
        "lng": "145.1"
    },
    {
        "country": "AU",
        "name": "Monbulk",
        "lat": "-37.88333",
        "lng": "145.4"
    },
    {
        "country": "AU",
        "name": "Monash",
        "lat": "-34.2384",
        "lng": "140.56131"
    },
    {
        "country": "AU",
        "name": "Molong",
        "lat": "-33.09233",
        "lng": "148.87002"
    },
    {
        "country": "AU",
        "name": "Moggill",
        "lat": "-27.58333",
        "lng": "152.86667"
    },
    {
        "country": "AU",
        "name": "Moe",
        "lat": "-38.17828",
        "lng": "146.26099"
    },
    {
        "country": "AU",
        "name": "Moama",
        "lat": "-36.10413",
        "lng": "144.7608"
    },
    {
        "country": "AU",
        "name": "Mittagong",
        "lat": "-34.45002",
        "lng": "150.44572"
    },
    {
        "country": "AU",
        "name": "Mitcham",
        "lat": "-37.81667",
        "lng": "145.2"
    },
    {
        "country": "AU",
        "name": "Miranda",
        "lat": "-34.03857",
        "lng": "151.10005"
    },
    {
        "country": "AU",
        "name": "Milton",
        "lat": "-35.31644",
        "lng": "150.4361"
    },
    {
        "country": "AU",
        "name": "Millthorpe",
        "lat": "-33.44601",
        "lng": "149.18539"
    },
    {
        "country": "AU",
        "name": "Mill Park",
        "lat": "-37.66667",
        "lng": "145.06667"
    },
    {
        "country": "AU",
        "name": "Millicent",
        "lat": "-37.59389",
        "lng": "140.34947"
    },
    {
        "country": "AU",
        "name": "Millgrove",
        "lat": "-37.75527",
        "lng": "145.65347"
    },
    {
        "country": "AU",
        "name": "Mildura",
        "lat": "-34.18551",
        "lng": "142.16251"
    },
    {
        "country": "AU",
        "name": "Merrylands",
        "lat": "-33.83333",
        "lng": "150.98333"
    },
    {
        "country": "AU",
        "name": "Merriwa",
        "lat": "-32.13922",
        "lng": "150.35562"
    },
    {
        "country": "AU",
        "name": "Merimbula",
        "lat": "-36.88901",
        "lng": "149.90961"
    },
    {
        "country": "AU",
        "name": "Merricks",
        "lat": "-38.38333",
        "lng": "145.08333"
    },
    {
        "country": "AU",
        "name": "Mernda",
        "lat": "-37.60075",
        "lng": "145.09555"
    },
    {
        "country": "AU",
        "name": "Mentone",
        "lat": "-37.98333",
        "lng": "145.06667"
    },
    {
        "country": "AU",
        "name": "Menai",
        "lat": "-34.01667",
        "lng": "151.01667"
    },
    {
        "country": "AU",
        "name": "Melton South",
        "lat": "-37.70773",
        "lng": "144.57493"
    },
    {
        "country": "AU",
        "name": "Melton",
        "lat": "-37.68339",
        "lng": "144.58543"
    },
    {
        "country": "AU",
        "name": "Melbourne",
        "lat": "-37.814",
        "lng": "144.96332"
    },
    {
        "country": "AU",
        "name": "Medowie",
        "lat": "-32.7415",
        "lng": "151.8676"
    },
    {
        "country": "AU",
        "name": "McKinnon",
        "lat": "-37.91667",
        "lng": "145.05"
    },
    {
        "country": "AU",
        "name": "Matraville",
        "lat": "-33.95",
        "lng": "151.23333"
    },
    {
        "country": "AU",
        "name": "Mascot",
        "lat": "-33.92598",
        "lng": "151.19347"
    },
    {
        "country": "AU",
        "name": "Maryborough",
        "lat": "-37.04562",
        "lng": "143.73923"
    },
    {
        "country": "AU",
        "name": "Maryborough",
        "lat": "-25.54073",
        "lng": "152.70493"
    },
    {
        "country": "AU",
        "name": "Marrickville",
        "lat": "-33.90318",
        "lng": "151.15176"
    },
    {
        "country": "AU",
        "name": "Maroubra",
        "lat": "-33.95",
        "lng": "151.23333"
    },
    {
        "country": "AU",
        "name": "Maribyrnong",
        "lat": "-37.78333",
        "lng": "144.88333"
    },
    {
        "country": "AU",
        "name": "Margate",
        "lat": "-43.02814",
        "lng": "147.26256"
    },
    {
        "country": "AU",
        "name": "Margate",
        "lat": "-27.24761",
        "lng": "153.09809"
    },
    {
        "country": "AU",
        "name": "Mareeba",
        "lat": "-16.99096",
        "lng": "145.42306"
    },
    {
        "country": "AU",
        "name": "Mansfield",
        "lat": "-37.052",
        "lng": "146.08846"
    },
    {
        "country": "AU",
        "name": "Manly",
        "lat": "-33.79798",
        "lng": "151.28826"
    },
    {
        "country": "AU",
        "name": "Manilla",
        "lat": "-30.74748",
        "lng": "150.71974"
    },
    {
        "country": "AU",
        "name": "Maleny",
        "lat": "-26.76001",
        "lng": "152.84926"
    },
    {
        "country": "AU",
        "name": "Malabar",
        "lat": "-33.96216",
        "lng": "151.24796"
    },
    {
        "country": "AU",
        "name": "Maitland",
        "lat": "-32.73308",
        "lng": "151.5574"
    },
    {
        "country": "AU",
        "name": "Macleod",
        "lat": "-37.73333",
        "lng": "145.06667"
    },
    {
        "country": "AU",
        "name": "Maclean",
        "lat": "-29.4581",
        "lng": "153.19753"
    },
    {
        "country": "AU",
        "name": "Macksville",
        "lat": "-30.7078",
        "lng": "152.92029"
    },
    {
        "country": "AU",
        "name": "Mackay",
        "lat": "-21.15345",
        "lng": "149.16554"
    },
    {
        "country": "AU",
        "name": "Macclesfield",
        "lat": "-37.88333",
        "lng": "145.48333"
    },
    {
        "country": "AU",
        "name": "Lysterfield",
        "lat": "-37.93333",
        "lng": "145.3"
    },
    {
        "country": "AU",
        "name": "Luddenham",
        "lat": "-33.8785",
        "lng": "150.68863"
    },
    {
        "country": "AU",
        "name": "Loxton",
        "lat": "-34.4502",
        "lng": "140.56908"
    },
    {
        "country": "AU",
        "name": "Lower Plenty",
        "lat": "-37.73333",
        "lng": "145.11667"
    },
    {
        "country": "AU",
        "name": "Loveday",
        "lat": "-34.28333",
        "lng": "140.43333"
    },
    {
        "country": "AU",
        "name": "Lorn",
        "lat": "-32.73333",
        "lng": "151.56667"
    },
    {
        "country": "AU",
        "name": "Long Jetty",
        "lat": "-33.35795",
        "lng": "151.48135"
    },
    {
        "country": "AU",
        "name": "Longford",
        "lat": "-41.60512",
        "lng": "147.11887"
    },
    {
        "country": "AU",
        "name": "Liverpool",
        "lat": "-33.9",
        "lng": "150.93333"
    },
    {
        "country": "AU",
        "name": "Little River",
        "lat": "-37.96667",
        "lng": "144.5"
    },
    {
        "country": "AU",
        "name": "Lithgow",
        "lat": "-33.4845",
        "lng": "150.14903"
    },
    {
        "country": "AU",
        "name": "Lismore",
        "lat": "-28.81354",
        "lng": "153.2773"
    },
    {
        "country": "AU",
        "name": "Lisarow",
        "lat": "-33.38333",
        "lng": "151.36667"
    },
    {
        "country": "AU",
        "name": "Lindisfarne",
        "lat": "-42.84837",
        "lng": "147.36192"
    },
    {
        "country": "AU",
        "name": "Lindfield",
        "lat": "-33.78333",
        "lng": "151.16667"
    },
    {
        "country": "AU",
        "name": "Lilydale",
        "lat": "-37.75",
        "lng": "145.35"
    },
    {
        "country": "AU",
        "name": "Lightning Ridge",
        "lat": "-29.42743",
        "lng": "147.97865"
    },
    {
        "country": "AU",
        "name": "Lidcombe",
        "lat": "-33.86436",
        "lng": "151.0397"
    },
    {
        "country": "AU",
        "name": "Leura",
        "lat": "-33.71667",
        "lng": "150.33333"
    },
    {
        "country": "AU",
        "name": "Leumeah",
        "lat": "-34.05",
        "lng": "150.83333"
    },
    {
        "country": "AU",
        "name": "Leopold",
        "lat": "-38.19001",
        "lng": "144.46825"
    },
    {
        "country": "AU",
        "name": "Leichhardt",
        "lat": "-33.88341",
        "lng": "151.15625"
    },
    {
        "country": "AU",
        "name": "Leeton",
        "lat": "-34.55105",
        "lng": "146.40483"
    },
    {
        "country": "AU",
        "name": "Lawson",
        "lat": "-33.72064",
        "lng": "150.42975"
    },
    {
        "country": "AU",
        "name": "Lavington",
        "lat": "-36.03976",
        "lng": "146.93958"
    },
    {
        "country": "AU",
        "name": "Camden Haven",
        "lat": "-31.64484",
        "lng": "152.79462"
    },
    {
        "country": "AU",
        "name": "Launceston",
        "lat": "-41.43876",
        "lng": "147.13467"
    },
    {
        "country": "AU",
        "name": "Lauderdale",
        "lat": "-42.91364",
        "lng": "147.48747"
    },
    {
        "country": "AU",
        "name": "Latrobe",
        "lat": "-41.24641",
        "lng": "146.42458"
    },
    {
        "country": "AU",
        "name": "Larnook",
        "lat": "-28.65162",
        "lng": "153.11077"
    },
    {
        "country": "AU",
        "name": "Largs",
        "lat": "-32.7",
        "lng": "151.6"
    },
    {
        "country": "AU",
        "name": "Lara",
        "lat": "-38.02388",
        "lng": "144.40617"
    },
    {
        "country": "AU",
        "name": "Langwarrin",
        "lat": "-38.16667",
        "lng": "145.16667"
    },
    {
        "country": "AU",
        "name": "Lane Cove",
        "lat": "-33.8157",
        "lng": "151.16679"
    },
    {
        "country": "AU",
        "name": "Lalor",
        "lat": "-37.66667",
        "lng": "145.01667"
    },
    {
        "country": "AU",
        "name": "Lakes Entrance",
        "lat": "-37.86679",
        "lng": "148.00159"
    },
    {
        "country": "AU",
        "name": "Lakemba",
        "lat": "-33.91972",
        "lng": "151.07592"
    },
    {
        "country": "AU",
        "name": "Lake Illawarra",
        "lat": "-34.54658",
        "lng": "150.85645"
    },
    {
        "country": "AU",
        "name": "Lake Cargelligo",
        "lat": "-33.29884",
        "lng": "146.37296"
    },
    {
        "country": "AU",
        "name": "Lake Albert",
        "lat": "-35.16667",
        "lng": "147.38333"
    },
    {
        "country": "AU",
        "name": "Kyogle",
        "lat": "-28.62075",
        "lng": "153.00482"
    },
    {
        "country": "AU",
        "name": "Kyabram",
        "lat": "-36.31335",
        "lng": "145.05035"
    },
    {
        "country": "AU",
        "name": "Kurri Kurri",
        "lat": "-32.81933",
        "lng": "151.47908"
    },
    {
        "country": "AU",
        "name": "Kurnell",
        "lat": "-34.01088",
        "lng": "151.20512"
    },
    {
        "country": "AU",
        "name": "Kuranda",
        "lat": "-16.81978",
        "lng": "145.63818"
    },
    {
        "country": "AU",
        "name": "Kotara",
        "lat": "-32.95",
        "lng": "151.68333"
    },
    {
        "country": "AU",
        "name": "Koo-Wee-Rup",
        "lat": "-38.19941",
        "lng": "145.49081"
    },
    {
        "country": "AU",
        "name": "Kootingal",
        "lat": "-31.05857",
        "lng": "151.0535"
    },
    {
        "country": "AU",
        "name": "Kogarah",
        "lat": "-33.98333",
        "lng": "151.11667"
    },
    {
        "country": "AU",
        "name": "Kirribilli",
        "lat": "-33.84867",
        "lng": "151.2162"
    },
    {
        "country": "AU",
        "name": "Kingston Beach",
        "lat": "-42.98021",
        "lng": "147.31941"
    },
    {
        "country": "AU",
        "name": "Kingston",
        "lat": "-42.97638",
        "lng": "147.30351"
    },
    {
        "country": "AU",
        "name": "Kingston",
        "lat": "-34.23333",
        "lng": "140.35"
    },
    {
        "country": "AU",
        "name": "Kingscliff",
        "lat": "-28.25983",
        "lng": "153.57816"
    },
    {
        "country": "AU",
        "name": "Kinglake West",
        "lat": "-37.46667",
        "lng": "145.23333"
    },
    {
        "country": "AU",
        "name": "Kingaroy",
        "lat": "-26.53994",
        "lng": "151.8373"
    },
    {
        "country": "AU",
        "name": "Kilsyth",
        "lat": "-37.8",
        "lng": "145.31667"
    },
    {
        "country": "AU",
        "name": "Kiama",
        "lat": "-34.66828",
        "lng": "150.85219"
    },
    {
        "country": "AU",
        "name": "Keysborough",
        "lat": "-37.99116",
        "lng": "145.17385"
    },
    {
        "country": "AU",
        "name": "Kew",
        "lat": "-37.80639",
        "lng": "145.03086"
    },
    {
        "country": "AU",
        "name": "Kettering",
        "lat": "-43.12623",
        "lng": "147.24641"
    },
    {
        "country": "AU",
        "name": "Kenthurst",
        "lat": "-33.65527",
        "lng": "151.00503"
    },
    {
        "country": "AU",
        "name": "Kensington",
        "lat": "-33.92019",
        "lng": "151.22241"
    },
    {
        "country": "AU",
        "name": "Kensington",
        "lat": "-37.78333",
        "lng": "144.93333"
    },
    {
        "country": "AU",
        "name": "Kennington",
        "lat": "-36.78333",
        "lng": "144.3"
    },
    {
        "country": "AU",
        "name": "Kendall",
        "lat": "-31.63295",
        "lng": "152.70393"
    },
    {
        "country": "AU",
        "name": "Kempsey",
        "lat": "-31.07898",
        "lng": "152.83093"
    },
    {
        "country": "AU",
        "name": "Kelso",
        "lat": "-33.41667",
        "lng": "149.6"
    },
    {
        "country": "AU",
        "name": "Keith",
        "lat": "-36.0991",
        "lng": "140.35315"
    },
    {
        "country": "AU",
        "name": "Keiraville",
        "lat": "-34.41667",
        "lng": "150.86667"
    },
    {
        "country": "AU",
        "name": "Keilor",
        "lat": "-37.71667",
        "lng": "144.83333"
    },
    {
        "country": "AU",
        "name": "Katoomba",
        "lat": "-33.71977",
        "lng": "150.30739"
    },
    {
        "country": "AU",
        "name": "Kanwal",
        "lat": "-33.253",
        "lng": "151.4911"
    },
    {
        "country": "AU",
        "name": "Kangaroo Valley",
        "lat": "-34.73806",
        "lng": "150.53657"
    },
    {
        "country": "AU",
        "name": "Kangaroo Flat",
        "lat": "-36.8",
        "lng": "144.25"
    },
    {
        "country": "AU",
        "name": "Kandos",
        "lat": "-32.85772",
        "lng": "149.96832"
    },
    {
        "country": "AU",
        "name": "Kalorama",
        "lat": "-37.81667",
        "lng": "145.36667"
    },
    {
        "country": "AU",
        "name": "Kallista",
        "lat": "-37.88333",
        "lng": "145.36667"
    },
    {
        "country": "AU",
        "name": "Kahibah",
        "lat": "-32.96667",
        "lng": "151.71667"
    },
    {
        "country": "AU",
        "name": "Junee",
        "lat": "-34.86819",
        "lng": "147.58273"
    },
    {
        "country": "AU",
        "name": "Jindera",
        "lat": "-35.95474",
        "lng": "146.88852"
    },
    {
        "country": "AU",
        "name": "Jindabyne",
        "lat": "-36.41745",
        "lng": "148.62254"
    },
    {
        "country": "AU",
        "name": "Jilliby",
        "lat": "-33.22605",
        "lng": "151.41684"
    },
    {
        "country": "AU",
        "name": "Jannali",
        "lat": "-34.01643",
        "lng": "151.06065"
    },
    {
        "country": "AU",
        "name": "Jamberoo",
        "lat": "-34.64745",
        "lng": "150.77464"
    },
    {
        "country": "AU",
        "name": "Ivanhoe East",
        "lat": "-37.7832",
        "lng": "145.05249"
    },
    {
        "country": "AU",
        "name": "Inverell",
        "lat": "-29.77403",
        "lng": "151.11166"
    },
    {
        "country": "AU",
        "name": "Innisfail",
        "lat": "-17.52209",
        "lng": "146.03102"
    },
    {
        "country": "AU",
        "name": "Ingleburn",
        "lat": "-34",
        "lng": "150.86667"
    },
    {
        "country": "AU",
        "name": "Ingham",
        "lat": "-18.64552",
        "lng": "146.16248"
    },
    {
        "country": "AU",
        "name": "Hurstville Grove",
        "lat": "-33.97993",
        "lng": "151.09029"
    },
    {
        "country": "AU",
        "name": "Hurstbridge",
        "lat": "-37.64157",
        "lng": "145.19408"
    },
    {
        "country": "AU",
        "name": "Huonville",
        "lat": "-43.03124",
        "lng": "147.04813"
    },
    {
        "country": "AU",
        "name": "Hughesdale",
        "lat": "-37.9",
        "lng": "145.08333"
    },
    {
        "country": "AU",
        "name": "Hughenden",
        "lat": "-20.84399",
        "lng": "144.20035"
    },
    {
        "country": "AU",
        "name": "Howlong",
        "lat": "-35.98197",
        "lng": "146.63248"
    },
    {
        "country": "AU",
        "name": "Horsham",
        "lat": "-36.71131",
        "lng": "142.19981"
    },
    {
        "country": "AU",
        "name": "Hornsby",
        "lat": "-33.70244",
        "lng": "151.09931"
    },
    {
        "country": "AU",
        "name": "Home Hill",
        "lat": "-19.65921",
        "lng": "147.41232"
    },
    {
        "country": "AU",
        "name": "Homebush",
        "lat": "-33.86667",
        "lng": "151.08333"
    },
    {
        "country": "AU",
        "name": "Holsworthy",
        "lat": "-33.98333",
        "lng": "150.96667"
    },
    {
        "country": "AU",
        "name": "Holgate",
        "lat": "-33.4",
        "lng": "151.41667"
    },
    {
        "country": "AU",
        "name": "Holbrook",
        "lat": "-35.721",
        "lng": "147.31605"
    },
    {
        "country": "AU",
        "name": "Hobart",
        "lat": "-42.87936",
        "lng": "147.32941"
    },
    {
        "country": "AU",
        "name": "Hillston",
        "lat": "-33.48266",
        "lng": "145.53525"
    },
    {
        "country": "AU",
        "name": "Highett",
        "lat": "-37.95",
        "lng": "145.05"
    },
    {
        "country": "AU",
        "name": "Henty",
        "lat": "-35.52094",
        "lng": "147.03426"
    },
    {
        "country": "AU",
        "name": "Helensburgh",
        "lat": "-34.17836",
        "lng": "150.99522"
    },
    {
        "country": "AU",
        "name": "Heidelberg West",
        "lat": "-37.75",
        "lng": "145.03333"
    },
    {
        "country": "AU",
        "name": "Heidelberg",
        "lat": "-37.75",
        "lng": "145.06667"
    },
    {
        "country": "AU",
        "name": "Heddon Greta",
        "lat": "-32.80204",
        "lng": "151.51327"
    },
    {
        "country": "AU",
        "name": "Heathmont",
        "lat": "-37.83333",
        "lng": "145.25"
    },
    {
        "country": "AU",
        "name": "Heatherton",
        "lat": "-37.96667",
        "lng": "145.1"
    },
    {
        "country": "AU",
        "name": "Heathcote",
        "lat": "-34.0841",
        "lng": "151.01305"
    },
    {
        "country": "AU",
        "name": "Healesville",
        "lat": "-37.65395",
        "lng": "145.51718"
    },
    {
        "country": "AU",
        "name": "Hazelbrook",
        "lat": "-33.72446",
        "lng": "150.45839"
    },
    {
        "country": "AU",
        "name": "Haymarket",
        "lat": "-33.87868",
        "lng": "151.20526"
    },
    {
        "country": "AU",
        "name": "Hay",
        "lat": "-34.50903",
        "lng": "144.84306"
    },
    {
        "country": "AU",
        "name": "Hawthorn South",
        "lat": "-37.8329",
        "lng": "145.0367"
    },
    {
        "country": "AU",
        "name": "Hawthorn",
        "lat": "-37.81992",
        "lng": "145.0358"
    },
    {
        "country": "AU",
        "name": "Hawks Nest",
        "lat": "-32.66755",
        "lng": "152.17831"
    },
    {
        "country": "AU",
        "name": "Hastings",
        "lat": "-38.3",
        "lng": "145.18333"
    },
    {
        "country": "AU",
        "name": "Harrington",
        "lat": "-31.88306",
        "lng": "152.65924"
    },
    {
        "country": "AU",
        "name": "Hampton Park",
        "lat": "-38.03333",
        "lng": "145.25"
    },
    {
        "country": "AU",
        "name": "Hampton",
        "lat": "-37.95",
        "lng": "145"
    },
    {
        "country": "AU",
        "name": "Hamilton",
        "lat": "-37.74425",
        "lng": "142.02202"
    },
    {
        "country": "AU",
        "name": "Hallam",
        "lat": "-38.01667",
        "lng": "145.26667"
    },
    {
        "country": "AU",
        "name": "Haberfield",
        "lat": "-33.88296",
        "lng": "151.14389"
    },
    {
        "country": "AU",
        "name": "Gympie",
        "lat": "-26.18979",
        "lng": "152.66499"
    },
    {
        "country": "AU",
        "name": "Guyra",
        "lat": "-30.2168",
        "lng": "151.66785"
    },
    {
        "country": "AU",
        "name": "Gunnedah",
        "lat": "-30.98065",
        "lng": "150.25838"
    },
    {
        "country": "AU",
        "name": "Gundaroo",
        "lat": "-35.03333",
        "lng": "149.25"
    },
    {
        "country": "AU",
        "name": "Gundagai",
        "lat": "-35.06352",
        "lng": "148.10365"
    },
    {
        "country": "AU",
        "name": "Gulgong",
        "lat": "-32.36253",
        "lng": "149.53201"
    },
    {
        "country": "AU",
        "name": "Grovedale",
        "lat": "-38.2",
        "lng": "144.35"
    },
    {
        "country": "AU",
        "name": "Griffith",
        "lat": "-34.28853",
        "lng": "146.05093"
    },
    {
        "country": "AU",
        "name": "Greta",
        "lat": "-32.67783",
        "lng": "151.38924"
    },
    {
        "country": "AU",
        "name": "Grenfell",
        "lat": "-33.89549",
        "lng": "148.16438"
    },
    {
        "country": "AU",
        "name": "Greenwell Point",
        "lat": "-34.90751",
        "lng": "150.73113"
    },
    {
        "country": "AU",
        "name": "Greenvale",
        "lat": "-37.63333",
        "lng": "144.86667"
    },
    {
        "country": "AU",
        "name": "Greensborough",
        "lat": "-37.70462",
        "lng": "145.10302"
    },
    {
        "country": "AU",
        "name": "Granville",
        "lat": "-33.83333",
        "lng": "151.01667"
    },
    {
        "country": "AU",
        "name": "Granton",
        "lat": "-42.75149",
        "lng": "147.22795"
    },
    {
        "country": "AU",
        "name": "Grafton",
        "lat": "-29.68104",
        "lng": "152.93394"
    },
    {
        "country": "AU",
        "name": "Goulburn",
        "lat": "-34.75155",
        "lng": "149.72086"
    },
    {
        "country": "AU",
        "name": "Gosford",
        "lat": "-33.4244",
        "lng": "151.34399"
    },
    {
        "country": "AU",
        "name": "Gorokan",
        "lat": "-33.25764",
        "lng": "151.5097"
    },
    {
        "country": "AU",
        "name": "Gordon",
        "lat": "-29.3",
        "lng": "152.71667"
    },
    {
        "country": "AU",
        "name": "Goonellabah",
        "lat": "-28.81667",
        "lng": "153.31667"
    },
    {
        "country": "AU",
        "name": "Goondiwindi",
        "lat": "-28.54709",
        "lng": "150.30546"
    },
    {
        "country": "AU",
        "name": "Goodna",
        "lat": "-27.61046",
        "lng": "152.89896"
    },
    {
        "country": "AU",
        "name": "Gol Gol",
        "lat": "-34.17388",
        "lng": "142.22187"
    },
    {
        "country": "AU",
        "name": "Gold Coast",
        "lat": "-28.00029",
        "lng": "153.43088"
    },
    {
        "country": "AU",
        "name": "Gloucester",
        "lat": "-32.0077",
        "lng": "151.9633"
    },
    {
        "country": "AU",
        "name": "Glenroy",
        "lat": "-37.7",
        "lng": "144.93333"
    },
    {
        "country": "AU",
        "name": "Glenorie",
        "lat": "-33.60177",
        "lng": "151.00886"
    },
    {
        "country": "AU",
        "name": "Glenorchy",
        "lat": "-42.83343",
        "lng": "147.27593"
    },
    {
        "country": "AU",
        "name": "Glen Innes",
        "lat": "-29.73485",
        "lng": "151.7385"
    },
    {
        "country": "AU",
        "name": "Glen Huntly",
        "lat": "-37.88333",
        "lng": "145.05"
    },
    {
        "country": "AU",
        "name": "Glenhaven",
        "lat": "-33.7",
        "lng": "151"
    },
    {
        "country": "AU",
        "name": "Glenfield",
        "lat": "-33.96667",
        "lng": "150.9"
    },
    {
        "country": "AU",
        "name": "Glenferrie",
        "lat": "-37.83333",
        "lng": "145.05"
    },
    {
        "country": "AU",
        "name": "Glenbrook",
        "lat": "-33.76667",
        "lng": "150.61667"
    },
    {
        "country": "AU",
        "name": "Gladstone",
        "lat": "-23.84852",
        "lng": "151.25775"
    },
    {
        "country": "AU",
        "name": "Gilgandra",
        "lat": "-31.71173",
        "lng": "148.66252"
    },
    {
        "country": "AU",
        "name": "Gilgai",
        "lat": "-29.8527",
        "lng": "151.11806"
    },
    {
        "country": "AU",
        "name": "Gerringong",
        "lat": "-34.74702",
        "lng": "150.82809"
    },
    {
        "country": "AU",
        "name": "George Town",
        "lat": "-41.10559",
        "lng": "146.82606"
    },