[
    {
        "country": "AX",
        "name": "V\u00e5rd\u00f6",
        "lat": "60.25",
        "lng": "20.38333"
    },
    {
        "country": "AX",
        "name": "Sund",
        "lat": "60.25",
        "lng": "20.11667"
    },
    {
        "country": "AX",
        "name": "Sottunga",
        "lat": "60.13023",
        "lng": "20.66683"
    },
    {
        "country": "AX",
        "name": "Saltvik",
        "lat": "60.28333",
        "lng": "20.05"
    },
    {
        "country": "AX",
        "name": "Lumparland",
        "lat": "60.11695",
        "lng": "20.25819"
    },
    {
        "country": "AX",
        "name": "Lemland",
        "lat": "60.07178",
        "lng": "20.08472"
    },
    {
        "country": "AX",
        "name": "Kumlinge",
        "lat": "60.26013",
        "lng": "20.77892"
    },
    {
        "country": "AX",
        "name": "K\u00f6kar",
        "lat": "59.92051",
        "lng": "20.90883"
    },
    {
        "country": "AX",
        "name": "F\u00f6gl\u00f6",
        "lat": "60.01667",
        "lng": "20.41667"
    },
    {
        "country": "AX",
        "name": "Br\u00e4nd\u00f6",
        "lat": "60.41165",
        "lng": "21.04534"
    },
    {
        "country": "AX",
        "name": "Mariehamn",
        "lat": "60.09726",
        "lng": "19.93481"
    },
    {
        "country": "AX",
        "name": "Jomala",
        "lat": "60.14902",
        "lng": "19.951"
    },
    {
        "country": "AX",
        "name": "Hammarland",
        "lat": "60.21667",
        "lng": "19.75"
    },
    {
        "country": "AX",
        "name": "Geta",
        "lat": "60.37453",
        "lng": "19.84455"
    },
    {
        "country": "AX",
        "name": "Finstr\u00f6m",
        "lat": "60.26667",
        "lng": "19.93333"
    },
    {
        "country": "AX",
        "name": "Ecker\u00f6",
        "lat": "60.21249",
        "lng": "19.61442"
    }
]