[
    {
        "country": "AZ",
        "name": "Sharur City",
        "lat": "39.55298",
        "lng": "44.97993"
    },
    {
        "country": "AZ",
        "name": "Prishibinskoye",
        "lat": "39.11817",
        "lng": "48.59255"
    },
    {
        "country": "AZ",
        "name": "Zangilan",
        "lat": "39.0884",
        "lng": "46.6513"
    },
    {
        "country": "AZ",
        "name": "Yayci",
        "lat": "38.94052",
        "lng": "45.73244"
    },
    {
        "country": "AZ",
        "name": "Yardimli",
        "lat": "38.90771",
        "lng": "48.24052"
    },
    {
        "country": "AZ",
        "name": "Novyy Karanlug",
        "lat": "39.79546",
        "lng": "47.10989"
    },
    {
        "country": "AZ",
        "name": "Xankandi",
        "lat": "39.8177",
        "lng": "46.7528"
    },
    {
        "country": "AZ",
        "name": "?hm?db?yli",
        "lat": "39.87867",
        "lng": "48.39901"
    },
    {
        "country": "AZ",
        "name": "Shushi",
        "lat": "39.76006",
        "lng": "46.74989"
    },
    {
        "country": "AZ",
        "name": "Salyan",
        "lat": "39.59621",
        "lng": "48.98479"
    },
    {
        "country": "AZ",
        "name": "Sahbuz",
        "lat": "39.40722",
        "lng": "45.57389"
    },
    {
        "country": "AZ",
        "name": "Sedarak",
        "lat": "39.71427",
        "lng": "44.88455"
    },
    {
        "country": "AZ",
        "name": "Sumbatan-diza",
        "lat": "38.94804",
        "lng": "45.82572"
    },
    {
        "country": "AZ",
        "name": "Saatli",
        "lat": "39.93214",
        "lng": "48.36892"
    },
    {
        "country": "AZ",
        "name": "Qubadli",
        "lat": "39.34441",
        "lng": "46.58183"
    },
    {
        "country": "AZ",
        "name": "Qara\u00e7ala",
        "lat": "39.81614",
        "lng": "48.93792"
    },
    {
        "country": "AZ",
        "name": "Orjonikidze",
        "lat": "39.63571",
        "lng": "47.71199"
    },
    {
        "country": "AZ",
        "name": "Ordubad",
        "lat": "38.90961",
        "lng": "46.02274"
    },
    {
        "country": "AZ",
        "name": "Neft\u00e7ala",
        "lat": "39.3768",
        "lng": "49.247"
    },
    {
        "country": "AZ",
        "name": "Nakhchivan",
        "lat": "39.20889",
        "lng": "45.41222"
    },
    {
        "country": "AZ",
        "name": "Mincivan",
        "lat": "39.03058",
        "lng": "46.7214"
    },
    {
        "country": "AZ",
        "name": "Masally",
        "lat": "39.03532",
        "lng": "48.6654"
    },
    {
        "country": "AZ",
        "name": "Lerik",
        "lat": "38.77388",
        "lng": "48.41497"
    },
    {
        "country": "AZ",
        "name": "Lankaran",
        "lat": "38.75428",
        "lng": "48.85062"
    },
    {
        "country": "AZ",
        "name": "La\u00e7in",
        "lat": "39.59881",
        "lng": "46.55045"
    },
    {
        "country": "AZ",
        "name": "Qivraq",
        "lat": "39.39939",
        "lng": "45.11513"
    },
    {
        "country": "AZ",
        "name": "Qirmizi Bazar",
        "lat": "39.67833",
        "lng": "46.94884"
    },
    {
        "country": "AZ",
        "name": "Kizhaba",
        "lat": "38.53461",
        "lng": "48.80546"
    },
    {
        "country": "AZ",
        "name": "Xocali",
        "lat": "39.91297",
        "lng": "46.79028"
    },
    {
        "country": "AZ",
        "name": "Xilli",
        "lat": "39.43012",
        "lng": "49.10166"
    },
    {
        "country": "AZ",
        "name": "Imishli",
        "lat": "39.87095",
        "lng": "48.05995"
    },
    {
        "country": "AZ",
        "name": "Horadiz",
        "lat": "39.44877",
        "lng": "47.33531"
    },
    {
        "country": "AZ",
        "name": "Haftoni",
        "lat": "38.76325",
        "lng": "48.76223"
    },
    {
        "country": "AZ",
        "name": "Hadrut",
        "lat": "39.52002",
        "lng": "47.0318"
    },
    {
        "country": "AZ",
        "name": "Fizuli",
        "lat": "39.60094",
        "lng": "47.14529"
    },
    {
        "country": "AZ",
        "name": "Jebrail",
        "lat": "39.39917",
        "lng": "47.02835"
    },
    {
        "country": "AZ",
        "name": "D\u00fcnyamalilar",
        "lat": "39.77278",
        "lng": "47.75889"
    },
    {
        "country": "AZ",
        "name": "Deste",
        "lat": "38.88375",
        "lng": "45.90963"
    },
    {
        "country": "AZ",
        "name": "Culfa",
        "lat": "38.95397",
        "lng": "45.62961"
    },
    {
        "country": "AZ",
        "name": "Dzhalilabad",
        "lat": "39.20963",
        "lng": "48.49186"
    },
    {
        "country": "AZ",
        "name": "Cahri",
        "lat": "39.34837",
        "lng": "45.41557"
    },
    {
        "country": "AZ",
        "name": "Boradigah",
        "lat": "38.93013",
        "lng": "48.7092"
    },
    {
        "country": "AZ",
        "name": "Pushkino",
        "lat": "39.45833",
        "lng": "48.545"
    },
    {
        "country": "AZ",
        "name": "Beylagan",
        "lat": "39.77556",
        "lng": "47.61861"
    },
    {
        "country": "AZ",
        "name": "Severo-Vostotchnyi Bank",
        "lat": "39.41117",
        "lng": "49.24792"
    },
    {
        "country": "AZ",
        "name": "Tazakend",
        "lat": "39.15459",
        "lng": "45.44282"
    },
    {
        "country": "AZ",
        "name": "Astara",
        "lat": "38.45598",
        "lng": "48.87498"
    },
    {
        "country": "AZ",
        "name": "Askyaran",
        "lat": "39.93667",
        "lng": "46.83278"
    },
    {
        "country": "AZ",
        "name": "Sirvan",
        "lat": "39.93778",
        "lng": "48.929"
    },
    {
        "country": "AZ",
        "name": "Agdam",
        "lat": "39.99096",
        "lng": "46.92736"
    },
    {
        "country": "AZ",
        "name": "Sovetabad",
        "lat": "39.33667",
        "lng": "49.21414"
    },
    {
        "country": "AZ",
        "name": "Avsar",
        "lat": "39.97389",
        "lng": "47.42389"
    },
    {
        "country": "AZ",
        "name": "Birinci Asiqli",
        "lat": "39.81917",
        "lng": "47.67944"
    },
    {
        "country": "AZ",
        "name": "Yuxari Aran",
        "lat": "39.73361",
        "lng": "47.655"
    },
    {
        "country": "AZ",
        "name": "\u00c7alxanqala",
        "lat": "39.44167",
        "lng": "45.28333"
    },
    {
        "country": "AZ",
        "name": "Oglanqala",
        "lat": "39.58694",
        "lng": "45.04611"
    },
    {
        "country": "AZ",
        "name": "Zyrya",
        "lat": "40.36613",
        "lng": "50.29198"
    },
    {
        "country": "AZ",
        "name": "Zardob",
        "lat": "40.21991",
        "lng": "47.70997"
    },
    {
        "country": "AZ",
        "name": "Zaqatala",
        "lat": "41.6316",
        "lng": "46.64479"
    },
    {
        "country": "AZ",
        "name": "Zabrat",
        "lat": "40.47746",
        "lng": "49.94174"
    },
    {
        "country": "AZ",
        "name": "Yevlakh",
        "lat": "40.61832",
        "lng": "47.15014"
    },
    {
        "country": "AZ",
        "name": "Yaniqli",
        "lat": "40.8432",
        "lng": "45.6803"
    },
    {
        "country": "AZ",
        "name": "Xudat",
        "lat": "41.63052",
        "lng": "48.68161"
    },
    {
        "country": "AZ",
        "name": "Yelenendorf",
        "lat": "40.58584",
        "lng": "46.3189"
    },
    {
        "country": "AZ",
        "name": "Xa\u00e7maz",
        "lat": "41.46426",
        "lng": "48.80565"
    },
    {
        "country": "AZ",
        "name": "Verkhniy Dashkesan",
        "lat": "40.49357",
        "lng": "46.07175"
    },
    {
        "country": "AZ",
        "name": "Ujar",
        "lat": "40.51902",
        "lng": "47.65423"
    },
    {
        "country": "AZ",
        "name": "T\u00fcrkan",
        "lat": "40.3646",
        "lng": "50.22075"
    },
    {
        "country": "AZ",
        "name": "Tovuz",
        "lat": "40.99249",
        "lng": "45.62838"
    },
    {
        "country": "AZ",
        "name": "Terter",
        "lat": "40.34179",
        "lng": "46.93242"
    },
    {
        "country": "AZ",
        "name": "Sumqayit",
        "lat": "40.58972",
        "lng": "49.66861"
    },
    {
        "country": "AZ",
        "name": "Kyzyl-Burun",
        "lat": "41.07754",
        "lng": "49.11257"
    },
    {
        "country": "AZ",
        "name": "Suraabad",
        "lat": "40.81943",
        "lng": "49.46787"
    },
    {
        "country": "AZ",
        "name": "Qara\u00e7uxur",
        "lat": "40.39667",
        "lng": "49.97361"
    },
    {
        "country": "AZ",
        "name": "Saray",
        "lat": "40.53299",
        "lng": "49.71681"
    },
    {
        "country": "AZ",
        "name": "Samur",
        "lat": "41.63671",
        "lng": "48.43028"
    },
    {
        "country": "AZ",
        "name": "Shamkhor",
        "lat": "40.82975",
        "lng": "46.0178"
    },
    {
        "country": "AZ",
        "name": "Shamakhi",
        "lat": "40.63141",
        "lng": "48.64137"
    },
    {
        "country": "AZ",
        "name": "Saloglu",
        "lat": "41.27524",
        "lng": "45.35293"
    },
    {
        "country": "AZ",
        "name": "Sheki",
        "lat": "41.19194",
        "lng": "47.17056"
    },
    {
        "country": "AZ",
        "name": "Samux",
        "lat": "40.76485",
        "lng": "46.40868"
    },
    {
        "country": "AZ",
        "name": "Sabun\u00e7u",
        "lat": "40.4425",
        "lng": "49.94806"
    },
    {
        "country": "AZ",
        "name": "Sabirabad",
        "lat": "40.00869",
        "lng": "48.47701"
    },
    {
        "country": "AZ",
        "name": "Qusar",
        "lat": "41.4275",
        "lng": "48.4302"
    },
    {
        "country": "AZ",
        "name": "Quba",
        "lat": "41.36108",
        "lng": "48.51341"
    },
    {
        "country": "AZ",
        "name": "Qobustan",
        "lat": "40.08238",
        "lng": "49.41205"
    },
    {
        "country": "AZ",
        "name": "Haciqabul",
        "lat": "40.03874",
        "lng": "48.94286"
    },
    {
        "country": "AZ",
        "name": "Qazax",
        "lat": "41.09246",
        "lng": "45.36561"
    },
    {
        "country": "AZ",
        "name": "Qax",
        "lat": "41.41826",
        "lng": "46.92043"
    },
    {
        "country": "AZ",
        "name": "Qasim Ismayilov",
        "lat": "40.81156",
        "lng": "46.26112"
    },
    {
        "country": "AZ",
        "name": "Qutqashen",
        "lat": "40.98247",
        "lng": "47.84909"
    },
    {
        "country": "AZ",
        "name": "Puta",
        "lat": "40.29667",
        "lng": "49.66028"
    },
    {
        "country": "AZ",
        "name": "Oguz",
        "lat": "41.07128",
        "lng": "47.46528"
    },
    {
        "country": "AZ",
        "name": "Novosaratovka",
        "lat": "40.59811",
        "lng": "45.60079"
    },
    {
        "country": "AZ",
        "name": "Haci Zeynalabdin",
        "lat": "40.62333",
        "lng": "49.55861"
    },
    {
        "country": "AZ",
        "name": "Nardaran",
        "lat": "40.55611",
        "lng": "50.00556"
    },
    {
        "country": "AZ",
        "name": "Naftalan",
        "lat": "40.50821",
        "lng": "46.8203"
    },
    {
        "country": "AZ",
        "name": "Mingelchaur",
        "lat": "40.76395",
        "lng": "47.05953"
    },
    {
        "country": "AZ",
        "name": "Mastaga",
        "lat": "40.52983",
        "lng": "50.00616"
    },
    {
        "country": "AZ",
        "name": "Mardakan",
        "lat": "40.49182",
        "lng": "50.14292"
    },
    {
        "country": "AZ",
        "name": "Qobustan",
        "lat": "40.5336",
        "lng": "48.92819"
    },
    {
        "country": "AZ",
        "name": "Mamrux",
        "lat": "41.54243",
        "lng": "46.767"
    },
    {
        "country": "AZ",
        "name": "L\u00f6kbatan",
        "lat": "40.3256",
        "lng": "49.73376"
    },
    {
        "country": "AZ",
        "name": "Qizilhacili",
        "lat": "40.57362",
        "lng": "46.849"
    },
    {
        "country": "AZ",
        "name": "Kyurdarmir",
        "lat": "40.34532",
        "lng": "48.15085"
    },
    {
        "country": "AZ",
        "name": "Qobu",
        "lat": "40.40472",
        "lng": "49.71306"
    },
    {
        "country": "AZ",
        "name": "Kilyazi",
        "lat": "40.87098",
        "lng": "49.34233"
    },
    {
        "country": "AZ",
        "name": "Khyzy",
        "lat": "40.90576",
        "lng": "49.08127"
    },
    {
        "country": "AZ",
        "name": "Khirdalan",
        "lat": "40.44808",
        "lng": "49.75502"
    },
    {
        "country": "AZ",
        "name": "Khodzhi-Gasan",
        "lat": "40.41293",
        "lng": "49.76904"
    },
    {
        "country": "AZ",
        "name": "Korg\u00f6z",
        "lat": "40.30446",
        "lng": "49.6236"
    },
    {
        "country": "AZ",
        "name": "Qarayeri",
        "lat": "40.78825",
        "lng": "46.3072"
    },
    {
        "country": "AZ",
        "name": "Qaramanli",
        "lat": "40.48135",
        "lng": "46.99339"
    },
    {
        "country": "AZ",
        "name": "Qaraxanli",
        "lat": "41.03415",
        "lng": "45.64516"
    },
    {
        "country": "AZ",
        "name": "Qandax",
        "lat": "41.47546",
        "lng": "46.54128"
    },
    {
        "country": "AZ",
        "name": "Vurgun",
        "lat": "41.09524",
        "lng": "45.47111"
    },
    {
        "country": "AZ",
        "name": "Kerbakhiar",
        "lat": "40.10984",
        "lng": "46.04446"
    },
    {
        "country": "AZ",
        "name": "Qala",
        "lat": "40.44256",
        "lng": "50.16759"
    },
    {
        "country": "AZ",
        "name": "Qax Ingiloy",
        "lat": "41.42412",
        "lng": "46.93859"
    },
    {
        "country": "AZ",
        "name": "Qaxbas",
        "lat": "41.43254",
        "lng": "46.9646"
    },
    {
        "country": "AZ",
        "name": "Ismayilli",
        "lat": "40.78485",
        "lng": "48.15141"
    },
    {
        "country": "AZ",
        "name": "Yeni Suraxani",
        "lat": "40.43026",
        "lng": "50.03598"
    },
    {
        "country": "AZ",
        "name": "Gyuzdek",
        "lat": "40.37444",
        "lng": "49.68194"
    },
    {
        "country": "AZ",
        "name": "Geoktschai",
        "lat": "40.65055",
        "lng": "47.74219"
    },
    {
        "country": "AZ",
        "name": "H\u00f6vsan",
        "lat": "40.37444",
        "lng": "50.08528"
    },
    {
        "country": "AZ",
        "name": "Goranboy",
        "lat": "40.61028",
        "lng": "46.78972"
    },
    {
        "country": "AZ",
        "name": "Ganja",
        "lat": "40.68278",
        "lng": "46.36056"
    },
    {
        "country": "AZ",
        "name": "Kyadabek",
        "lat": "40.57055",
        "lng": "45.81229"
    },
    {
        "country": "AZ",
        "name": "Faldarli",
        "lat": "41.46868",
        "lng": "46.51579"
    },
    {
        "country": "AZ",
        "name": "Corat",
        "lat": "40.57176",
        "lng": "49.70509"
    },
    {
        "country": "AZ",
        "name": "Ceyranbatan",
        "lat": "40.54194",
        "lng": "49.66073"
    },
    {
        "country": "AZ",
        "name": "Dzagam",
        "lat": "40.9033",
        "lng": "45.88564"
    },
    {
        "country": "AZ",
        "name": "Dondar Qus\u00e7u",
        "lat": "40.9539",
        "lng": "45.61942"
    },
    {
        "country": "AZ",
        "name": "Digah",
        "lat": "40.49257",
        "lng": "49.87477"
    },
    {
        "country": "AZ",
        "name": "Divichibazar",
        "lat": "41.20117",
        "lng": "48.98712"
    },
    {
        "country": "AZ",
        "name": "Yukhary-Dashkesan",
        "lat": "40.52393",
        "lng": "46.08186"
    },
    {
        "country": "AZ",
        "name": "Dolyar",
        "lat": "40.86278",
        "lng": "46.03493"
    },
    {
        "country": "AZ",
        "name": "\u00c7obansignaq",
        "lat": "40.75244",
        "lng": "45.70645"
    },
    {
        "country": "AZ",
        "name": "\u00c7inarli",
        "lat": "41.46965",
        "lng": "46.91582"
    },
    {
        "country": "AZ",
        "name": "\u00c7atax",
        "lat": "40.72622",
        "lng": "45.55919"
    },
    {
        "country": "AZ",
        "name": "Buzovna",
        "lat": "40.51903",
        "lng": "50.11438"
    },
    {
        "country": "AZ",
        "name": "Binagadi",
        "lat": "40.46602",
        "lng": "49.82783"
    },
    {
        "country": "AZ",
        "name": "Biny Selo",
        "lat": "40.45076",
        "lng": "50.08686"
    },
    {
        "country": "AZ",
        "name": "Bilajer",
        "lat": "40.56441",
        "lng": "50.04002"
    },
    {
        "country": "AZ",
        "name": "Basqal",
        "lat": "40.7552",
        "lng": "48.39104"
    },
    {
        "country": "AZ",
        "name": "Bas G\u00f6yn\u00fck",
        "lat": "41.32582",
        "lng": "47.11357"
    },
    {
        "country": "AZ",
        "name": "Barda",
        "lat": "40.37577",
        "lng": "47.12619"
    },
    {
        "country": "AZ",
        "name": "Belokany",
        "lat": "41.72626",
        "lng": "46.40478"
    },
    {
        "country": "AZ",
        "name": "Balakhani",
        "lat": "40.46344",
        "lng": "49.91893"
    },
    {
        "country": "AZ",
        "name": "Bilajari",
        "lat": "40.4444",
        "lng": "49.80566"
    },
    {
        "country": "AZ",
        "name": "Baku",
        "lat": "40.37767",
        "lng": "49.89201"
    },
    {
        "country": "AZ",
        "name": "Ariqiran",
        "lat": "40.53971",
        "lng": "45.61414"
    },
    {
        "country": "AZ",
        "name": "Ariqdam",
        "lat": "40.59313",
        "lng": "45.799"
    },
    {
        "country": "AZ",
        "name": "Pirallahi",
        "lat": "40.47013",
        "lng": "50.32476"
    },
    {
        "country": "AZ",
        "name": "Amirdzhan",
        "lat": "40.42639",
        "lng": "49.98361"
    },
    {
        "country": "AZ",
        "name": "Altiagac",
        "lat": "40.85927",
        "lng": "48.93477"
    },
    {
        "country": "AZ",
        "name": "Aliabad",
        "lat": "41.4829",
        "lng": "46.63483"
    },
    {
        "country": "AZ",
        "name": "Aghsu",
        "lat": "40.57028",
        "lng": "48.40087"
    },
    {
        "country": "AZ",
        "name": "Aghstafa",
        "lat": "41.11889",
        "lng": "45.45389"
    },
    {
        "country": "AZ",
        "name": "Agdas",
        "lat": "40.64699",
        "lng": "47.4738"
    },
    {
        "country": "AZ",
        "name": "Martakert",
        "lat": "40.21238",
        "lng": "46.82086"
    },
    {
        "country": "AZ",
        "name": "Agdzhabedy",
        "lat": "40.05015",
        "lng": "47.45937"
    },
    {
        "country": "AZ",
        "name": "B\u00f6y\u00fck Qaramurad",
        "lat": "40.57626",
        "lng": "45.63727"
    },
    {
        "country": "AZ",
        "name": "Mughan",
        "lat": "40.09902",
        "lng": "48.81886"
    },
    {
        "country": "AZ",
        "name": "Qabaq\u00e7\u00f6l",
        "lat": "41.75259",
        "lng": "46.27052"
    },
    {
        "country": "AZ",
        "name": "Bakixanov",
        "lat": "40.41894",
        "lng": "49.96693"
    },
    {
        "country": "AZ",
        "name": "Qirmizi Samux",
        "lat": "40.93972",
        "lng": "46.37889"
    },
    {
        "country": "AZ",
        "name": "Hacih\u00fcseynli",
        "lat": "41.45639",
        "lng": "48.64889"
    },
    {
        "country": "AZ",
        "name": "Aran",
        "lat": "40.62528",
        "lng": "46.97556"
    },
    {
        "country": "AZ",
        "name": "Samuxlu",
        "lat": "40.50833",
        "lng": "47.16917"
    },
    {
        "country": "AZ",
        "name": "Ramana",
        "lat": "40.44222",
        "lng": "49.98056"
    },
    {
        "country": "AZ",
        "name": "Badamdar",
        "lat": "40.34024",
        "lng": "49.8045"
    },
    {
        "country": "AZ",
        "name": "Heydarabad",
        "lat": "39.72286",
        "lng": "44.84846"
    }
]