[
    {
        "country": "BS",
        "name": "West End",
        "lat": "26.68711",
        "lng": "-78.97702"
    },
    {
        "country": "BS",
        "name": "Spanish Wells",
        "lat": "25.54717",
        "lng": "-76.76405"
    },
    {
        "country": "BS",
        "name": "San Andros",
        "lat": "25.06667",
        "lng": "-78.05"
    },
    {
        "country": "BS",
        "name": "Port Nelson",
        "lat": "23.64967",
        "lng": "-74.84157"
    },
    {
        "country": "BS",
        "name": "Nassau",
        "lat": "25.05823",
        "lng": "-77.34306"
    },
    {
        "country": "BS",
        "name": "Matthew Town",
        "lat": "20.94982",
        "lng": "-73.67346"
    },
    {
        "country": "BS",
        "name": "Masons Bay",
        "lat": "22.54352",
        "lng": "-73.8778"
    },
    {
        "country": "BS",
        "name": "Marsh Harbour",
        "lat": "26.54124",
        "lng": "-77.0636"
    },
    {
        "country": "BS",
        "name": "Lucaya",
        "lat": "26.53333",
        "lng": "-78.66667"
    },
    {
        "country": "BS",
        "name": "High Rock",
        "lat": "26.60999",
        "lng": "-78.27863"
    },
    {
        "country": "BS",
        "name": "Hard Bargain",
        "lat": "26.31667",
        "lng": "-77.56667"
    },
    {
        "country": "BS",
        "name": "Governor\u2019s Harbour",
        "lat": "25.16667",
        "lng": "-76.23333"
    },
    {
        "country": "BS",
        "name": "George Town",
        "lat": "23.51616",
        "lng": "-75.78665"
    },
    {
        "country": "BS",
        "name": "Freeport",
        "lat": "26.53333",
        "lng": "-78.7"
    },
    {
        "country": "BS",
        "name": "Dunmore Town",
        "lat": "25.50216",
        "lng": "-76.63633"
    },
    {
        "country": "BS",
        "name": "Duncan Town",
        "lat": "22.19083",
        "lng": "-75.72583"
    },
    {
        "country": "BS",
        "name": "Cooper\u2019s Town",
        "lat": "26.87137",
        "lng": "-77.51131"
    },
    {
        "country": "BS",
        "name": "Colonel Hill",
        "lat": "22.7545",
        "lng": "-74.20415"
    },
    {
        "country": "BS",
        "name": "Cockburn Town",
        "lat": "24.05179",
        "lng": "-74.53138"
    },
    {
        "country": "BS",
        "name": "Clarence Town",
        "lat": "23.1",
        "lng": "-74.98333"
    },
    {
        "country": "BS",
        "name": "Black Point",
        "lat": "24.1",
        "lng": "-76.38333"
    },
    {
        "country": "BS",
        "name": "Arthur\u2019s Town",
        "lat": "24.6224",
        "lng": "-75.67151"
    },
    {
        "country": "BS",
        "name": "Andros Town",
        "lat": "24.70502",
        "lng": "-77.76912"
    },
    {
        "country": "BS",
        "name": "Alice Town",
        "lat": "25.728",
        "lng": "-79.29721"
    },
    {
        "country": "BS",
        "name": "Abraham\u2019s Bay",
        "lat": "22.36667",
        "lng": "-72.96667"
    }
]