[
    {
        "country": "CV",
        "name": "Vila Nova Sintra",
        "lat": "14.86667",
        "lng": "-24.71667"
    },
    {
        "country": "CV",
        "name": "Vila do Maio",
        "lat": "15.13823",
        "lng": "-23.21158"
    },
    {
        "country": "CV",
        "name": "Vila da Ribeira Brava",
        "lat": "16.61667",
        "lng": "-24.3"
    },
    {
        "country": "CV",
        "name": "Tarrafal de S\u00e3o Nicolau",
        "lat": "16.56622",
        "lng": "-24.35793"
    },
    {
        "country": "CV",
        "name": "Tarrafal",
        "lat": "15.27881",
        "lng": "-23.75192"
    },
    {
        "country": "CV",
        "name": "S\u00e3o Filipe",
        "lat": "14.8961",
        "lng": "-24.49556"
    },
    {
        "country": "CV",
        "name": "S\u00e3o Domingos",
        "lat": "15.02438",
        "lng": "-23.5625"
    },
    {
        "country": "CV",
        "name": "Santa Maria",
        "lat": "16.59796",
        "lng": "-22.90509"
    },
    {
        "country": "CV",
        "name": "Santa Cruz",
        "lat": "15.13333",
        "lng": "-23.56667"
    },
    {
        "country": "CV",
        "name": "Vila de Sal Rei",
        "lat": "16.18333",
        "lng": "-22.91667"
    },
    {
        "country": "CV",
        "name": "Ribeira Grande",
        "lat": "17.18561",
        "lng": "-25.07243"
    },
    {
        "country": "CV",
        "name": "Praia",
        "lat": "14.93152",
        "lng": "-23.51254"
    },
    {
        "country": "CV",
        "name": "Porto Novo",
        "lat": "17.01969",
        "lng": "-25.06471"
    },
    {
        "country": "CV",
        "name": "Porto dos Mosteiros",
        "lat": "15.03333",
        "lng": "-24.33333"
    },
    {
        "country": "CV",
        "name": "Ponta do Sol",
        "lat": "17.20171",
        "lng": "-25.09217"
    },
    {
        "country": "CV",
        "name": "Pombas",
        "lat": "17.15026",
        "lng": "-25.02007"
    },
    {
        "country": "CV",
        "name": "Picos",
        "lat": "15.0836",
        "lng": "-23.63236"
    },
    {
        "country": "CV",
        "name": "Mindelo",
        "lat": "16.89014",
        "lng": "-24.98042"
    },
    {
        "country": "CV",
        "name": "Cova Figueira",
        "lat": "14.89054",
        "lng": "-24.29343"
    },
    {
        "country": "CV",
        "name": "Cidade Velha",
        "lat": "14.91531",
        "lng": "-23.60527"
    },
    {
        "country": "CV",
        "name": "Calheta",
        "lat": "15.18613",
        "lng": "-23.59228"
    },
    {
        "country": "CV",
        "name": "Assomada",
        "lat": "15.1",
        "lng": "-23.68333"
    },
    {
        "country": "CV",
        "name": "Jo\u00e3o Teves",
        "lat": "15.06457",
        "lng": "-23.58969"
    },
    {
        "country": "CV",
        "name": "Pedra Badejo",
        "lat": "15.13493",
        "lng": "-23.53215"
    },
    {
        "country": "CV",
        "name": "Espargos",
        "lat": "16.75524",
        "lng": "-22.9446"
    }
]