[
    {
        "country": "FM",
        "name": "Weno",
        "lat": "7.44648",
        "lng": "151.84135"
    },
    {
        "country": "FM",
        "name": "Tofol",
        "lat": "5.32479",
        "lng": "163.00781"
    },
    {
        "country": "FM",
        "name": "Palikir - National Government Center",
        "lat": "6.92477",
        "lng": "158.16109"
    },
    {
        "country": "FM",
        "name": "Kolonia Town",
        "lat": "6.964",
        "lng": "158.206"
    },
    {
        "country": "FM",
        "name": "Rumung",
        "lat": "9.622",
        "lng": "138.154"
    },
    {
        "country": "FM",
        "name": "Kolonia",
        "lat": "6.964",
        "lng": "158.2062"
    },
    {
        "country": "FM",
        "name": "Kapingamarangi",
        "lat": "1.07861",
        "lng": "154.80752"
    },
    {
        "country": "FM",
        "name": "Nukuoro",
        "lat": "3.83619",
        "lng": "154.97143"
    },
    {
        "country": "FM",
        "name": "Ngatik",
        "lat": "5.7885",
        "lng": "157.15942"
    },
    {
        "country": "FM",
        "name": "Pingelap",
        "lat": "6.20589",
        "lng": "160.70327"
    },
    {
        "country": "FM",
        "name": "Namoluk",
        "lat": "5.915",
        "lng": "153.14"
    },
    {
        "country": "FM",
        "name": "Houk",
        "lat": "6.6894",
        "lng": "149.29908"
    },
    {
        "country": "FM",
        "name": "Polowat",
        "lat": "7.35661",
        "lng": "149.19908"
    },
    {
        "country": "FM",
        "name": "Pulap",
        "lat": "7.6366",
        "lng": "149.42878"
    },
    {
        "country": "FM",
        "name": "Tamatam",
        "lat": "7.53868",
        "lng": "149.41428"
    },
    {
        "country": "FM",
        "name": "Onoun",
        "lat": "8.575",
        "lng": "149.687"
    },
    {
        "country": "FM",
        "name": "Pisaras",
        "lat": "8.569",
        "lng": "150.4195"
    },
    {
        "country": "FM",
        "name": "Onou",
        "lat": "8.799",
        "lng": "150.2915"
    },
    {
        "country": "FM",
        "name": "Unanu",
        "lat": "8.75",
        "lng": "150.341"
    },
    {
        "country": "FM",
        "name": "Makur",
        "lat": "8.985",
        "lng": "150.1275"
    },
    {
        "country": "FM",
        "name": "Mokil",
        "lat": "6.69281",
        "lng": "159.76283"
    },
    {
        "country": "FM",
        "name": "Nomwin",
        "lat": "8.43",
        "lng": "151.748"
    },
    {
        "country": "FM",
        "name": "Fananu",
        "lat": "8.55811",
        "lng": "151.90922"
    },
    {
        "country": "FM",
        "name": "Murilo",
        "lat": "8.692",
        "lng": "152.3435"
    },
    {
        "country": "FM",
        "name": "Ruo",
        "lat": "8.609",
        "lng": "152.2455"
    },
    {
        "country": "FM",
        "name": "Nema",
        "lat": "6.993",
        "lng": "152.575"
    },
    {
        "country": "FM",
        "name": "Losap",
        "lat": "6.894",
        "lng": "152.74"
    },
    {
        "country": "FM",
        "name": "Piis",
        "lat": "6.834",
        "lng": "152.701"
    },
    {
        "country": "FM",
        "name": "Ettal",
        "lat": "5.592",
        "lng": "153.564"
    },
    {
        "country": "FM",
        "name": "Lukunor",
        "lat": "5.507",
        "lng": "153.8205"
    },
    {
        "country": "FM",
        "name": "Oneop",
        "lat": "5.5066",
        "lng": "153.7105"
    },
    {
        "country": "FM",
        "name": "Moch",
        "lat": "5.4918",
        "lng": "153.54"
    },
    {
        "country": "FM",
        "name": "Kuttu",
        "lat": "5.453",
        "lng": "153.4575"
    },
    {
        "country": "FM",
        "name": "Ta",
        "lat": "5.2842",
        "lng": "153.648"
    },
    {
        "country": "FM",
        "name": "Satowan",
        "lat": "5.334",
        "lng": "153.738"
    },
    {
        "country": "FM",
        "name": "Satawal",
        "lat": "7.382",
        "lng": "147.0322"
    },
    {
        "country": "FM",
        "name": "Lamotrek",
        "lat": "7.491",
        "lng": "146.305"
    },
    {
        "country": "FM",
        "name": "Elato",
        "lat": "7.502",
        "lng": "146.166"
    },
    {
        "country": "FM",
        "name": "Faraulep",
        "lat": "8.588",
        "lng": "144.508"
    },
    {
        "country": "FM",
        "name": "Ifalik",
        "lat": "7.25",
        "lng": "144.4445"
    },
    {
        "country": "FM",
        "name": "Eauripik",
        "lat": "6.687",
        "lng": "143.0375"
    },
    {
        "country": "FM",
        "name": "Sorol",
        "lat": "8.1435",
        "lng": "140.394"
    },
    {
        "country": "FM",
        "name": "Fais",
        "lat": "9.766",
        "lng": "140.52"
    },
    {
        "country": "FM",
        "name": "Ngulu",
        "lat": "8.45",
        "lng": "137.484"
    },
    {
        "country": "FM",
        "name": "Colonia",
        "lat": "9.51638",
        "lng": "138.12167"
    },
    {
        "country": "FM",
        "name": "Lelu",
        "lat": "5.33359",
        "lng": "163.02248"
    },
    {
        "country": "FM",
        "name": "Tafunsak",
        "lat": "5.3671",
        "lng": "162.98532"
    },
    {
        "country": "FM",
        "name": "Malem",
        "lat": "5.28599",
        "lng": "163.02609"
    },
    {
        "country": "FM",
        "name": "Utwe",
        "lat": "5.27486",
        "lng": "162.97656"
    },
    {
        "country": "FM",
        "name": "Madolenihm Municipality Government",
        "lat": "6.83493",
        "lng": "158.2987"
    },
    {
        "country": "FM",
        "name": "Tonoas Municipal Building",
        "lat": "7.37597",
        "lng": "151.88433"
    },
    {
        "country": "FM",
        "name": "Weno Municipal Offices",
        "lat": "7.44428",
        "lng": "151.84103"
    }
]