[
    {
        "country": "GA",
        "name": "Tchibanga",
        "lat": "-2.93323",
        "lng": "10.98178"
    },
    {
        "country": "GA",
        "name": "Port-Gentil",
        "lat": "-0.71933",
        "lng": "8.78151"
    },
    {
        "country": "GA",
        "name": "Oyem",
        "lat": "1.5995",
        "lng": "11.57933"
    },
    {
        "country": "GA",
        "name": "Ombou\u00e9",
        "lat": "-1.57464",
        "lng": "9.26184"
    },
    {
        "country": "GA",
        "name": "Okondja",
        "lat": "-0.65487",
        "lng": "13.67533"
    },
    {
        "country": "GA",
        "name": "Ntoum",
        "lat": "0.39051",
        "lng": "9.76096"
    },
    {
        "country": "GA",
        "name": "Ndend\u00e9",
        "lat": "-2.40077",
        "lng": "11.35813"
    },
    {
        "country": "GA",
        "name": "Ndjol\u00e9",
        "lat": "-0.17827",
        "lng": "10.76488"
    },
    {
        "country": "GA",
        "name": "Mounana",
        "lat": "-1.4085",
        "lng": "13.15857"
    },
    {
        "country": "GA",
        "name": "Mouila",
        "lat": "-1.86846",
        "lng": "11.05594"
    },
    {
        "country": "GA",
        "name": "Moanda",
        "lat": "-1.56652",
        "lng": "13.1987"
    },
    {
        "country": "GA",
        "name": "Mitzic",
        "lat": "0.78205",
        "lng": "11.54904"
    },
    {
        "country": "GA",
        "name": "Mimongo",
        "lat": "-1.61952",
        "lng": "11.60675"
    },
    {
        "country": "GA",
        "name": "Mbigou",
        "lat": "-1.90046",
        "lng": "11.906"
    },
    {
        "country": "GA",
        "name": "Mayumba",
        "lat": "-3.43198",
        "lng": "10.6554"
    },
    {
        "country": "GA",
        "name": "Makokou",
        "lat": "0.57381",
        "lng": "12.86419"
    },
    {
        "country": "GA",
        "name": "Libreville",
        "lat": "0.39241",
        "lng": "9.45356"
    },
    {
        "country": "GA",
        "name": "L\u00e9koni",
        "lat": "-1.58431",
        "lng": "14.25905"
    },
    {
        "country": "GA",
        "name": "Lastoursville",
        "lat": "-0.81742",
        "lng": "12.70818"
    },
    {
        "country": "GA",
        "name": "Lambar\u00e9n\u00e9",
        "lat": "-0.7001",
        "lng": "10.24055"
    },
    {
        "country": "GA",
        "name": "Koulamoutou",
        "lat": "-1.13667",
        "lng": "12.46399"
    },
    {
        "country": "GA",
        "name": "Gamba",
        "lat": "-2.65",
        "lng": "10"
    },
    {
        "country": "GA",
        "name": "Franceville",
        "lat": "-1.63333",
        "lng": "13.58357"
    },
    {
        "country": "GA",
        "name": "Fougamou",
        "lat": "-1.21544",
        "lng": "10.58378"
    },
    {
        "country": "GA",
        "name": "Cocobeach",
        "lat": "1.00019",
        "lng": "9.58229"
    },
    {
        "country": "GA",
        "name": "Boou\u00e9",
        "lat": "-0.09207",
        "lng": "11.93846"
    },
    {
        "country": "GA",
        "name": "Bitam",
        "lat": "2.07597",
        "lng": "11.50065"
    }
]