[
    {
        "country": "GD",
        "name": "Victoria",
        "lat": "12.19021",
        "lng": "-61.70677"
    },
    {
        "country": "GD",
        "name": "Sauteurs",
        "lat": "12.21833",
        "lng": "-61.63917"
    },
    {
        "country": "GD",
        "name": "Saint George's",
        "lat": "12.05288",
        "lng": "-61.75226"
    },
    {
        "country": "GD",
        "name": "Saint David\u2019s",
        "lat": "12.04903",
        "lng": "-61.66875"
    },
    {
        "country": "GD",
        "name": "Hillsborough",
        "lat": "12.48292",
        "lng": "-61.45597"
    },
    {
        "country": "GD",
        "name": "Grenville",
        "lat": "12.12278",
        "lng": "-61.62498"
    },
    {
        "country": "GD",
        "name": "Gouyave",
        "lat": "12.16462",
        "lng": "-61.72965"
    }
]