[
    {
        "country": "GW",
        "name": "Quinh\u00e1mel",
        "lat": "11.88694",
        "lng": "-15.85556"
    },
    {
        "country": "GW",
        "name": "Quebo",
        "lat": "11.33333",
        "lng": "-14.93333"
    },
    {
        "country": "GW",
        "name": "Mans\u00f4a",
        "lat": "12.07333",
        "lng": "-15.31889"
    },
    {
        "country": "GW",
        "name": "Gab\u00fa",
        "lat": "12.28",
        "lng": "-14.22222"
    },
    {
        "country": "GW",
        "name": "Farim",
        "lat": "12.48389",
        "lng": "-15.22167"
    },
    {
        "country": "GW",
        "name": "Cati\u00f3",
        "lat": "11.2825",
        "lng": "-15.25472"
    },
    {
        "country": "GW",
        "name": "Canchungo",
        "lat": "12.06722",
        "lng": "-16.03333"
    },
    {
        "country": "GW",
        "name": "Cacheu",
        "lat": "12.27444",
        "lng": "-16.16528"
    },
    {
        "country": "GW",
        "name": "Bubaque",
        "lat": "11.28333",
        "lng": "-15.83333"
    },
    {
        "country": "GW",
        "name": "Buba",
        "lat": "11.58889",
        "lng": "-14.99583"
    },
    {
        "country": "GW",
        "name": "Bolama",
        "lat": "11.57694",
        "lng": "-15.47611"
    },
    {
        "country": "GW",
        "name": "Bissor\u00e3",
        "lat": "12.22306",
        "lng": "-15.4475"
    },
    {
        "country": "GW",
        "name": "Bissau",
        "lat": "11.86357",
        "lng": "-15.59767"
    },
    {
        "country": "GW",
        "name": "Bafat\u00e1",
        "lat": "12.16583",
        "lng": "-14.66167"
    }
]