[
    {
        "country": "ID",
        "name": "Ujung Gading",
        "lat": "0.27293",
        "lng": "99.55762"
    },
    {
        "country": "ID",
        "name": "Ujungbatu",
        "lat": "1.04239",
        "lng": "99.93461"
    },
    {
        "country": "ID",
        "name": "Tualangcut",
        "lat": "4.4018",
        "lng": "98.0722"
    },
    {
        "country": "ID",
        "name": "Tongging",
        "lat": "2.8985",
        "lng": "98.5231"
    },
    {
        "country": "ID",
        "name": "Tomok Bolon",
        "lat": "2.6521",
        "lng": "98.8608"
    },
    {
        "country": "ID",
        "name": "Tiku",
        "lat": "-0.3958",
        "lng": "99.92307"
    },
    {
        "country": "ID",
        "name": "Teluk Nibung",
        "lat": "3.001",
        "lng": "99.8164"
    },
    {
        "country": "ID",
        "name": "Teluk Dalam",
        "lat": "0.5729",
        "lng": "97.8034"
    },
    {
        "country": "ID",
        "name": "Tebingtinggi",
        "lat": "3.3285",
        "lng": "99.1625"
    },
    {
        "country": "ID",
        "name": "Tarutung",
        "lat": "2.01467",
        "lng": "98.96548"
    },
    {
        "country": "ID",
        "name": "Tanjungtiram",
        "lat": "4.0613",
        "lng": "98.3699"
    },
    {
        "country": "ID",
        "name": "Tanjungbalai",
        "lat": "2.96667",
        "lng": "99.8"
    },
    {
        "country": "ID",
        "name": "Tangse",
        "lat": "5.0136",
        "lng": "95.9153"
    },
    {
        "country": "ID",
        "name": "Talu",
        "lat": "0.23006",
        "lng": "99.98123"
    },
    {
        "country": "ID",
        "name": "Takengon",
        "lat": "4.6212",
        "lng": "96.8467"
    },
    {
        "country": "ID",
        "name": "Susoh",
        "lat": "3.72394",
        "lng": "96.82159"
    },
    {
        "country": "ID",
        "name": "Sunggal",
        "lat": "3.5765",
        "lng": "98.6151"
    },
    {
        "country": "ID",
        "name": "Sei Rampah",
        "lat": "3.4845",
        "lng": "99.1366"
    },
    {
        "country": "ID",
        "name": "Stabat",
        "lat": "3.73335",
        "lng": "98.45025"
    },
    {
        "country": "ID",
        "name": "Sondi",
        "lat": "2.9735",
        "lng": "98.8617"
    },
    {
        "country": "ID",
        "name": "Sipirok",
        "lat": "1.60248",
        "lng": "99.27377"
    },
    {
        "country": "ID",
        "name": "Sipiongot",
        "lat": "1.83501",
        "lng": "99.66266"
    },
    {
        "country": "ID",
        "name": "Sipagimbar",
        "lat": "1.83072",
        "lng": "99.37185"
    },
    {
        "country": "ID",
        "name": "Singkil",
        "lat": "2.2874",
        "lng": "97.7884"
    },
    {
        "country": "ID",
        "name": "Sinabang",
        "lat": "2.4803",
        "lng": "96.3801"
    },
    {
        "country": "ID",
        "name": "Simpang Empat",
        "lat": "0.09703",
        "lng": "99.82339"
    },
    {
        "country": "ID",
        "name": "Sigli",
        "lat": "5.3848",
        "lng": "95.9609"
    },
    {
        "country": "ID",
        "name": "Sidikalang",
        "lat": "2.74899",
        "lng": "98.3127"
    },
    {
        "country": "ID",
        "name": "Sibuhuan",
        "lat": "1.05387",
        "lng": "99.73018"
    },
    {
        "country": "ID",
        "name": "Siborong-Borong",
        "lat": "2.21251",
        "lng": "98.97291"
    },
    {
        "country": "ID",
        "name": "Sibolga",
        "lat": "1.74016",
        "lng": "98.78117"
    },
    {
        "country": "ID",
        "name": "Sibigo",
        "lat": "2.8385",
        "lng": "95.9131"
    },
    {
        "country": "ID",
        "name": "Siabu",
        "lat": "1.01552",
        "lng": "99.49452"
    },
    {
        "country": "ID",
        "name": "Seulimeum",
        "lat": "5.3618",
        "lng": "95.5765"
    },
    {
        "country": "ID",
        "name": "Serawai",
        "lat": "4.3542",
        "lng": "98.1868"
    },
    {
        "country": "ID",
        "name": "Saribudolok",
        "lat": "2.9392",
        "lng": "98.6107"
    },
    {
        "country": "ID",
        "name": "Salak",
        "lat": "2.5566",
        "lng": "98.3235"
    },
    {
        "country": "ID",
        "name": "Sabang",
        "lat": "5.88969",
        "lng": "95.31644"
    },
    {
        "country": "ID",
        "name": "Rikitgaib",
        "lat": "4.1447",
        "lng": "97.0572"
    },
    {
        "country": "ID",
        "name": "Reuleuet",
        "lat": "5.21667",
        "lng": "96.28333"
    },
    {
        "country": "ID",
        "name": "Rantauprapat",
        "lat": "2.1",
        "lng": "99.83333"
    },
    {
        "country": "ID",
        "name": "Parapat",
        "lat": "2.663",
        "lng": "98.9349"
    },
    {
        "country": "ID",
        "name": "Pintupadang",
        "lat": "1.2402",
        "lng": "99.345"
    },
    {
        "country": "ID",
        "name": "Peureulak",
        "lat": "4.8098",
        "lng": "97.8902"
    },
    {
        "country": "ID",
        "name": "Percut",
        "lat": "3.6253",
        "lng": "98.864"
    },
    {
        "country": "ID",
        "name": "Perbaungan",
        "lat": "3.5679",
        "lng": "98.956"
    },
    {
        "country": "ID",
        "name": "Penaron",
        "lat": "4.6407",
        "lng": "97.6842"
    },
    {
        "country": "ID",
        "name": "Pematangsiantar",
        "lat": "2.9595",
        "lng": "99.0687"
    },
    {
        "country": "ID",
        "name": "Pematang Raya",
        "lat": "2.9658",
        "lng": "98.8473"
    },
    {
        "country": "ID",
        "name": "Parmonangan",
        "lat": "2.1046",
        "lng": "98.7637"
    },
    {
        "country": "ID",
        "name": "Parlilitan",
        "lat": "2.324",
        "lng": "98.4571"
    },
    {
        "country": "ID",
        "name": "Panyambungan",
        "lat": "0.8651",
        "lng": "99.5528"
    },
    {
        "country": "ID",
        "name": "Pangururan",
        "lat": "2.6081",
        "lng": "98.6961"
    },
    {
        "country": "ID",
        "name": "Pangkalan Brandan",
        "lat": "4.0238",
        "lng": "98.2782"
    },
    {
        "country": "ID",
        "name": "Pakkat",
        "lat": "2.1524",
        "lng": "98.4745"
    },
    {
        "country": "ID",
        "name": "Padangtiji",
        "lat": "5.3742",
        "lng": "95.8445"
    },
    {
        "country": "ID",
        "name": "Padangsidempuan",
        "lat": "1.37952",
        "lng": "99.27146"
    },
    {
        "country": "ID",
        "name": "Natal",
        "lat": "0.5632",
        "lng": "99.1099"
    },
    {
        "country": "ID",
        "name": "Nainggolan",
        "lat": "2.4361",
        "lng": "98.8852"
    },
    {
        "country": "ID",
        "name": "Muara Soma",
        "lat": "0.68842",
        "lng": "99.36194"
    },
    {
        "country": "ID",
        "name": "Muara Sipongi",
        "lat": "0.56926",
        "lng": "100.01266"
    },
    {
        "country": "ID",
        "name": "Sikabaluan",
        "lat": "-1.11961",
        "lng": "98.99217"
    },
    {
        "country": "ID",
        "name": "Muara Siberut",
        "lat": "-1.59787",
        "lng": "99.21097"
    },
    {
        "country": "ID",
        "name": "Muara",
        "lat": "2.33722",
        "lng": "98.90539"
    },
    {
        "country": "ID",
        "name": "Montasik",
        "lat": "5.50266",
        "lng": "95.42306"
    },
    {
        "country": "ID",
        "name": "Mogang",
        "lat": "2.4697",
        "lng": "98.8043"
    },
    {
        "country": "ID",
        "name": "Meureubo",
        "lat": "4.14",
        "lng": "96.1623"
    },
    {
        "country": "ID",
        "name": "Meulaboh",
        "lat": "4.14402",
        "lng": "96.12664"
    },
    {
        "country": "ID",
        "name": "Medan",
        "lat": "3.58333",
        "lng": "98.66667"
    },
    {
        "country": "ID",
        "name": "Lubuk Pakam",
        "lat": "3.5592",
        "lng": "98.8733"
    },
    {
        "country": "ID",
        "name": "Lintongnihuta",
        "lat": "2.276",
        "lng": "98.866"
    },
    {
        "country": "ID",
        "name": "Limapuluh",
        "lat": "3.1689",
        "lng": "99.4175"
    },
    {
        "country": "ID",
        "name": "Lhoong",
        "lat": "5.26667",
        "lng": "95.25"
    },
    {
        "country": "ID",
        "name": "Lhokseumawe",
        "lat": "5.1801",
        "lng": "97.1507"
    },
    {
        "country": "ID",
        "name": "Lhoknga",
        "lat": "5.47691",
        "lng": "95.24538"
    },
    {
        "country": "ID",
        "name": "Lhokkruet",
        "lat": "4.8797",
        "lng": "95.401"
    },
    {
        "country": "ID",
        "name": "Laweueng",
        "lat": "5.5151",
        "lng": "95.8465"
    },
    {
        "country": "ID",
        "name": "Langsa",
        "lat": "4.4683",
        "lng": "97.9683"
    },
    {
        "country": "ID",
        "name": "Langgapayung",
        "lat": "1.72693",
        "lng": "99.96285"
    },
    {
        "country": "ID",
        "name": "Lampuyang",
        "lat": "5.6701",
        "lng": "95.1345"
    },
    {
        "country": "ID",
        "name": "Lamno",
        "lat": "5.0902",
        "lng": "95.3727"
    },
    {
        "country": "ID",
        "name": "Labuhan Deli",
        "lat": "3.7278",
        "lng": "98.6738"
    },
    {
        "country": "ID",
        "name": "Kuala Bhee",
        "lat": "4.3855",
        "lng": "96.0471"
    },
    {
        "country": "ID",
        "name": "Kruengraya",
        "lat": "5.5895",
        "lng": "95.5145"
    },
    {
        "country": "ID",
        "name": "Krueng Luak",
        "lat": "2.8583",
        "lng": "97.7578"
    },
    {
        "country": "ID",
        "name": "Kisaran",
        "lat": "2.9845",
        "lng": "99.6158"
    },
    {
        "country": "ID",
        "name": "Kabanjahe",
        "lat": "3.1001",
        "lng": "98.4908"
    },
    {
        "country": "ID",
        "name": "Isak",
        "lat": "4.4599",
        "lng": "96.8822"
    },
    {
        "country": "ID",
        "name": "Kotanopan",
        "lat": "0.66758",
        "lng": "99.70908"
    },
    {
        "country": "ID",
        "name": "Gunung Tua",
        "lat": "1.51274",
        "lng": "99.62628"
    },
    {
        "country": "ID",
        "name": "Gunungsitoli",
        "lat": "1.2888",
        "lng": "97.6143"
    },
    {
        "country": "ID",
        "name": "Gosong Telaga",
        "lat": "2.2786",
        "lng": "97.9268"
    },
    {
        "country": "ID",
        "name": "Dolok Sanggul",
        "lat": "2.2588",
        "lng": "98.7501"
    },
    {
        "country": "ID",
        "name": "Deli Tua",
        "lat": "3.5078",
        "lng": "98.6839"
    },
    {
        "country": "ID",
        "name": "Celala",
        "lat": "4.5955",
        "lng": "96.692"
    },
    {
        "country": "ID",
        "name": "Calang",
        "lat": "4.6306",
        "lng": "95.5754"
    },
    {
        "country": "ID",
        "name": "Blangpidie",
        "lat": "3.73956",
        "lng": "96.83608"
    },
    {
        "country": "ID",
        "name": "Blangkejeren",
        "lat": "3.9971",
        "lng": "97.3384"
    },
    {
        "country": "ID",
        "name": "Bireun",
        "lat": "5.203",
        "lng": "96.7009"
    },
    {
        "country": "ID",
        "name": "Binjai",
        "lat": "3.6001",
        "lng": "98.4854"
    },
    {
        "country": "ID",
        "name": "Binanga",
        "lat": "1.41006",
        "lng": "99.77602"
    },
    {
        "country": "ID",
        "name": "Berastagi",
        "lat": "3.19468",
        "lng": "98.50889"
    },
    {
        "country": "ID",
        "name": "Belawan",
        "lat": "3.7755",
        "lng": "98.6832"
    },
    {
        "country": "ID",
        "name": "Bayeuen",
        "lat": "4.5902",
        "lng": "97.9087"
    },
    {
        "country": "ID",
        "name": "Batangtoru",
        "lat": "1.48253",
        "lng": "99.06569"
    },
    {
        "country": "ID",
        "name": "Barus",
        "lat": "2.0106",
        "lng": "98.3982"
    },
    {
        "country": "ID",
        "name": "Bandar",
        "lat": "2.05",
        "lng": "99.75"
    },
    {
        "country": "ID",
        "name": "Banda Aceh",
        "lat": "5.54167",
        "lng": "95.33333"
    },
    {
        "country": "ID",
        "name": "Balige",
        "lat": "2.3328",
        "lng": "99.0657"
    },
    {
        "country": "ID",
        "name": "Bakungan",
        "lat": "2.92397",
        "lng": "97.48311"
    },
    {
        "country": "ID",
        "name": "Asan Kumbang",
        "lat": "5.30424",
        "lng": "96.02744"
    },
    {
        "country": "ID",
        "name": "Ambarita",
        "lat": "2.6814",
        "lng": "98.8311"
    },
    {
        "country": "ID",
        "name": "Air Bangis",
        "lat": "0.2018",
        "lng": "99.37985"
    },
    {
        "country": "ID",
        "name": "Terangun",
        "lat": "4.0772",
        "lng": "97.0666"
    },
    {
        "country": "ID",
        "name": "Kenyaran",
        "lat": "4.1544",
        "lng": "97.1951"
    },
    {
        "country": "ID",
        "name": "Pining",
        "lat": "4.1064",
        "lng": "97.5886"
    },
    {
        "country": "ID",
        "name": "Yosowilangun",
        "lat": "-8.2391",
        "lng": "113.3136"
    },
    {
        "country": "ID",
        "name": "Yogyakarta",
        "lat": "-7.80139",
        "lng": "110.36472"
    },
    {
        "country": "ID",
        "name": "Wuluhan",
        "lat": "-8.3376",
        "lng": "113.5503"
    },
    {
        "country": "ID",
        "name": "Wotu",
        "lat": "-2.5906",
        "lng": "120.804"
    },
    {
        "country": "ID",
        "name": "Wori",
        "lat": "1.59714",
        "lng": "124.85246"
    },
    {
        "country": "ID",
        "name": "Wonosobo",
        "lat": "-7.35889",
        "lng": "109.90306"
    },
    {
        "country": "ID",
        "name": "Wonosari",
        "lat": "-7.96556",
        "lng": "110.60361"
    },
    {
        "country": "ID",
        "name": "Wonorejo",
        "lat": "-2.4937",
        "lng": "120.8126"
    },
    {
        "country": "ID",
        "name": "Wonopringgo",
        "lat": "-6.98333",
        "lng": "109.61667"
    },
    {
        "country": "ID",
        "name": "Wonogiri",
        "lat": "-7.81444",
        "lng": "110.92056"
    },
    {
        "country": "ID",
        "name": "Wongsorejo",
        "lat": "-7.9908",
        "lng": "114.4009"
    },
    {
        "country": "ID",
        "name": "Wolowaru",
        "lat": "-8.7835",
        "lng": "121.886"
    },
    {
        "country": "ID",
        "name": "Wlingi",
        "lat": "-8.0776",
        "lng": "112.3311"
    },
    {
        "country": "ID",
        "name": "Witihama",
        "lat": "-8.2996",
        "lng": "123.2627"
    },
    {
        "country": "ID",
        "name": "Wiradesa",
        "lat": "-6.8922",
        "lng": "109.619"
    },
    {
        "country": "ID",
        "name": "Weru",
        "lat": "-6.711",
        "lng": "108.5037"
    },
    {
        "country": "ID",
        "name": "Werinama",
        "lat": "-3.5029",
        "lng": "130.1105"
    },
    {
        "country": "ID",
        "name": "Weleri",
        "lat": "-6.9713",
        "lng": "110.0666"
    },
    {
        "country": "ID",
        "name": "Welahan",
        "lat": "-6.8",
        "lng": "110.71667"
    },
    {
        "country": "ID",
        "name": "Wedi",
        "lat": "-7.74306",
        "lng": "110.57944"
    },
    {
        "country": "ID",
        "name": "Wedarijaksa",
        "lat": "-6.68155",
        "lng": "111.07161"
    },
    {
        "country": "ID",
        "name": "Weda",
        "lat": "0.32952",
        "lng": "127.87389"
    },
    {
        "country": "ID",
        "name": "Wates",
        "lat": "-7.85722",
        "lng": "110.15694"
    },
    {
        "country": "ID",
        "name": "Watansoppeng",
        "lat": "-4.3522",
        "lng": "119.8841"
    },
    {
        "country": "ID",
        "name": "Watampone",
        "lat": "-4.5386",
        "lng": "120.3279"
    },
    {
        "country": "ID",
        "name": "Waru",
        "lat": "-6.9421",
        "lng": "113.5499"
    },
    {
        "country": "ID",
        "name": "Waren",
        "lat": "-2.2645",
        "lng": "136.3342"
    },
    {
        "country": "ID",
        "name": "Wardo",
        "lat": "-1.0623",
        "lng": "135.8416"
    },
    {
        "country": "ID",
        "name": "Wanurian",
        "lat": "-1.2463",
        "lng": "131.5665"
    },
    {
        "country": "ID",
        "name": "Wangon",
        "lat": "-7.51611",
        "lng": "109.05389"
    },
    {
        "country": "ID",
        "name": "Wanci",
        "lat": "-5.3271",
        "lng": "123.5388"
    },
    {
        "country": "ID",
        "name": "Wanareja",
        "lat": "-7.3332",
        "lng": "108.6876"
    },
    {
        "country": "ID",
        "name": "Wanaraja",
        "lat": "-7.1749",
        "lng": "107.9808"
    },
    {
        "country": "ID",
        "name": "Wamena",
        "lat": "-4.09512",
        "lng": "138.94492"
    },
    {
        "country": "ID",
        "name": "Wajak",
        "lat": "-8.102",
        "lng": "112.7312"
    },
    {
        "country": "ID",
        "name": "Waiwerang",
        "lat": "-8.3884",
        "lng": "123.1648"
    },
    {
        "country": "ID",
        "name": "Waisai",
        "lat": "-0.2379",
        "lng": "130.5072"
    },
    {
        "country": "ID",
        "name": "Waigete",
        "lat": "-8.6127",
        "lng": "122.4198"
    },
    {
        "country": "ID",
        "name": "Waipukang",
        "lat": "-8.3207",
        "lng": "123.4638"
    },
    {
        "country": "ID",
        "name": "Waingapu",
        "lat": "-9.6567",
        "lng": "120.2641"
    },
    {
        "country": "ID",
        "name": "Waimangura",
        "lat": "-9.5098",
        "lng": "119.2377"
    },
    {
        "country": "ID",
        "name": "Waikabubak",
        "lat": "-9.6475",
        "lng": "119.3889"
    },
    {
        "country": "ID",
        "name": "Waigama",
        "lat": "-1.8364",
        "lng": "129.8316"
    },
    {
        "country": "ID",
        "name": "Waibakul",
        "lat": "-9.63556",
        "lng": "119.41333"
    },
    {
        "country": "ID",
        "name": "Wahai",
        "lat": "-2.79529",
        "lng": "129.5382"
    },
    {
        "country": "ID",
        "name": "Utan",
        "lat": "-8.4129",
        "lng": "117.1332"
    },
    {
        "country": "ID",
        "name": "Uta",
        "lat": "-4.5536",
        "lng": "136.0339"
    },
    {
        "country": "ID",
        "name": "Ungaran",
        "lat": "-7.13972",
        "lng": "110.405"
    },
    {
        "country": "ID",
        "name": "Ketapang",
        "lat": "-4.71335",
        "lng": "104.79954"
    },
    {
        "country": "ID",
        "name": "Kolaka",
        "lat": "-4.0597",
        "lng": "121.60556"
    },
    {
        "country": "ID",
        "name": "Ulu",
        "lat": "2.70363",
        "lng": "125.39375"
    },
    {
        "country": "ID",
        "name": "Ujungpangkah",
        "lat": "-6.917",
        "lng": "112.5551"
    },
    {
        "country": "ID",
        "name": "Makassar",
        "lat": "-5.14861",
        "lng": "119.43194"
    },
    {
        "country": "ID",
        "name": "Ujoh Bilang",
        "lat": "0.55",
        "lng": "115.25"
    },
    {
        "country": "ID",
        "name": "Ubud",
        "lat": "-8.5098",
        "lng": "115.2654"
    },
    {
        "country": "ID",
        "name": "Turen",
        "lat": "-8.17295",
        "lng": "112.6861"
    },
    {
        "country": "ID",
        "name": "Tunjungan",
        "lat": "-6.921",
        "lng": "111.3698"
    },
    {
        "country": "ID",
        "name": "Tumpang",
        "lat": "-8.0061",
        "lng": "112.7639"
    },
    {
        "country": "ID",
        "name": "Tulungagung",
        "lat": "-8.0657",
        "lng": "111.9025"
    },
    {
        "country": "ID",
        "name": "Tulangan Utara",
        "lat": "-7.4737",
        "lng": "112.6505"
    },
    {
        "country": "ID",
        "name": "Tuban",
        "lat": "-6.8976",
        "lng": "112.0649"
    },
    {
        "country": "ID",
        "name": "Tual",
        "lat": "-5.6193",
        "lng": "132.7886"
    },
    {
        "country": "ID",
        "name": "Trucuk",
        "lat": "-7.71833",
        "lng": "110.65889"
    },
    {
        "country": "ID",
        "name": "Trenggalek",
        "lat": "-8.0764",
        "lng": "111.70641"
    },
    {
        "country": "ID",
        "name": "Terawas",
        "lat": "-3.0526",
        "lng": "102.8149"
    },
    {
        "country": "ID",
        "name": "Tongutisungi",
        "lat": "1.49813",
        "lng": "127.55571"
    },
    {
        "country": "ID",
        "name": "Tangga",
        "lat": "-8.656",
        "lng": "118.6937"
    },
    {
        "country": "ID",
        "name": "Tondano",
        "lat": "1.3054",
        "lng": "124.91261"
    },
    {
        "country": "ID",
        "name": "Tomohon",
        "lat": "1.31678",
        "lng": "124.80379"
    },
    {
        "country": "ID",
        "name": "Tombatu",
        "lat": "1.04168",
        "lng": "124.68362"
    },
    {
        "country": "ID",
        "name": "Tolitoli",
        "lat": "1.0392",
        "lng": "120.8169"
    },
    {
        "country": "ID",
        "name": "Toho",
        "lat": "0.41795",
        "lng": "109.22001"
    },
    {
        "country": "ID",
        "name": "Tobelo",
        "lat": "1.72837",
        "lng": "128.00948"
    },
    {
        "country": "ID",
        "name": "Tiom",
        "lat": "-3.92361",
        "lng": "138.45472"
    },
    {
        "country": "ID",
        "name": "Tinabogan",
        "lat": "0.7823",
        "lng": "120.5264"
    },
    {
        "country": "ID",
        "name": "Tilamuta",
        "lat": "0.5273",
        "lng": "122.3463"
    },
    {
        "country": "ID",
        "name": "Tigi",
        "lat": "-3.96667",
        "lng": "136.26667"
    },
    {
        "country": "ID",
        "name": "Tideng Pale",
        "lat": "3.60815",
        "lng": "116.90668"
    },
    {
        "country": "ID",
        "name": "Ternate",
        "lat": "0.79065",
        "lng": "127.38424"
    },
    {
        "country": "ID",
        "name": "Terbanggi Besar",
        "lat": "-4.87898",
        "lng": "105.21818"
    },
    {
        "country": "ID",
        "name": "Tepas",
        "lat": "-8.71667",
        "lng": "116.91667"
    },
    {
        "country": "ID",
        "name": "Tentena",
        "lat": "-1.7562",
        "lng": "120.648"
    },
    {
        "country": "ID",
        "name": "Tenga",
        "lat": "1.16146",
        "lng": "124.43929"
    },
    {
        "country": "ID",
        "name": "Teminabuan",
        "lat": "-1.4416",
        "lng": "132.01428"
    },
    {
        "country": "ID",
        "name": "Tembilahan",
        "lat": "-0.3227",
        "lng": "103.1603"
    },
    {
        "country": "ID",
        "name": "Temanggung",
        "lat": "-7.31917",
        "lng": "110.19278"
    },
    {
        "country": "ID",
        "name": "Telukpakedai",
        "lat": "-0.26493",
        "lng": "109.12069"
    },
    {
        "country": "ID",
        "name": "Telukdalam",
        "lat": "0.53275",
        "lng": "103.26645"
    },
    {
        "country": "ID",
        "name": "Tekung",
        "lat": "-8.1736",
        "lng": "113.2796"
    },
    {
        "country": "ID",
        "name": "Tehoru",
        "lat": "-3.4432",
        "lng": "129.5434"
    },
    {
        "country": "ID",
        "name": "Tegalalang",
        "lat": "-8.4366",
        "lng": "115.2792"
    },
    {
        "country": "ID",
        "name": "Tegal",
        "lat": "-6.8694",
        "lng": "109.1402"
    },
    {
        "country": "ID",
        "name": "Tebing Tinggi",
        "lat": "-3.5842",
        "lng": "103.0772"
    },
    {
        "country": "ID",
        "name": "Tayu",
        "lat": "-6.5397",
        "lng": "111.0518"
    },
    {
        "country": "ID",
        "name": "Tayan",
        "lat": "-0.03365",
        "lng": "110.10184"
    },
    {
        "country": "ID",
        "name": "Tatelu",
        "lat": "1.5307",
        "lng": "124.94765"
    },
    {
        "country": "ID",
        "name": "Tasikmalaya",
        "lat": "-7.3274",
        "lng": "108.2207"
    },
    {
        "country": "ID",
        "name": "Tarub",
        "lat": "-6.93333",
        "lng": "109.16667"
    },
    {
        "country": "ID",
        "name": "Tarogong",
        "lat": "-7.1902",
        "lng": "107.8874"
    },
    {
        "country": "ID",
        "name": "Tarempa",
        "lat": "3.21583",
        "lng": "106.21722"
    },
    {
        "country": "ID",
        "name": "Tarakan",
        "lat": "3.31332",
        "lng": "117.59152"
    },
    {
        "country": "ID",
        "name": "Taraju",
        "lat": "-7.458",
        "lng": "107.9812"
    },
    {
        "country": "ID",
        "name": "Tapalang",
        "lat": "-2.8637",
        "lng": "118.8672"
    },
    {
        "country": "ID",
        "name": "Tanjung Selor",
        "lat": "2.8375",
        "lng": "117.36528"
    },
    {
        "country": "ID",
        "name": "Tanjungsakti",
        "lat": "-4.16762",
        "lng": "103.0687"
    },
    {
        "country": "ID",
        "name": "Tanjungraja",
        "lat": "-3.33725",
        "lng": "104.77452"
    },
    {
        "country": "ID",
        "name": "Tanjung Pinang",
        "lat": "0.91667",
        "lng": "104.45833"
    },
    {
        "country": "ID",
        "name": "Tanjungpati",
        "lat": "-0.16046",
        "lng": "100.67997"
    },
    {
        "country": "ID",
        "name": "Tanjung Pandan",
        "lat": "-2.73353",
        "lng": "107.63477"
    },
    {
        "country": "ID",
        "name": "Tanjung Lubuk",
        "lat": "-3.52678",
        "lng": "104.75858"
    },
    {
        "country": "ID",
        "name": "Bandar Lampung",
        "lat": "-5.42917",
        "lng": "105.26111"
    },
    {
        "country": "ID",
        "name": "Tanjunggadang",
        "lat": "-0.7783",
        "lng": "101.1982"
    },
    {
        "country": "ID",
        "name": "Tanjunggadang",
        "lat": "-0.30126",
        "lng": "100.73841"
    },
    {
        "country": "ID",
        "name": "Tanjungbumi",
        "lat": "-6.8912",
        "lng": "113.0799"
    },
    {
        "country": "ID",
        "name": "Tanjungbatu",
        "lat": "-3.0002",
        "lng": "116.2227"
    },
    {
        "country": "ID",
        "name": "Tanjungbatu",
        "lat": "0.65936",
        "lng": "103.46195"
    },
    {
        "country": "ID",
        "name": "Tanjungampalu",
        "lat": "-0.6221",
        "lng": "100.82507"
    },
    {
        "country": "ID",
        "name": "Tanjungagung",
        "lat": "-3.93728",
        "lng": "103.80465"
    },
    {
        "country": "ID",
        "name": "Tanjung",
        "lat": "-8.356",
        "lng": "116.1565"
    },
    {
        "country": "ID",
        "name": "Tanjung",
        "lat": "4.01527",
        "lng": "108.34345"
    },
    {
        "country": "ID",
        "name": "Tanjung",
        "lat": "-2.1709",
        "lng": "115.4077"
    },
    {
        "country": "ID",
        "name": "Taniwel",
        "lat": "-2.85245",
        "lng": "128.4772"
    },
    {
        "country": "ID",
        "name": "Tongkiling",
        "lat": "-2.1357",
        "lng": "113.8755"
    },
    {
        "country": "ID",
        "name": "Tanggulangin",
        "lat": "-7.49958",
        "lng": "112.69992"
    },
    {
        "country": "ID",
        "name": "Tanggul",
        "lat": "-8.1645",
        "lng": "113.4525"
    },
    {
        "country": "ID",
        "name": "Tanggeung",
        "lat": "-7.2677",
        "lng": "107.1236"
    },
    {
        "country": "ID",
        "name": "Tangerang",
        "lat": "-6.17806",
        "lng": "106.63"
    },
    {
        "country": "ID",
        "name": "Tanahwangko",
        "lat": "1.39368",
        "lng": "124.68227"
    },
    {
        "country": "ID",
        "name": "Tana Paser",
        "lat": "-1.9051",
        "lng": "116.1913"
    },
    {
        "country": "ID",
        "name": "Tamiang Layang",
        "lat": "-2.1236",
        "lng": "115.1958"
    },
    {
        "country": "ID",
        "name": "Tamberu",
        "lat": "-6.8981",
        "lng": "113.4843"
    },
    {
        "country": "ID",
        "name": "Tambaksari",
        "lat": "-7.2489",
        "lng": "108.535"
    },
    {
        "country": "ID",
        "name": "Tamako",
        "lat": "3.44589",
        "lng": "125.52696"
    },
    {
        "country": "ID",
        "name": "Talun",
        "lat": "-8.0906",
        "lng": "112.285"
    },
    {
        "country": "ID",
        "name": "Teluk Kuantan",
        "lat": "-0.5283",
        "lng": "101.581"
    },
    {
        "country": "ID",
        "name": "Taliwang",
        "lat": "-8.7449",
        "lng": "116.8532"
    },
    {
        "country": "ID",
        "name": "Talise",
        "lat": "1.83344",
        "lng": "125.06949"
    },
    {
        "country": "ID",
        "name": "Talawi",
        "lat": "-0.59745",
        "lng": "100.73979"
    },
    {
        "country": "ID",
        "name": "Talang Ubi",
        "lat": "-3.2656",
        "lng": "103.8253"
    },
    {
        "country": "ID",
        "name": "Talangbetutu",
        "lat": "-2.8817",
        "lng": "104.6939"
    },
    {
        "country": "ID",
        "name": "Takokak",
        "lat": "-7.0513",
        "lng": "107.0036"
    },
    {
        "country": "ID",
        "name": "Takalar",
        "lat": "-5.4258",
        "lng": "119.4384"
    },
    {
        "country": "ID",
        "name": "Tajinan",
        "lat": "-8.0497",
        "lng": "112.6824"
    },
    {
        "country": "ID",
        "name": "Tais",
        "lat": "-4.07543",
        "lng": "102.57739"
    },
    {
        "country": "ID",
        "name": "Tagolu",
        "lat": "-1.4393",
        "lng": "120.7731"
    },
    {
        "country": "ID",
        "name": "Taccipi",
        "lat": "-4.5066",
        "lng": "120.1842"
    },
    {
        "country": "ID",
        "name": "Tabing",
        "lat": "-0.87203",
        "lng": "100.34279"
    },
    {
        "country": "ID",
        "name": "Tabanan",
        "lat": "-8.5413",
        "lng": "115.12522"
    },
    {
        "country": "ID",
        "name": "Susupu",
        "lat": "1.15125",
        "lng": "127.43243"
    },
    {
        "country": "ID",
        "name": "Lasusua",
        "lat": "-3.5105",
        "lng": "120.8844"
    },
    {
        "country": "ID",
        "name": "Surulangun Rawas",
        "lat": "-2.6227",
        "lng": "102.7634"
    },
    {
        "country": "ID",
        "name": "Surian",
        "lat": "-1.25587",
        "lng": "100.88129"
    },
    {
        "country": "ID",
        "name": "Surakarta",
        "lat": "-7.55611",
        "lng": "110.83167"
    },
    {
        "country": "ID",
        "name": "Surade",
        "lat": "-7.342",
        "lng": "106.5616"
    },
    {
        "country": "ID",
        "name": "Surabaya",
        "lat": "-7.24917",
        "lng": "112.75083"
    },
    {
        "country": "ID",
        "name": "Surabaya",
        "lat": "-4.67122",
        "lng": "105.72571"
    },
    {
        "country": "ID",
        "name": "Suban Jeriji",
        "lat": "-3.74637",
        "lng": "103.96405"
    },
    {
        "country": "ID",
        "name": "Sungsang",
        "lat": "-2.3629",
        "lng": "104.9038"
    },
    {
        "country": "ID",
        "name": "Sungguminasa",
        "lat": "-5.1971",
        "lng": "119.451"
    },
    {
        "country": "ID",
        "name": "Sungaikakap",
        "lat": "-0.05193",
        "lng": "109.20741"
    },
    {
        "country": "ID",
        "name": "Sungaisalak",
        "lat": "-0.4381",
        "lng": "103.0075"
    },
    {
        "country": "ID",
        "name": "Sungairotan",
        "lat": "-3.10245",
        "lng": "104.27802"
    },
    {
        "country": "ID",
        "name": "Sungairaya",
        "lat": "-2.8566",
        "lng": "115.2474"
    },
    {
        "country": "ID",
        "name": "Sungai Raya",
        "lat": "0.7",
        "lng": "108.9"
    },
    {
        "country": "ID",
        "name": "Sungai Pinyuh",
        "lat": "0.2832",
        "lng": "109.07859"
    },
    {
        "country": "ID",
        "name": "Sungai Penuh",
        "lat": "-2.0561",
        "lng": "101.3913"
    },
    {
        "country": "ID",
        "name": "Sungailimau",
        "lat": "-0.51638",
        "lng": "100.06171"
    },
    {
        "country": "ID",
        "name": "Sungailiat",
        "lat": "-1.85442",
        "lng": "106.12215"
    },
    {
        "country": "ID",
        "name": "Sungaikupang",
        "lat": "-3.0438",
        "lng": "115.9918"
    },
    {
        "country": "ID",
        "name": "Sungaigerong",
        "lat": "-2.9817",
        "lng": "104.8483"
    },
    {
        "country": "ID",
        "name": "Sungaiduri",
        "lat": "0.5664",
        "lng": "108.92891"
    },
    {
        "country": "ID",
        "name": "Sungaibali",
        "lat": "-3.4027",
        "lng": "116.4044"
    },
    {
        "country": "ID",
        "name": "Semurup",
        "lat": "-1.9917",
        "lng": "101.369"
    },
    {
        "country": "ID",
        "name": "Sumpur Kudus",
        "lat": "-0.4418",
        "lng": "100.9088"
    },
    {
        "country": "ID",
        "name": "Sumenep",
        "lat": "-7.01667",
        "lng": "113.86667"
    },
    {
        "country": "ID",
        "name": "Sumedang Utara",
        "lat": "-6.85",
        "lng": "107.91667"
    },
    {
        "country": "ID",
        "name": "Sumedang",
        "lat": "-6.85861",
        "lng": "107.91639"
    },
    {
        "country": "ID",
        "name": "Sumberpucung",
        "lat": "-8.15856",
        "lng": "112.48292"
    },
    {
        "country": "ID",
        "name": "Sumbermanjing Wetan",
        "lat": "-8.2807",
        "lng": "112.6896"
    },
    {
        "country": "ID",
        "name": "Sumberjati",
        "lat": "-8.1873",
        "lng": "113.8799"
    },
    {
        "country": "ID",
        "name": "Sumberjambe",
        "lat": "-8.0699",
        "lng": "113.9002"
    },
    {
        "country": "ID",
        "name": "Sumberbaru",
        "lat": "-8.1177",
        "lng": "113.3887"
    },
    {
        "country": "ID",
        "name": "Sumberanyar",
        "lat": "-7.7824",
        "lng": "114.2997"
    },
    {
        "country": "ID",
        "name": "Sumber",
        "lat": "-6.7978",
        "lng": "111.2572"
    },
    {
        "country": "ID",
        "name": "Sumber",
        "lat": "-6.76028",
        "lng": "108.48306"
    },
    {
        "country": "ID",
        "name": "Sumbawa Besar",
        "lat": "-8.49317",
        "lng": "117.42024"
    },
    {
        "country": "ID",
        "name": "Sulitair",
        "lat": "-0.61258",
        "lng": "100.64788"
    },
    {
        "country": "ID",
        "name": "Sulang Tengah",
        "lat": "-6.8065",
        "lng": "111.3806"
    },
    {
        "country": "ID",
        "name": "Sukowono",
        "lat": "-8.0576",
        "lng": "113.8342"
    },
    {
        "country": "ID",
        "name": "Sukoharjo",
        "lat": "-7.6725",
        "lng": "110.83806"
    },
    {
        "country": "ID",
        "name": "Sukawening",
        "lat": "-7.1568",
        "lng": "108.0065"
    },
    {
        "country": "ID",
        "name": "Sukasari",
        "lat": "-7.0757",
        "lng": "107.8947"
    },
    {
        "country": "ID",
        "name": "Sukasada",
        "lat": "-8.1395",
        "lng": "115.1031"
    },
    {
        "country": "ID",
        "name": "Sokaraja",
        "lat": "-7.45806",
        "lng": "109.28806"
    },
    {
        "country": "ID",
        "name": "Sukaraja",
        "lat": "-7.4519",
        "lng": "108.1944"
    },
    {
        "country": "ID",
        "name": "Sukanagara",
        "lat": "-7.098",
        "lng": "107.1309"
    },
    {
        "country": "ID",
        "name": "Sukadana",
        "lat": "-5.06446",
        "lng": "105.54869"
    },
    {
        "country": "ID",
        "name": "Sukadana",
        "lat": "-1.25",
        "lng": "109.95"
    },
    {
        "country": "ID",
        "name": "Sukabumi",
        "lat": "-6.91806",
        "lng": "106.92667"
    },
    {
        "country": "ID",
        "name": "Subang",
        "lat": "-7.1277",
        "lng": "108.5283"
    },
    {
        "country": "ID",
        "name": "Subang",
        "lat": "-6.57",
        "lng": "107.75667"
    },
    {
        "country": "ID",
        "name": "Subaim",
        "lat": "1.12034",
        "lng": "128.13301"
    },
    {
        "country": "ID",
        "name": "Stagen",
        "lat": "-3.3049",
        "lng": "116.1779"
    },
    {
        "country": "ID",
        "name": "Srono",
        "lat": "-8.40003",
        "lng": "114.26661"
    },
    {
        "country": "ID",
        "name": "Srandakan",
        "lat": "-7.93861",
        "lng": "110.25056"
    },
    {
        "country": "ID",
        "name": "Sragen",
        "lat": "-7.42639",
        "lng": "111.02222"
    },
    {
        "country": "ID",
        "name": "Sorong",
        "lat": "-0.87956",
        "lng": "131.26104"
    },
    {
        "country": "ID",
        "name": "Insrom",
        "lat": "-1.14473",
        "lng": "136.03134"
    },
    {
        "country": "ID",
        "name": "Sorendiweri",
        "lat": "-0.73389",
        "lng": "135.73611"
    },
    {
        "country": "ID",
        "name": "Soreang",
        "lat": "-7.03306",
        "lng": "107.51833"
    },
    {
        "country": "ID",
        "name": "Sonder",
        "lat": "1.25474",
        "lng": "124.77945"
    },
    {
        "country": "ID",
        "name": "Somba",
        "lat": "-3.3772",
        "lng": "118.8475"
    },
    {
        "country": "ID",
        "name": "Solok",
        "lat": "-0.8006",
        "lng": "100.6571"
    },
    {
        "country": "ID",
        "name": "Sokobanah",
        "lat": "-6.89",
        "lng": "113.4347"
    },
    {
        "country": "ID",
        "name": "Soko",
        "lat": "-7.48315",
        "lng": "112.42704"
    },
    {
        "country": "ID",
        "name": "Sofifi",
        "lat": "0.73729",
        "lng": "127.5588"
    },
    {
        "country": "ID",
        "name": "Soe",
        "lat": "-9.86071",
        "lng": "124.28395"
    },
    {
        "country": "ID",
        "name": "Sodong Hilir",
        "lat": "-7.4894",
        "lng": "108.0514"
    },
    {
        "country": "ID",
        "name": "Sluke",
        "lat": "-6.63252",
        "lng": "111.49946"
    },
    {
        "country": "ID",
        "name": "Sleman",
        "lat": "-7.71556",
        "lng": "110.35556"
    },
    {
        "country": "ID",
        "name": "Slawi",
        "lat": "-6.9816",
        "lng": "109.1407"
    },
    {
        "country": "ID",
        "name": "Siwa",
        "lat": "-3.6999",
        "lng": "120.4156"
    },
    {
        "country": "ID",
        "name": "Situbondo",
        "lat": "-7.70623",
        "lng": "114.00976"
    },
    {
        "country": "ID",
        "name": "Sintang",
        "lat": "0.06667",
        "lng": "111.5"
    },
    {
        "country": "ID",
        "name": "Sinjai",
        "lat": "-5.1241",
        "lng": "120.253"
    },
    {
        "country": "ID",
        "name": "Singosari",
        "lat": "-7.8924",
        "lng": "112.6658"
    },
    {
        "country": "ID",
        "name": "Singojuruh",
        "lat": "-8.31667",
        "lng": "114.23333"
    },
    {
        "country": "ID",
        "name": "Singkawang",
        "lat": "0.90925",
        "lng": "108.98463"
    },
    {
        "country": "ID",
        "name": "Singkarak",
        "lat": "-0.69089",
        "lng": "100.60335"
    },
    {
        "country": "ID",
        "name": "Sengkang",
        "lat": "-4.1279",
        "lng": "120.0297"
    },
    {
        "country": "ID",
        "name": "Singaraja",
        "lat": "-8.112",
        "lng": "115.08818"
    },
    {
        "country": "ID",
        "name": "Singaparna",
        "lat": "-7.3515",
        "lng": "108.111"
    },
    {
        "country": "ID",
        "name": "Sindangbarang",
        "lat": "-7.4516",
        "lng": "107.1353"
    },
    {
        "country": "ID",
        "name": "Simpur",
        "lat": "-2.8281",
        "lng": "115.2666"
    },
    {
        "country": "ID",
        "name": "Simpangempat",
        "lat": "-3.2785",
        "lng": "115.0293"
    },
    {
        "country": "ID",
        "name": "Simpang",
        "lat": "-4.44867",
        "lng": "104.1922"
    },
    {
        "country": "ID",
        "name": "Simpang",
        "lat": "-1.26424",
        "lng": "104.09701"
    },
    {
        "country": "ID",
        "name": "Sila",
        "lat": "-8.5025",
        "lng": "118.62"
    },
    {
        "country": "ID",
        "name": "Sijunjung",
        "lat": "-0.7005",
        "lng": "100.9774"
    },
    {
        "country": "ID",
        "name": "Sidoarjo",
        "lat": "-7.4478",
        "lng": "112.7183"
    },
    {
        "country": "ID",
        "name": "Sidareja",
        "lat": "-7.4846",
        "lng": "108.7923"
    },
    {
        "country": "ID",
        "name": "Siak Sri Indrapura",
        "lat": "0.79317",
        "lng": "102.0511"
    },
    {
        "country": "ID",
        "name": "Sewon",
        "lat": "-7.87639",
        "lng": "110.35889"
    },
    {
        "country": "ID",
        "name": "Seteluk",
        "lat": "-8.62549",
        "lng": "116.86674"
    },
    {
        "country": "ID",
        "name": "Sesayap",
        "lat": "3.58525",
        "lng": "117.00765"
    },
    {
        "country": "ID",
        "name": "Serui",
        "lat": "-1.8802",
        "lng": "136.2426"
    },
    {
        "country": "ID",
        "name": "Serpong",
        "lat": "-6.31694",
        "lng": "106.66417"
    },
    {
        "country": "ID",
        "name": "Serasan",
        "lat": "2.51111",
        "lng": "109.03111"
    },
    {
        "country": "ID",
        "name": "Serang",
        "lat": "-6.11528",
        "lng": "106.15417"
    },
    {
        "country": "ID",
        "name": "Sepatan",
        "lat": "-6.11889",
        "lng": "106.575"
    },
    {
        "country": "ID",
        "name": "Senori",
        "lat": "-7.0157",
        "lng": "111.7244"
    },
    {
        "country": "ID",
        "name": "Sengeti",
        "lat": "-1.4772",
        "lng": "103.50765"
    },
    {
        "country": "ID",
        "name": "Sangatta",
        "lat": "0.5049",
        "lng": "117.5279"
    },
    {
        "country": "ID",
        "name": "Senduro",
        "lat": "-8.0936",
        "lng": "113.0891"
    },
    {
        "country": "ID",
        "name": "Semuda",
        "lat": "-2.8617",
        "lng": "112.9732"
    },
    {
        "country": "ID",
        "name": "Semongkat",
        "lat": "-8.5721",
        "lng": "117.3193"
    },
    {
        "country": "ID",
        "name": "Semilat",
        "lat": "-2.3077",
        "lng": "112.2118"
    },
    {
        "country": "ID",
        "name": "Semboro Lor",
        "lat": "-8.1901",
        "lng": "113.4445"
    },
    {
        "country": "ID",
        "name": "Sembakung",
        "lat": "3.81667",
        "lng": "117.25"
    },
    {
        "country": "ID",
        "name": "Semarang",
        "lat": "-6.99306",
        "lng": "110.42083"
    },
    {
        "country": "ID",
        "name": "Semamung",
        "lat": "-8.6515",
        "lng": "117.4288"
    },
    {
        "country": "ID",
        "name": "Selorejo",
        "lat": "-8.1392",
        "lng": "112.4257"
    },
    {
        "country": "ID",
        "name": "Selong",
        "lat": "-8.6503",
        "lng": "116.5318"
    },
    {
        "country": "ID",
        "name": "Selogiri",
        "lat": "-7.78333",
        "lng": "110.86667"
    },
    {
        "country": "ID",
        "name": "Selat Panjang",
        "lat": "0.99408",
        "lng": "102.70817"
    },
    {
        "country": "ID",
        "name": "Selajambe",
        "lat": "-7.1181",
        "lng": "108.4625"
    },
    {
        "country": "ID",
        "name": "Sekupang",
        "lat": "1.12723",
        "lng": "103.92672"
    },
    {
        "country": "ID",
        "name": "Sekongkang Bawah",
        "lat": "-8.9659",
        "lng": "116.74917"
    },
    {
        "country": "ID",
        "name": "Sekayu",
        "lat": "-2.8819",
        "lng": "103.8344"
    },
    {
        "country": "ID",
        "name": "Sekernan",
        "lat": "-1.52342",
        "lng": "103.56752"
    },
    {
        "country": "ID",
        "name": "Sekampung",
        "lat": "-5.13326",
        "lng": "105.43595"
    },
    {
        "country": "ID",
        "name": "Sekadau",
        "lat": "0.01667",
        "lng": "110.9"
    },
    {
        "country": "ID",
        "name": "Seget",
        "lat": "-1.41179",
        "lng": "130.97478"
    },
    {
        "country": "ID",
        "name": "Sedinginan",
        "lat": "1.55381",
        "lng": "101.0152"
    },
    {
        "country": "ID",
        "name": "Sidayu",
        "lat": "-6.9993",
        "lng": "112.5636"
    },
    {
        "country": "ID",
        "name": "Sedanau",
        "lat": "3.79377",
        "lng": "108.02929"
    },
    {
        "country": "ID",
        "name": "Sedan",
        "lat": "-6.7668",
        "lng": "111.5744"
    },
    {
        "country": "ID",
        "name": "Sebulu",
        "lat": "-0.27393",
        "lng": "116.99835"
    },
    {
        "country": "ID",
        "name": "Sebuku",
        "lat": "4.00232",
        "lng": "117.03456"
    },
    {
        "country": "ID",
        "name": "Sawangan",
        "lat": "-6.40278",
        "lng": "106.77444"
    },
    {
        "country": "ID",
        "name": "Sawang",
        "lat": "0.7368",
        "lng": "103.35635"
    },
    {
        "country": "ID",
        "name": "Saukorem",
        "lat": "-0.565",
        "lng": "133.1527"
    },
    {
        "country": "ID",
        "name": "Satui",
        "lat": "-3.7818",
        "lng": "115.4575"
    },
    {
        "country": "ID",
        "name": "Saruaso",
        "lat": "-0.4831",
        "lng": "100.63765"
    },
    {
        "country": "ID",
        "name": "Sarolangun",
        "lat": "-2.3121",
        "lng": "102.7271"
    },
    {
        "country": "ID",
        "name": "Sarmi",
        "lat": "-1.85302",
        "lng": "138.75093"
    },
    {
        "country": "ID",
        "name": "Sarilamak",
        "lat": "-0.1503",
        "lng": "100.664"
    },
    {
        "country": "ID",
        "name": "Sepulu",
        "lat": "-6.8976",
        "lng": "112.9593"
    },
    {
        "country": "ID",
        "name": "Sapeken",
        "lat": "-7.00468",
        "lng": "115.70619"
    },
    {
        "country": "ID",
        "name": "Sape",
        "lat": "-8.56667",
        "lng": "118.98333"
    },
    {
        "country": "ID",
        "name": "Sapat",
        "lat": "-0.3235",
        "lng": "103.3101"
    },
    {
        "country": "ID",
        "name": "Saparua",
        "lat": "-3.573",
        "lng": "128.65242"
    },
    {
        "country": "ID",
        "name": "Saonek",
        "lat": "-0.4379",
        "lng": "130.7559"
    },
    {
        "country": "ID",
        "name": "Sausapor",
        "lat": "-0.49985",
        "lng": "132.08588"
    },
    {
        "country": "ID",
        "name": "Sangkulirang",
        "lat": "0.977",
        "lng": "117.9803"
    },
    {
        "country": "ID",
        "name": "Sanggau",
        "lat": "0.13333",
        "lng": "110.6"
    },
    {
        "country": "ID",
        "name": "Kore",
        "lat": "-8.37599",
        "lng": "118.29876"
    },
    {
        "country": "ID",
        "name": "Sangasangadalam",
        "lat": "-0.6624",
        "lng": "117.2365"
    },
    {
        "country": "ID",
        "name": "Sanana",
        "lat": "-2.05853",
        "lng": "125.97786"
    },
    {
        "country": "ID",
        "name": "Sampit",
        "lat": "-2.5315",
        "lng": "112.9496"
    },
    {
        "country": "ID",
        "name": "Sampang",
        "lat": "-7.56333",
        "lng": "109.19667"
    },
    {
        "country": "ID",
        "name": "Sampang",
        "lat": "-7.1872",
        "lng": "113.2394"
    },
    {
        "country": "ID",
        "name": "Sampalan",
        "lat": "-8.6736",
        "lng": "115.5586"
    },
    {
        "country": "ID",
        "name": "Samboja",
        "lat": "-1.03333",
        "lng": "117.03333"
    },
    {
        "country": "ID",
        "name": "Sumberbaba",
        "lat": "-1.8188",
        "lng": "136.7576"
    },
    {
        "country": "ID",
        "name": "Sambas",
        "lat": "1.33333",
        "lng": "109.25"
    },
    {
        "country": "ID",
        "name": "Samarinda",
        "lat": "-0.49167",
        "lng": "117.14583"
    },
    {
        "country": "ID",
        "name": "Tanjungsamalantakan",
        "lat": "-2.5818",
        "lng": "116.4099"
    },
    {
        "country": "ID",
        "name": "Salopa",
        "lat": "-7.5162",
        "lng": "108.2722"
    },
    {
        "country": "ID",
        "name": "Salinbatu",
        "lat": "2.94051",
        "lng": "117.34343"
    },
    {
        "country": "ID",
        "name": "Salem",
        "lat": "-7.1825",
        "lng": "108.8059"
    },
    {
        "country": "ID",
        "name": "Sale",
        "lat": "-6.8619",
        "lng": "111.6043"
    },
    {
        "country": "ID",
        "name": "Salawu",
        "lat": "-7.3755",
        "lng": "108.0325"
    },
    {
        "country": "ID",
        "name": "Salatiga",
        "lat": "-7.33194",
        "lng": "110.49278"
    },
    {
        "country": "ID",
        "name": "Salakan",
        "lat": "-1.3085",
        "lng": "123.2909"
    },
    {
        "country": "ID",
        "name": "Sakra",
        "lat": "-8.6831",
        "lng": "116.462"
    },
    {
        "country": "ID",
        "name": "Saketi",
        "lat": "-6.401",
        "lng": "105.992"
    },
    {
        "country": "ID",
        "name": "Sagaranten",
        "lat": "-7.2184",
        "lng": "106.8851"
    },
    {
        "country": "ID",
        "name": "Sadananya",
        "lat": "-7.2741",
        "lng": "108.3149"
    },
    {
        "country": "ID",
        "name": "Sabang Barat",
        "lat": "3.00722",
        "lng": "107.75361"
    },
    {
        "country": "ID",
        "name": "Ruteng",
        "lat": "-8.61139",
        "lng": "120.46444"
    },
    {
        "country": "ID",
        "name": "Rumbia",
        "lat": "-4.62767",
        "lng": "122.00472"
    },
    {
        "country": "ID",
        "name": "Rubaru",
        "lat": "-6.9581",
        "lng": "113.753"
    },
    {
        "country": "ID",
        "name": "Rokan",
        "lat": "0.5698",
        "lng": "100.4075"
    },
    {
        "country": "ID",
        "name": "Robatal",
        "lat": "-7.0009",
        "lng": "113.28"
    },
    {
        "country": "ID",
        "name": "Riung",
        "lat": "-8.4213",
        "lng": "121.0256"
    },
    {
        "country": "ID",
        "name": "Rengat",
        "lat": "-0.37546",
        "lng": "102.5481"
    },
    {
        "country": "ID",
        "name": "Rengasdengklok",
        "lat": "-6.15917",
        "lng": "107.29806"
    },
    {
        "country": "ID",
        "name": "Rembangan",
        "lat": "-6.7036",
        "lng": "111.3416"
    },
    {
        "country": "ID",
        "name": "Rawalo",
        "lat": "-7.53694",
        "lng": "109.17917"
    },
    {
        "country": "ID",
        "name": "Ratahan",
        "lat": "1.0549",
        "lng": "124.8012"
    },
    {
        "country": "ID",
        "name": "Rasiei",
        "lat": "-2.817",
        "lng": "134.5292"
    },
    {
        "country": "ID",
        "name": "Rappang",
        "lat": "-3.8445",
        "lng": "119.8173"
    },
    {
        "country": "ID",
        "name": "Rantepao",
        "lat": "-2.9701",
        "lng": "119.8978"
    },
    {
        "country": "ID",
        "name": "Rantaupulut",
        "lat": "-2.0093",
        "lng": "112.1956"
    },
    {
        "country": "ID",
        "name": "Rantaupangiang",
        "lat": "-2.4962",
        "lng": "102.2505"
    },
    {
        "country": "ID",
        "name": "Rantaupanjang",
        "lat": "-1.8446",
        "lng": "102.3081"
    },
    {
        "country": "ID",
        "name": "Rantau",
        "lat": "-2.9334",
        "lng": "115.1621"
    },
    {
        "country": "ID",
        "name": "Ransiki",
        "lat": "-1.5083",
        "lng": "134.1708"
    },
    {
        "country": "ID",
        "name": "Rangkasbitung",
        "lat": "-6.3591",
        "lng": "106.2494"
    },
    {
        "country": "ID",
        "name": "Randudongkal",
        "lat": "-7.0981",
        "lng": "109.3243"
    },
    {
        "country": "ID",
        "name": "Randuagung",
        "lat": "-8.072",
        "lng": "113.3032"
    },
    {
        "country": "ID",
        "name": "Rancah",
        "lat": "-7.1969",
        "lng": "108.5041"
    },
    {
        "country": "ID",
        "name": "Ranai",
        "lat": "3.9384",
        "lng": "108.38401"
    },
    {
        "country": "ID",
        "name": "Rambipuji",
        "lat": "-8.209",
        "lng": "113.6092"
    },
    {
        "country": "ID",
        "name": "Rajapolah",
        "lat": "-7.221",
        "lng": "108.1896"
    },
    {
        "country": "ID",
        "name": "Rajadesa",
        "lat": "-7.1836",
        "lng": "108.4341"
    },
    {
        "country": "ID",
        "name": "Rainis",
        "lat": "4.23282",
        "lng": "126.86129"
    },
    {
        "country": "ID",
        "name": "Raha",
        "lat": "-4.838",
        "lng": "122.7209"
    },
    {
        "country": "ID",
        "name": "Raba",
        "lat": "-8.4613",
        "lng": "118.747"
    },
    {
        "country": "ID",
        "name": "Putussibau",
        "lat": "0.83333",
        "lng": "112.93333"
    },
    {
        "country": "ID",
        "name": "Purworejo",
        "lat": "-7.71139",
        "lng": "110.01028"
    },
    {
        "country": "ID",
        "name": "Purwokerto",
        "lat": "-7.42139",
        "lng": "109.23444"
    },
    {
        "country": "ID",
        "name": "Purwoharjo",
        "lat": "-8.501",
        "lng": "114.222"
    },
    {
        "country": "ID",
        "name": "Purwodadi",
        "lat": "-7.0868",
        "lng": "110.9158"
    },
    {
        "country": "ID",
        "name": "Purwakarta",
        "lat": "-6.55694",
        "lng": "107.44333"
    },
    {
        "country": "ID",
        "name": "Puruk Cahu",
        "lat": "-0.58333",
        "lng": "114.58333"
    },
    {
        "country": "ID",
        "name": "Purbalingga",
        "lat": "-7.38806",
        "lng": "109.36389"
    },
    {
        "country": "ID",
        "name": "Pundong",
        "lat": "-7.95222",
        "lng": "110.34861"
    },
    {
        "country": "ID",
        "name": "Pule",
        "lat": "-8.1238",
        "lng": "111.5614"
    },
    {
        "country": "ID",
        "name": "Pulaupinang",
        "lat": "-3.89106",
        "lng": "103.52023"
    },
    {
        "country": "ID",
        "name": "Pulaukijang",
        "lat": "-0.6868",
        "lng": "103.1841"
    },
    {
        "country": "ID",
        "name": "Pulauberingin",
        "lat": "-4.49982",
        "lng": "103.63662"
    },
    {
        "country": "ID",
        "name": "Pulang Pisau",
        "lat": "-2.7671",
        "lng": "114.2406"
    },
    {
        "country": "ID",
        "name": "Puger",
        "lat": "-8.3702",
        "lng": "113.4752"
    },
    {
        "country": "ID",
        "name": "Probolinggo",
        "lat": "-7.7543",
        "lng": "113.2159"
    },
    {
        "country": "ID",
        "name": "Pringsewu",
        "lat": "-5.35822",
        "lng": "104.97441"
    },
    {
        "country": "ID",
        "name": "Prigen",
        "lat": "-7.68333",
        "lng": "112.61667"
    },
    {
        "country": "ID",
        "name": "Praya",
        "lat": "-8.70536",
        "lng": "116.27036"
    },
    {
        "country": "ID",
        "name": "Candi Prambanan",
        "lat": "-7.75",
        "lng": "110.49417"
    },
    {
        "country": "ID",
        "name": "Pota",
        "lat": "-8.3414",
        "lng": "120.7607"
    },
    {
        "country": "ID",
        "name": "Poso",
        "lat": "-1.3959",
        "lng": "120.7524"
    },
    {
        "country": "ID",
        "name": "Pontianak",
        "lat": "-0.03194",
        "lng": "109.325"
    },
    {
        "country": "ID",
        "name": "Ponorogo",
        "lat": "-7.8685",
        "lng": "111.462"
    },
    {
        "country": "ID",
        "name": "Polewali",
        "lat": "-3.4324",
        "lng": "119.3435"
    },
    {
        "country": "ID",
        "name": "Poigar",
        "lat": "1.02082",
        "lng": "124.30894"
    },
    {
        "country": "ID",
        "name": "Plumbon",
        "lat": "-6.705",
        "lng": "108.47278"
    },
    {
        "country": "ID",
        "name": "Plampang",
        "lat": "-8.7974",
        "lng": "117.7791"
    },
    {
        "country": "ID",
        "name": "Piru",
        "lat": "-3.0618",
        "lng": "128.1945"
    },
    {
        "country": "ID",
        "name": "Pinrang",
        "lat": "-3.78611",
        "lng": "119.65222"
    },
    {
        "country": "ID",
        "name": "Pineleng",
        "lat": "1.42422",
        "lng": "124.83865"
    },
    {
        "country": "ID",
        "name": "Pimpi",
        "lat": "0.8825",
        "lng": "123.5502"
    },
    {
        "country": "ID",
        "name": "Patimuan",
        "lat": "-7.59825",
        "lng": "108.75511"
    },
    {
        "country": "ID",
        "name": "Petarukan",
        "lat": "-6.88333",
        "lng": "109.43333"
    },
    {
        "country": "ID",
        "name": "Petakbehandang",
        "lat": "-2.0775",
        "lng": "113.4364"
    },
    {
        "country": "ID",
        "name": "Peranap",
        "lat": "-0.5449",
        "lng": "101.9837"
    },
    {
        "country": "ID",
        "name": "Prabumulih",
        "lat": "-3.43447",
        "lng": "104.23056"
    },
    {
        "country": "ID",
        "name": "Peninjawan",
        "lat": "-3.86945",
        "lng": "104.38233"
    },
    {
        "country": "ID",
        "name": "Pangaron",
        "lat": "-3.3101",
        "lng": "115.1961"
    },
    {
        "country": "ID",
        "name": "Pengandonan",
        "lat": "-4.05421",
        "lng": "103.87668"
    },
    {
        "country": "ID",
        "name": "Pendolo",
        "lat": "-2.0746",
        "lng": "120.6851"
    },
    {
        "country": "ID",
        "name": "Pembuanghulu",
        "lat": "-2.5094",
        "lng": "112.1515"
    },
    {
        "country": "ID",
        "name": "Pemangkat",
        "lat": "1.16667",
        "lng": "108.96667"
    },
    {
        "country": "ID",
        "name": "Pemalang",
        "lat": "-6.9",
        "lng": "109.36667"
    },
    {
        "country": "ID",
        "name": "Pelau",
        "lat": "-3.5204",
        "lng": "128.4681"
    },
    {
        "country": "ID",
        "name": "Pelaihari",
        "lat": "-3.7987",
        "lng": "114.7788"
    },
    {
        "country": "ID",
        "name": "Pelabuhanratu",
        "lat": "-6.9875",
        "lng": "106.55139"
    },
    {
        "country": "ID",
        "name": "Pelabuhan Dagang",
        "lat": "-1.1463",
        "lng": "103.08494"
    },
    {
        "country": "ID",
        "name": "Pekanbaru",
        "lat": "0.51667",
        "lng": "101.44167"
    },
    {
        "country": "ID",
        "name": "Pekalongan",
        "lat": "-6.8886",
        "lng": "109.6753"
    },
    {
        "country": "ID",
        "name": "Pedamaran",
        "lat": "-3.4884",
        "lng": "104.8376"
    },
    {
        "country": "ID",
        "name": "Pecangaan",
        "lat": "-6.6978",
        "lng": "110.7107"
    },
    {
        "country": "ID",
        "name": "Payunga",
        "lat": "0.5632",
        "lng": "122.9519"
    },
    {
        "country": "ID",
        "name": "Payakumbuh",
        "lat": "-0.2159",
        "lng": "100.6334"
    },
    {
        "country": "ID",
        "name": "Pemenang",
        "lat": "-8.40401",
        "lng": "116.10255"
    },
    {
        "country": "ID",
        "name": "Pauh",
        "lat": "-2.1386",
        "lng": "102.8186"
    },
    {
        "country": "ID",
        "name": "Pototano",
        "lat": "-8.4126",
        "lng": "117.4811"
    },
    {
        "country": "ID",
        "name": "Pati",
        "lat": "-6.7559",
        "lng": "111.038"
    },
    {
        "country": "ID",
        "name": "Pasuruan",
        "lat": "-7.6453",
        "lng": "112.9075"
    },
    {
        "country": "ID",
        "name": "Pasongsongan",
        "lat": "-6.889",
        "lng": "113.657"
    },
    {
        "country": "ID",
        "name": "Passo",
        "lat": "-3.63011",
        "lng": "128.25237"
    },
    {
        "country": "ID",
        "name": "Pasir Pengaraian",
        "lat": "0.86459",
        "lng": "100.29547"
    },
    {
        "country": "ID",
        "name": "Pasirian",
        "lat": "-8.2137",
        "lng": "113.1146"
    },
    {
        "country": "ID",
        "name": "Pasean",
        "lat": "-6.8932",
        "lng": "113.5805"
    },
    {
        "country": "ID",
        "name": "Passi",
        "lat": "0.7655",
        "lng": "124.2982"
    },
    {
        "country": "ID",
        "name": "Paseh",
        "lat": "-7.1026",
        "lng": "107.7641"
    },
    {
        "country": "ID",
        "name": "Pasar Wajo",
        "lat": "-5.4957",
        "lng": "122.8447"
    },
    {
        "country": "ID",
        "name": "Pasarkuok",
        "lat": "-1.4414",
        "lng": "100.622"
    },
    {
        "country": "ID",
        "name": "Pasarkemis",
        "lat": "-6.17028",
        "lng": "106.53028"
    },
    {
        "country": "ID",
        "name": "Pasarbaru",
        "lat": "-1.3051",
        "lng": "100.50995"
    },
    {
        "country": "ID",
        "name": "Parung",
        "lat": "-6.42139",
        "lng": "106.73306"
    },
    {
        "country": "ID",
        "name": "Parit Malintang",
        "lat": "-0.62046",
        "lng": "100.27885"
    },
    {
        "country": "ID",
        "name": "Paringin",
        "lat": "-2.3357",
        "lng": "115.4749"
    },
    {
        "country": "ID",
        "name": "Parigi",
        "lat": "-7.7015",
        "lng": "108.496"
    },
    {
        "country": "ID",
        "name": "Parigi",
        "lat": "-0.8156",
        "lng": "120.1768"
    },
    {
        "country": "ID",
        "name": "Pariaman",
        "lat": "-0.61898",
        "lng": "100.11997"
    },
    {
        "country": "ID",
        "name": "Parepare",
        "lat": "-4.0135",
        "lng": "119.6255"
    },
    {
        "country": "ID",
        "name": "Pare",
        "lat": "-7.7679",
        "lng": "112.198"
    },
    {
        "country": "ID",
        "name": "Panti",
        "lat": "0.3623",
        "lng": "100.0552"
    },
    {
        "country": "ID",
        "name": "Pantaihambawang",
        "lat": "-2.64659",
        "lng": "115.33087"
    },
    {
        "country": "ID",
        "name": "Pantai",
        "lat": "-3.1313",
        "lng": "116.1353"
    },
    {
        "country": "ID",
        "name": "Panji",
        "lat": "-7.72528",
        "lng": "114.09954"
    },
    {
        "country": "ID",
        "name": "Panjang",
        "lat": "-5.4759",
        "lng": "105.31982"
    },
    {
        "country": "ID",
        "name": "Panjalu",
        "lat": "-7.1313",
        "lng": "108.2661"
    },
    {
        "country": "ID",
        "name": "Pangkalpinang",
        "lat": "-2.12914",
        "lng": "106.11377"
    },
    {
        "country": "ID",
        "name": "Pangkalan Kasai",
        "lat": "-0.5892",
        "lng": "102.39"
    },
    {
        "country": "ID",
        "name": "Pangkalanbuun",
        "lat": "-2.6832",
        "lng": "111.6259"
    },
    {
        "country": "ID",
        "name": "Pangkalanbunut",
        "lat": "0.2981",
        "lng": "102.1461"
    },
    {
        "country": "ID",
        "name": "Pangkalan Balai",
        "lat": "-2.8812",
        "lng": "104.3943"
    },
    {
        "country": "ID",
        "name": "Pangkajene",
        "lat": "-4.8372",
        "lng": "119.5472"
    },
    {
        "country": "ID",
        "name": "Panggungrejo",
        "lat": "-8.2512",
        "lng": "112.2787"
    },
    {
        "country": "ID",
        "name": "Panggul",
        "lat": "-8.2492",
        "lng": "111.4554"
    },
    {
        "country": "ID",
        "name": "Pandeglang",
        "lat": "-6.3084",
        "lng": "106.1067"
    },
    {
        "country": "ID",
        "name": "Pandaan",
        "lat": "-7.65268",
        "lng": "112.6875"
    },
    {
        "country": "ID",
        "name": "Pandak",
        "lat": "-7.91306",
        "lng": "110.29361"
    },
    {
        "country": "ID",
        "name": "Pancur",
        "lat": "-6.7215",
        "lng": "111.4684"
    },
    {
        "country": "ID",
        "name": "Panawangan",
        "lat": "-7.118",
        "lng": "108.3816"
    },
    {
        "country": "ID",
        "name": "Panarukan",
        "lat": "-7.70181",
        "lng": "113.91844"
    },
    {
        "country": "ID",
        "name": "Panaragan",
        "lat": "-4.47784",
        "lng": "105.08142"
    },
    {
        "country": "ID",
        "name": "Penajam",
        "lat": "-1.24919",
        "lng": "116.76968"
    },
    {
        "country": "ID",
        "name": "Pamulang",
        "lat": "-6.34278",
        "lng": "106.73833"
    },
    {
        "country": "ID",
        "name": "Pompanua",
        "lat": "-4.2254",
        "lng": "120.1484"
    },
    {
        "country": "ID",
        "name": "Pamotan",
        "lat": "-6.7609",
        "lng": "111.4898"
    },
    {
        "country": "ID",
        "name": "Pameungpeuk",
        "lat": "-7.6413",
        "lng": "107.7332"
    },
    {
        "country": "ID",
        "name": "Pameungpeuk",
        "lat": "-7.01833",
        "lng": "107.60389"
    },
    {
        "country": "ID",
        "name": "Pamekasan",
        "lat": "-7.1568",
        "lng": "113.4746"
    },
    {
        "country": "ID",
        "name": "Pamarican",
        "lat": "-7.4576",
        "lng": "108.524"
    },
    {
        "country": "ID",
        "name": "Pamanukan",
        "lat": "-6.28417",
        "lng": "107.81056"
    },
    {
        "country": "ID",
        "name": "Palu",
        "lat": "-0.90833",
        "lng": "119.87083"
    },
    {
        "country": "ID",
        "name": "Palopo",
        "lat": "-2.9925",
        "lng": "120.19694"
    },
    {
        "country": "ID",
        "name": "Palimanan",
        "lat": "-6.70694",
        "lng": "108.42417"
    },
    {
        "country": "ID",
        "name": "Palembaian",
        "lat": "-0.18333",
        "lng": "100.23333"
    },
    {
        "country": "ID",
        "name": "Palembang",
        "lat": "-2.91673",
        "lng": "104.7458"
    },
    {
        "country": "ID",
        "name": "Palattae",
        "lat": "-4.9711",
        "lng": "120.1127"
    },
    {
        "country": "ID",
        "name": "Palangkaraya",
        "lat": "-2.20833",
        "lng": "113.91667"
    },
    {
        "country": "ID",
        "name": "Palakka",
        "lat": "-4.5313",
        "lng": "120.2892"
    },
    {
        "country": "ID",
        "name": "Pakuan Agung",
        "lat": "-4.66481",
        "lng": "104.96293"
    },
    {
        "country": "ID",
        "name": "Kuaro",
        "lat": "-1.8198",
        "lng": "116.0797"
    },
    {
        "country": "ID",
        "name": "Pakong",
        "lat": "-7.0311",
        "lng": "113.5496"
    },
    {
        "country": "ID",
        "name": "Pakisaji",
        "lat": "-8.0665",
        "lng": "112.5981"
    },
    {
        "country": "ID",
        "name": "Pakenjeng",
        "lat": "-7.41181",
        "lng": "107.69049"
    },
    {
        "country": "ID",
        "name": "Pakel",
        "lat": "-8.1543",
        "lng": "111.8264"
    },
    {
        "country": "ID",
        "name": "Painan",
        "lat": "-1.35172",
        "lng": "100.57383"
    },
    {
        "country": "ID",
        "name": "Pagerageung",
        "lat": "-7.1124",
        "lng": "108.1668"
    },
    {
        "country": "ID",
        "name": "Pagelaran",
        "lat": "-6.433",
        "lng": "105.8572"
    },
    {
        "country": "ID",
        "name": "Pagatan",
        "lat": "-3.6075",
        "lng": "115.9381"
    },
    {
        "country": "ID",
        "name": "Pagatan",
        "lat": "-3.1701",
        "lng": "113.2881"
    },
    {
        "country": "ID",
        "name": "Pagat",
        "lat": "-2.6243",
        "lng": "115.4338"
    },
    {
        "country": "ID",
        "name": "Pagar Alam",
        "lat": "-4.02506",
        "lng": "103.24694"
    },
    {
        "country": "ID",
        "name": "Pagak",
        "lat": "-8.2258",
        "lng": "112.5276"
    },
    {
        "country": "ID",
        "name": "Paga",
        "lat": "-8.7766",
        "lng": "122.0455"
    },
    {
        "country": "ID",
        "name": "Pademawu",
        "lat": "-7.1862",
        "lng": "113.52571"
    },
    {
        "country": "ID",
        "name": "Padarincang",
        "lat": "-6.214",
        "lng": "105.9512"
    },
    {
        "country": "ID",
        "name": "Padangulaktanding",
        "lat": "-3.3749",
        "lng": "102.7996"
    },
    {
        "country": "ID",
        "name": "Padangtikar",
        "lat": "-0.6913",
        "lng": "109.26327"
    },
    {
        "country": "ID",
        "name": "Padangguci",
        "lat": "-4.58891",
        "lng": "103.14425"
    },
    {
        "country": "ID",
        "name": "Padangcermin",
        "lat": "-5.60075",
        "lng": "105.1387"
    },
    {
        "country": "ID",
        "name": "Padangbatung",
        "lat": "-2.838",
        "lng": "115.2912"
    },
    {
        "country": "ID",
        "name": "Padang",
        "lat": "-0.94924",
        "lng": "100.35427"
    },
    {
        "country": "ID",
        "name": "Padaherang",
        "lat": "-7.5499",
        "lng": "108.6956"
    },
    {
        "country": "ID",
        "name": "Pacitan",
        "lat": "-8.19389",
        "lng": "111.10333"
    },
    {
        "country": "ID",
        "name": "Paciran",
        "lat": "-6.87666",
        "lng": "112.37606"
    },
    {
        "country": "ID",
        "name": "Pabuaran",
        "lat": "-6.2043",
        "lng": "106.0711"
    },
    {
        "country": "ID",
        "name": "Oransbari",
        "lat": "-1.3442",
        "lng": "134.2587"
    },
    {
        "country": "ID",
        "name": "Ondong Siau",
        "lat": "2.7473",
        "lng": "125.3611"
    },
    {
        "country": "ID",
        "name": "Obano",
        "lat": "-3.9259",
        "lng": "136.2259"
    },
    {
        "country": "ID",
        "name": "Nyalindung",
        "lat": "-7.0426",
        "lng": "106.9442"
    },
    {
        "country": "ID",
        "name": "Noemuti",
        "lat": "-9.568",
        "lng": "124.495"
    },
    {
        "country": "ID",
        "name": "Nipah Panjang",
        "lat": "-1.07518",
        "lng": "104.19438"
    },
    {
        "country": "ID",
        "name": "Nikiniki",
        "lat": "-9.81361",
        "lng": "124.47649"
    },
    {
        "country": "ID",
        "name": "Ngunut",
        "lat": "-8.1058",
        "lng": "112.01591"
    },
    {
        "country": "ID",
        "name": "Ngrayun",
        "lat": "-8.0723",
        "lng": "111.4489"
    },
    {
        "country": "ID",
        "name": "Ngoro",
        "lat": "-7.68386",
        "lng": "112.25804"
    },
    {
        "country": "ID",
        "name": "Ngawi",
        "lat": "-7.4038",
        "lng": "111.4461"
    },
    {
        "country": "ID",
        "name": "Ngawen",
        "lat": "-7.0032",
        "lng": "111.3129"
    },
    {
        "country": "ID",
        "name": "Ngantru",
        "lat": "-8.0101",
        "lng": "111.9254"
    },
    {
        "country": "ID",
        "name": "Nganjuk",
        "lat": "-7.6051",
        "lng": "111.9035"
    },
    {
        "country": "ID",
        "name": "Ngabang",
        "lat": "0.38333",
        "lng": "109.95"
    },
    {
        "country": "ID",
        "name": "Negararatu",
        "lat": "-4.65603",
        "lng": "104.73576"
    },
    {
        "country": "ID",
        "name": "Negara",
        "lat": "-8.35694",
        "lng": "114.61694"
    },
    {
        "country": "ID",
        "name": "Natar",
        "lat": "-5.30897",
        "lng": "105.19251"
    },
    {
        "country": "ID",
        "name": "Narmada",
        "lat": "-8.5912",
        "lng": "116.202"
    },
    {
        "country": "ID",
        "name": "Naringgul",
        "lat": "-7.3344",
        "lng": "107.3282"
    },
    {
        "country": "ID",
        "name": "Nangaroro",
        "lat": "-8.7872",
        "lng": "121.3923"
    },
    {
        "country": "ID",
        "name": "Nangah Pinoh",
        "lat": "-0.33333",
        "lng": "111.73333"
    },
    {
        "country": "ID",
        "name": "Nanga Bulik",
        "lat": "-2.1624",
        "lng": "111.4885"
    },
    {
        "country": "ID",
        "name": "Namrole",
        "lat": "-3.84548",
        "lng": "126.72619"
    },
    {
        "country": "ID",
        "name": "Namlea",
        "lat": "-3.26194",
        "lng": "127.09292"
    },
    {
        "country": "ID",
        "name": "Nabire",
        "lat": "-3.35989",
        "lng": "135.50074"
    },
    {
        "country": "ID",
        "name": "Muraloka",
        "lat": "-8.77213",
        "lng": "116.87932"
    },
    {
        "country": "ID",
        "name": "Muntok",
        "lat": "-2.06719",
        "lng": "105.16228"
    },
    {
        "country": "ID",
        "name": "Muntilan",
        "lat": "-7.58111",
        "lng": "110.29278"
    },
    {
        "country": "ID",
        "name": "Munjungan",
        "lat": "-8.3031",
        "lng": "111.5786"
    },
    {
        "country": "ID",
        "name": "Munduk",
        "lat": "-8.26866",
        "lng": "115.07947"
    },
    {
        "country": "ID",
        "name": "Muncar",
        "lat": "-8.43333",
        "lng": "114.33333"
    },
    {
        "country": "ID",
        "name": "Muncang",
        "lat": "-6.5443",
        "lng": "106.2911"
    },
    {
        "country": "ID",
        "name": "Mulia",
        "lat": "-3.71472",
        "lng": "137.98528"
    },
    {
        "country": "ID",
        "name": "Mukomuko",
        "lat": "-2.5689",
        "lng": "101.1118"
    },
    {
        "country": "ID",
        "name": "Mujur",
        "lat": "-8.7617",
        "lng": "116.3548"
    },
    {
        "country": "ID",
        "name": "Muarauya",
        "lat": "-1.8875",
        "lng": "115.595"
    },
    {
        "country": "ID",
        "name": "Muara Teweh",
        "lat": "-0.95",
        "lng": "114.88333"
    },
    {
        "country": "ID",
        "name": "Muara Tembesi",
        "lat": "-1.7109",
        "lng": "103.1182"
    },
    {
        "country": "ID",
        "name": "Muara Tebo",
        "lat": "-1.476",
        "lng": "102.4435"
    },
    {
        "country": "ID",
        "name": "Muarasiau",
        "lat": "-2.273",
        "lng": "102.0998"
    },
    {
        "country": "ID",
        "name": "Muara Sabak",
        "lat": "-1.13612",
        "lng": "103.84987"
    },
    {
        "country": "ID",
        "name": "Muararupit",
        "lat": "-2.7236",
        "lng": "102.9108"
    },
    {
        "country": "ID",
        "name": "Muarapinang",
        "lat": "-3.8503",
        "lng": "103.0533"
    },
    {
        "country": "ID",
        "name": "Muaralimun",
        "lat": "-2.3967",
        "lng": "102.6389"
    },
    {
        "country": "ID",
        "name": "Muaralembu",
        "lat": "-0.3808",
        "lng": "101.3395"
    },
    {
        "country": "ID",
        "name": "Muaralakitan",
        "lat": "-2.8594",
        "lng": "103.3039"
    },
    {
        "country": "ID",
        "name": "Muaralabuh",
        "lat": "-1.4621",
        "lng": "101.023"
    },
    {
        "country": "ID",
        "name": "Muarakuang",
        "lat": "-3.66648",
        "lng": "104.56717"
    },
    {
        "country": "ID",
        "name": "Muarakomam",
        "lat": "-1.6785",
        "lng": "115.8129"
    },
    {
        "country": "ID",
        "name": "Muara Enim",
        "lat": "-3.6486",
        "lng": "103.771"
    },
    {
        "country": "ID",
        "name": "Muara Dua",
        "lat": "-4.53178",
        "lng": "104.07397"
    },
    {
        "country": "ID",
        "name": "Muara Bungo",
        "lat": "-1.49018",
        "lng": "102.1149"
    },
    {
        "country": "ID",
        "name": "Muara Bulian",
        "lat": "-1.71327",
        "lng": "103.25902"
    },
    {
        "country": "ID",
        "name": "Muara Beliti",
        "lat": "-3.2486",
        "lng": "103.0335"
    },
    {
        "country": "ID",
        "name": "Muarabadak",
        "lat": "-0.35085",
        "lng": "117.43523"
    },
    {
        "country": "ID",
        "name": "Muaro",
        "lat": "-0.66387",
        "lng": "100.95818"
    },
    {
        "country": "ID",
        "name": "Mranggen",
        "lat": "-7.0268",
        "lng": "110.5158"
    },
    {
        "country": "ID",
        "name": "Moro",
        "lat": "0.75417",
        "lng": "103.70833"
    },
    {
        "country": "ID",
        "name": "Munse",
        "lat": "-4.0967",
        "lng": "123.2519"
    },
    {
        "country": "ID",
        "name": "Molobulahe",
        "lat": "0.6326",
        "lng": "122.5748"
    },
    {
        "country": "ID",
        "name": "Molibagu",
        "lat": "0.3862",
        "lng": "123.9824"
    },
    {
        "country": "ID",
        "name": "Mojosari",
        "lat": "-7.5194",
        "lng": "112.5597"
    },
    {
        "country": "ID",
        "name": "Mojokerto",
        "lat": "-7.4664",
        "lng": "112.4338"
    },
    {
        "country": "ID",
        "name": "Mojoagung",
        "lat": "-7.56667",
        "lng": "112.35"
    },
    {
        "country": "ID",
        "name": "Mlonggo",
        "lat": "-6.53333",
        "lng": "110.7"
    },
    {
        "country": "ID",
        "name": "Metro",
        "lat": "-5.11306",
        "lng": "105.30667"
    },
    {
        "country": "ID",
        "name": "Mertoyudan",
        "lat": "-7.52",
        "lng": "110.22639"
    },
    {
        "country": "ID",
        "name": "Mersam",
        "lat": "-1.69823",
        "lng": "102.9976"
    },
    {
        "country": "ID",
        "name": "Merakurak",
        "lat": "-6.8783",
        "lng": "111.9863"
    },
    {
        "country": "ID",
        "name": "Mensalong",
        "lat": "3.75883",
        "lng": "116.74532"
    },
    {
        "country": "ID",
        "name": "Menjalin",
        "lat": "0.46935",
        "lng": "109.33828"
    },
    {
        "country": "ID",
        "name": "Mengkalip",
        "lat": "-2.1488",
        "lng": "114.8819"
    },
    {
        "country": "ID",
        "name": "Menggala",
        "lat": "-4.47131",
        "lng": "105.25214"
    },
    {
        "country": "ID",
        "name": "Menes",
        "lat": "-6.37553",
        "lng": "105.91872"
    },
    {
        "country": "ID",
        "name": "Mempawah",
        "lat": "0.37102",
        "lng": "108.97013"
    },
    {
        "country": "ID",
        "name": "Meliau",
        "lat": "-0.12533",
        "lng": "110.28962"
    },
    {
        "country": "ID",
        "name": "Melati",
        "lat": "-7.73333",
        "lng": "110.36667"
    },
    {
        "country": "ID",
        "name": "Mega",
        "lat": "-0.66392",
        "lng": "131.90487"
    },
    {
        "country": "ID",
        "name": "Borong",
        "lat": "-8.8125",
        "lng": "120.60972"
    },
    {
        "country": "ID",
        "name": "Mayang",
        "lat": "-8.1762",
        "lng": "113.7958"
    },
    {
        "country": "ID",
        "name": "Mauponggo",
        "lat": "-8.8892",
        "lng": "121.2112"
    },
    {
        "country": "ID",
        "name": "Maumere",
        "lat": "-8.6199",
        "lng": "122.2111"
    },
    {
        "country": "ID",
        "name": "Matur",
        "lat": "-0.27877",
        "lng": "100.28802"
    },
    {
        "country": "ID",
        "name": "Mataram",
        "lat": "-8.58333",
        "lng": "116.11667"
    },
    {
        "country": "ID",
        "name": "Masmambang",
        "lat": "-4.16418",
        "lng": "102.70045"
    },
    {
        "country": "ID",
        "name": "Masbagik",
        "lat": "-8.622",
        "lng": "116.4773"
    },
    {
        "country": "ID",
        "name": "Masat",
        "lat": "-4.38057",
        "lng": "102.95437"
    },
    {
        "country": "ID",
        "name": "Masamba",
        "lat": "-2.5537",
        "lng": "120.3279"
    },
    {
        "country": "ID",
        "name": "Martapura",
        "lat": "-4.31885",
        "lng": "104.34715"
    },
    {
        "country": "ID",
        "name": "Martapura",
        "lat": "-3.4109",
        "lng": "114.8642"
    },
    {
        "country": "ID",
        "name": "Maros",
        "lat": "-5.006",
        "lng": "119.5727"
    },
    {
        "country": "ID",
        "name": "Buakayu",
        "lat": "-3.1995",
        "lng": "119.7232"
    },
    {
        "country": "ID",
        "name": "Marisa",
        "lat": "0.4655",
        "lng": "121.9386"
    },
    {
        "country": "ID",
        "name": "Maria",
        "lat": "-8.52388",
        "lng": "118.84294"
    },
    {
        "country": "ID",
        "name": "Margasari",
        "lat": "-7.1",
        "lng": "109.01667"
    },
    {
        "country": "ID",
        "name": "Margahayukencana",
        "lat": "-6.97083",
        "lng": "107.5675"
    },
    {
        "country": "ID",
        "name": "Marabahan",
        "lat": "-3.0136",
        "lng": "114.7687"
    },
    {
        "country": "ID",
        "name": "Manonjaya",
        "lat": "-7.3509",
        "lng": "108.3087"
    },
    {
        "country": "ID",
        "name": "Manokwari",
        "lat": "-0.86291",
        "lng": "134.06402"
    },
    {
        "country": "ID",
        "name": "Manna",
        "lat": "-4.4651",
        "lng": "102.90386"
    },
    {
        "country": "ID",
        "name": "Manismata",
        "lat": "-2.46667",
        "lng": "111.03333"
    },
    {
        "country": "ID",
        "name": "Maninjau",
        "lat": "-0.30059",
        "lng": "100.22671"
    },
    {
        "country": "ID",
        "name": "Mangkutana",
        "lat": "-2.4894",
        "lng": "120.812"
    },
    {
        "country": "ID",
        "name": "Manggar",
        "lat": "-2.88333",
        "lng": "108.26667"
    },
    {
        "country": "ID",
        "name": "Mangarang",
        "lat": "3.81284",
        "lng": "126.75135"
    },
    {
        "country": "ID",
        "name": "Mangaran",
        "lat": "-7.6668",
        "lng": "114.0406"
    },
    {
        "country": "ID",
        "name": "Manganitu",
        "lat": "3.57622",
        "lng": "125.51849"
    },
    {
        "country": "ID",
        "name": "Mandor",
        "lat": "0.32243",
        "lng": "109.33795"
    },
    {
        "country": "ID",
        "name": "Manding",
        "lat": "-6.953",
        "lng": "113.8717"
    },
    {
        "country": "ID",
        "name": "Mandalawangi",
        "lat": "-6.3102",
        "lng": "105.9886"
    },
    {
        "country": "ID",
        "name": "Mendaha",
        "lat": "-1.0163",
        "lng": "103.59331"
    },
    {
        "country": "ID",
        "name": "Khairiahmandah",
        "lat": "0.02107",
        "lng": "103.49757"
    },
    {
        "country": "ID",
        "name": "Manalu",
        "lat": "3.51225",
        "lng": "125.62302"
    },
    {
        "country": "ID",
        "name": "Manado",
        "lat": "1.48218",
        "lng": "124.84892"
    },
    {
        "country": "ID",
        "name": "Mamuju",
        "lat": "-2.68056",
        "lng": "118.88611"
    },
    {
        "country": "ID",
        "name": "Mambi",
        "lat": "-2.9505",
        "lng": "119.1747"
    },
    {
        "country": "ID",
        "name": "Mamasa",
        "lat": "-2.942",
        "lng": "119.3776"
    },
    {
        "country": "ID",
        "name": "Malili",
        "lat": "-2.6351",
        "lng": "121.0948"
    },
    {
        "country": "ID",
        "name": "Malangbong",
        "lat": "-7.0603",
        "lng": "108.0876"
    },
    {
        "country": "ID",
        "name": "Malang",
        "lat": "-7.9797",
        "lng": "112.6304"
    },
    {
        "country": "ID",
        "name": "Makbon",
        "lat": "-0.74753",
        "lng": "131.53875"
    },
    {
        "country": "ID",
        "name": "Makale",
        "lat": "-3.1019",
        "lng": "119.8539"
    },
    {
        "country": "ID",
        "name": "Majene",
        "lat": "-3.5403",
        "lng": "118.9707"
    },
    {
        "country": "ID",
        "name": "Majenang",
        "lat": "-7.2975",
        "lng": "108.7642"
    },
    {
        "country": "ID",
        "name": "Majalengka",
        "lat": "-6.83611",
        "lng": "108.22778"
    },
    {
        "country": "ID",
        "name": "Magetan",
        "lat": "-7.65667",
        "lng": "111.33139"
    },
    {
        "country": "ID",
        "name": "Magelang",
        "lat": "-7.47056",
        "lng": "110.21778"
    },
    {
        "country": "ID",
        "name": "Mafa",
        "lat": "0.04705",
        "lng": "127.89037"
    },
    {
        "country": "ID",
        "name": "Maesan",
        "lat": "-8.0233",
        "lng": "113.7779"
    },
    {
        "country": "ID",
        "name": "Madiun",
        "lat": "-7.6298",
        "lng": "111.5239"
    },
    {
        "country": "ID",
        "name": "Maba",
        "lat": "0.7007",
        "lng": "128.29197"
    },
    {
        "country": "ID",
        "name": "Luwuk",
        "lat": "-0.9516",
        "lng": "122.7875"
    },
    {
        "country": "ID",
        "name": "Luragung",
        "lat": "-7.0172",
        "lng": "108.6381"
    },
    {
        "country": "ID",
        "name": "Lumajang",
        "lat": "-8.1335",
        "lng": "113.2248"
    },
    {
        "country": "ID",
        "name": "Lubuk Sikaping",
        "lat": "0.14411",
        "lng": "100.1657"
    },
    {
        "country": "ID",
        "name": "Lubuklinggau",
        "lat": "-3.2945",
        "lng": "102.8614"
    },
    {
        "country": "ID",
        "name": "Lubukjambi",
        "lat": "-0.6517",
        "lng": "101.4681"
    },
    {
        "country": "ID",
        "name": "Lubukgadang",
        "lat": "-1.5251",
        "lng": "101.2734"
    },
    {
        "country": "ID",
        "name": "Lubuk Basung",
        "lat": "-0.32545",
        "lng": "100.06462"
    },
    {
        "country": "ID",
        "name": "Lubukbergalung",
        "lat": "-0.96076",
        "lng": "100.40011"
    },
    {
        "country": "ID",
        "name": "Lubukalung",
        "lat": "-0.68321",
        "lng": "100.31856"
    },
    {
        "country": "ID",
        "name": "Long Pujungan",
        "lat": "2.58769",
        "lng": "115.79478"
    },
    {
        "country": "ID",
        "name": "Longnawang",
        "lat": "1.78931",
        "lng": "114.9013"
    },
    {
        "country": "ID",
        "name": "Longkali",
        "lat": "-1.5218",
        "lng": "116.3205"
    },
    {
        "country": "ID",
        "name": "Longikis",
        "lat": "-1.5834",
        "lng": "116.2061"
    },
    {
        "country": "ID",
        "name": "Labuan Lombok",
        "lat": "-8.5",
        "lng": "116.66667"
    },
    {
        "country": "ID",
        "name": "Lolak",
        "lat": "0.8755",
        "lng": "124.0098"
    },
    {
        "country": "ID",
        "name": "Lodoyo",
        "lat": "-8.1613",
        "lng": "112.2173"
    },
    {
        "country": "ID",
        "name": "Loakulu",
        "lat": "-0.51489",
        "lng": "117.01567"
    },
    {
        "country": "ID",
        "name": "Loa Janan",
        "lat": "-0.58295",
        "lng": "117.09503"
    },
    {
        "country": "ID",
        "name": "Liwa",
        "lat": "-5.03554",
        "lng": "104.07595"
    },
    {
        "country": "ID",
        "name": "Lirung",
        "lat": "3.94481",
        "lng": "126.67265"
    },
    {
        "country": "ID",
        "name": "Limboto",
        "lat": "0.627",
        "lng": "122.9778"
    },
    {
        "country": "ID",
        "name": "Likupang",
        "lat": "1.6722",
        "lng": "125.06104"
    },
    {
        "country": "ID",
        "name": "Lewoleba",
        "lat": "-8.3723",
        "lng": "123.418"
    },
    {
        "country": "ID",
        "name": "Lewolaga",
        "lat": "-8.4196",
        "lng": "122.8094"
    },
    {
        "country": "ID",
        "name": "Leuwidamar",
        "lat": "-6.5125",
        "lng": "106.1934"
    },
    {
        "country": "ID",
        "name": "Letung",
        "lat": "2.98861",
        "lng": "105.70694"
    },
    {
        "country": "ID",
        "name": "Lengkong",
        "lat": "-7.1315",
        "lng": "106.6926"
    },
    {
        "country": "ID",
        "name": "Lenangguar",
        "lat": "-8.7356",
        "lng": "117.3653"
    },
    {
        "country": "ID",
        "name": "Lemito",
        "lat": "0.5424",
        "lng": "121.5713"
    },
    {
        "country": "ID",
        "name": "Lembar",
        "lat": "-8.7264",
        "lng": "116.0744"
    },
    {
        "country": "ID",
        "name": "Lembang",
        "lat": "-6.81167",
        "lng": "107.6175"
    },
    {
        "country": "ID",
        "name": "Lemahputih",
        "lat": "-7.0099",
        "lng": "108.1698"
    },
    {
        "country": "ID",
        "name": "Lelogama",
        "lat": "-9.7114",
        "lng": "123.954"
    },
    {
        "country": "ID",
        "name": "Leles",
        "lat": "-7.1099",
        "lng": "107.8986"
    },
    {
        "country": "ID",
        "name": "Lela",
        "lat": "-8.7289",
        "lng": "122.1726"
    },
    {
        "country": "ID",
        "name": "Leksula",
        "lat": "-3.7731",
        "lng": "126.538"
    },
    {
        "country": "ID",
        "name": "Lekebai",
        "lat": "-8.712",
        "lng": "122.0762"
    },
    {
        "country": "ID",
        "name": "Ledokombo",
        "lat": "-8.1346",
        "lng": "113.8752"
    },
    {
        "country": "ID",
        "name": "Lebakwangi",
        "lat": "-7.0173",
        "lng": "108.6016"
    },
    {
        "country": "ID",
        "name": "Lebaksiu",
        "lat": "-7.0496",
        "lng": "109.1441"
    },
    {
        "country": "ID",
        "name": "Lawang",
        "lat": "-7.8353",
        "lng": "112.6947"
    },
    {
        "country": "ID",
        "name": "Lasem",
        "lat": "-6.6922",
        "lng": "111.4527"
    },
    {
        "country": "ID",
        "name": "Lasehao",
        "lat": "-5.0068",
        "lng": "122.4943"
    },
    {
        "country": "ID",
        "name": "Larompong",
        "lat": "-3.515",
        "lng": "120.3704"
    },
    {
        "country": "ID",
        "name": "Larantuka",
        "lat": "-8.3468",
        "lng": "122.9771"
    },
    {
        "country": "ID",
        "name": "Lampihung",
        "lat": "-2.3809",
        "lng": "115.5277"
    },
    {
        "country": "ID",
        "name": "Langgur",
        "lat": "-5.66689",
        "lng": "132.73762"
    },
    {
        "country": "ID",
        "name": "Langnga",
        "lat": "-3.8459",
        "lng": "119.5222"
    },
    {
        "country": "ID",
        "name": "Langara",
        "lat": "-4.0248",
        "lng": "122.9906"
    },
    {
        "country": "ID",
        "name": "Lamongan",
        "lat": "-7.11667",
        "lng": "112.41667"
    },
    {
        "country": "ID",
        "name": "Laiwui",
        "lat": "-1.35177",
        "lng": "127.66929"
    },
    {
        "country": "ID",
        "name": "Lais",
        "lat": "-3.5294",
        "lng": "102.0497"
    },
    {
        "country": "ID",
        "name": "Laikit, Laikit II (Dimembe)",
        "lat": "1.48833",
        "lng": "124.97444"
    },
    {
        "country": "ID",
        "name": "Lahat",
        "lat": "-3.78514",
        "lng": "103.54279"
    },
    {
        "country": "ID",
        "name": "Labuhanmaringgai",
        "lat": "-5.35074",
        "lng": "105.80993"
    },
    {
        "country": "ID",
        "name": "Labuan Bajo",
        "lat": "-8.4964",
        "lng": "119.8877"
    },
    {
        "country": "ID",
        "name": "Labuan",
        "lat": "-6.3784",
        "lng": "105.83"
    },
    {
        "country": "ID",
        "name": "Labuha",
        "lat": "-0.62546",
        "lng": "127.47808"
    },
    {
        "country": "ID",
        "name": "Kwantisore",
        "lat": "-3.2651",
        "lng": "134.9065"
    },
    {
        "country": "ID",
        "name": "Kutoarjo",
        "lat": "-7.71694",
        "lng": "109.91278"
    },
    {
        "country": "ID",
        "name": "Kuta",
        "lat": "-8.72332",
        "lng": "115.17234"
    },