[
    {
        "country": "JP",
        "name": "Shingu",
        "lat": "33.73333",
        "lng": "135.98333"
    },
    {
        "country": "JP",
        "name": "Atsugi",
        "lat": "35.44272",
        "lng": "139.36931"
    },
    {
        "country": "JP",
        "name": "Akashi",
        "lat": "34.65524",
        "lng": "135.00687"
    },
    {
        "country": "JP",
        "name": "Zushi",
        "lat": "35.29483",
        "lng": "139.57812"
    },
    {
        "country": "JP",
        "name": "Zentsujich\u00f3",
        "lat": "34.22699",
        "lng": "133.77791"
    },
    {
        "country": "JP",
        "name": "Zama",
        "lat": "35.4879",
        "lng": "139.39101"
    },
    {
        "country": "JP",
        "name": "Yuza",
        "lat": "39.01573",
        "lng": "139.92909"
    },
    {
        "country": "JP",
        "name": "Gero",
        "lat": "35.8",
        "lng": "137.23333"
    },
    {
        "country": "JP",
        "name": "Yukuhashi",
        "lat": "33.72873",
        "lng": "130.983"
    },
    {
        "country": "JP",
        "name": "Yuki",
        "lat": "36.3",
        "lng": "139.88333"
    },
    {
        "country": "JP",
        "name": "Yugawara",
        "lat": "35.15",
        "lng": "139.06667"
    },
    {
        "country": "JP",
        "name": "Yudomari",
        "lat": "30.2347",
        "lng": "130.47942"
    },
    {
        "country": "JP",
        "name": "Yoshino-cho",
        "lat": "34.39611",
        "lng": "135.85768"
    },
    {
        "country": "JP",
        "name": "Yoshikawa",
        "lat": "35.89232",
        "lng": "139.84184"
    },
    {
        "country": "JP",
        "name": "Yoshii",
        "lat": "36.25",
        "lng": "138.98333"
    },
    {
        "country": "JP",
        "name": "Yoshida-kasugacho",
        "lat": "37.68333",
        "lng": "138.88333"
    },
    {
        "country": "JP",
        "name": "Yorii",
        "lat": "36.11567",
        "lng": "139.19429"
    },
    {
        "country": "JP",
        "name": "Yono",
        "lat": "35.88333",
        "lng": "139.63333"
    },
    {
        "country": "JP",
        "name": "Yonakuni",
        "lat": "24.46667",
        "lng": "123"
    },
    {
        "country": "JP",
        "name": "Yonago",
        "lat": "35.43333",
        "lng": "133.33333"
    },
    {
        "country": "JP",
        "name": "Yokosuka",
        "lat": "35.28361",
        "lng": "139.66722"
    },
    {
        "country": "JP",
        "name": "Yokohama",
        "lat": "35.43333",
        "lng": "139.65"
    },
    {
        "country": "JP",
        "name": "Yokkaichi",
        "lat": "34.96667",
        "lng": "136.61667"
    },
    {
        "country": "JP",
        "name": "Youkaichi",
        "lat": "35.11626",
        "lng": "136.19768"
    },
    {
        "country": "JP",
        "name": "Yawata",
        "lat": "34.87009",
        "lng": "135.7027"
    },
    {
        "country": "JP",
        "name": "Honmachi",
        "lat": "32.50439",
        "lng": "130.59952"
    },
    {
        "country": "JP",
        "name": "Yatsuomachi-higashikumisaka",
        "lat": "36.56667",
        "lng": "137.13333"
    },
    {
        "country": "JP",
        "name": "Yasugicho",
        "lat": "35.42146",
        "lng": "133.24224"
    },
    {
        "country": "JP",
        "name": "Yashiro",
        "lat": "34.91667",
        "lng": "134.96667"
    },
    {
        "country": "JP",
        "name": "Yashio",
        "lat": "35.82255",
        "lng": "139.83905"
    },
    {
        "country": "JP",
        "name": "Yao",
        "lat": "34.61667",
        "lng": "135.6"
    },
    {
        "country": "JP",
        "name": "Yanai",
        "lat": "33.96667",
        "lng": "132.11667"
    },
    {
        "country": "JP",
        "name": "Yanagawa",
        "lat": "33.16667",
        "lng": "130.4"
    },
    {
        "country": "JP",
        "name": "Yamato-Takada",
        "lat": "34.51667",
        "lng": "135.75"
    },
    {
        "country": "JP",
        "name": "Yamazakicho-nakabirose",
        "lat": "35",
        "lng": "134.55"
    },
    {
        "country": "JP",
        "name": "Yamakita",
        "lat": "35.36344",
        "lng": "139.07975"
    },
    {
        "country": "JP",
        "name": "Yamaguchi",
        "lat": "34.18333",
        "lng": "131.46667"
    },
    {
        "country": "JP",
        "name": "Yamaga",
        "lat": "33.01667",
        "lng": "130.68911"
    },
    {
        "country": "JP",
        "name": "Yaizu",
        "lat": "34.86877",
        "lng": "138.31952"
    },
    {
        "country": "JP",
        "name": "Yaita",
        "lat": "36.8",
        "lng": "139.93333"
    },
    {
        "country": "JP",
        "name": "Yabu",
        "lat": "35.40304",
        "lng": "134.77118"
    },
    {
        "country": "JP",
        "name": "Wakimachi",
        "lat": "34.06667",
        "lng": "134.15"
    },
    {
        "country": "JP",
        "name": "Wajima",
        "lat": "37.40458",
        "lng": "136.89912"
    },
    {
        "country": "JP",
        "name": "Utsunomiya",
        "lat": "36.56667",
        "lng": "139.88333"
    },
    {
        "country": "JP",
        "name": "Uto",
        "lat": "32.68333",
        "lng": "130.66667"
    },
    {
        "country": "JP",
        "name": "Usuki",
        "lat": "33.12342",
        "lng": "131.80401"
    },
    {
        "country": "JP",
        "name": "Ushibukamachi",
        "lat": "32.20142",
        "lng": "130.02171"
    },
    {
        "country": "JP",
        "name": "Ureshinomachi-shimojuku",
        "lat": "33.11358",
        "lng": "130.00292"
    },
    {
        "country": "JP",
        "name": "Urayasu",
        "lat": "35.67056",
        "lng": "139.88861"
    },
    {
        "country": "JP",
        "name": "Uozu",
        "lat": "36.8",
        "lng": "137.4"
    },
    {
        "country": "JP",
        "name": "Umi",
        "lat": "33.56826",
        "lng": "130.51009"
    },
    {
        "country": "JP",
        "name": "Ujiie",
        "lat": "36.68333",
        "lng": "139.96667"
    },
    {
        "country": "JP",
        "name": "Uji",
        "lat": "34.89044",
        "lng": "135.80325"
    },
    {
        "country": "JP",
        "name": "Uenohara",
        "lat": "35.61667",
        "lng": "139.11667"
    },
    {
        "country": "JP",
        "name": "Ueno-ebisumachi",
        "lat": "34.75856",
        "lng": "136.13108"
    },
    {
        "country": "JP",
        "name": "Uekimachi-mono",
        "lat": "32.89964",
        "lng": "130.68898"
    },
    {
        "country": "JP",
        "name": "Ueda",
        "lat": "36.40265",
        "lng": "138.28161"
    },
    {
        "country": "JP",
        "name": "Ube",
        "lat": "33.94306",
        "lng": "131.25111"
    },
    {
        "country": "JP",
        "name": "Tsuyama",
        "lat": "35.05215",
        "lng": "133.99885"
    },
    {
        "country": "JP",
        "name": "Tsushima",
        "lat": "35.16667",
        "lng": "136.71667"
    },
    {
        "country": "JP",
        "name": "Tsurusaki",
        "lat": "33.24528",
        "lng": "131.69165"
    },
    {
        "country": "JP",
        "name": "Tsuruoka",
        "lat": "38.72167",
        "lng": "139.82167"
    },
    {
        "country": "JP",
        "name": "Tsurugi-asahimachi",
        "lat": "36.45",
        "lng": "136.63333"
    },
    {
        "country": "JP",
        "name": "Tsuruga",
        "lat": "35.64547",
        "lng": "136.0558"
    },
    {
        "country": "JP",
        "name": "Tsuma",
        "lat": "32.1",
        "lng": "131.4"
    },
    {
        "country": "JP",
        "name": "Tsukumiura",
        "lat": "33.07539",
        "lng": "131.86907"
    },
    {
        "country": "JP",
        "name": "Tsukawaki",
        "lat": "33.27668",
        "lng": "131.15628"
    },
    {
        "country": "JP",
        "name": "Tsuiki",
        "lat": "33.67307",
        "lng": "131.03776"
    },
    {
        "country": "JP",
        "name": "Tsubata",
        "lat": "36.67012",
        "lng": "136.7403"
    },
    {
        "country": "JP",
        "name": "Tsubame",
        "lat": "37.6645",
        "lng": "138.92518"
    },
    {
        "country": "JP",
        "name": "Tsu",
        "lat": "34.73333",
        "lng": "136.51667"
    },
    {
        "country": "JP",
        "name": "Toyota",
        "lat": "35.08333",
        "lng": "137.15"
    },
    {
        "country": "JP",
        "name": "Toyoshina",
        "lat": "36.29991",
        "lng": "137.90108"
    },
    {
        "country": "JP",
        "name": "Toyooka",
        "lat": "35.54008",
        "lng": "134.82038"
    },
    {
        "country": "JP",
        "name": "Toyonaka",
        "lat": "34.78244",
        "lng": "135.46932"
    },
    {
        "country": "JP",
        "name": "Toyokawa",
        "lat": "34.81667",
        "lng": "137.4"
    },
    {
        "country": "JP",
        "name": "Toyohashi",
        "lat": "34.76667",
        "lng": "137.38333"
    },
    {
        "country": "JP",
        "name": "Toyohama",
        "lat": "34.70933",
        "lng": "136.93425"
    },
    {
        "country": "JP",
        "name": "Toyama",
        "lat": "36.7",
        "lng": "137.21667"
    },
    {
        "country": "JP",
        "name": "Tottori",
        "lat": "35.5",
        "lng": "134.23333"
    },
    {
        "country": "JP",
        "name": "Tosu",
        "lat": "33.36667",
        "lng": "130.51667"
    },
    {
        "country": "JP",
        "name": "Tonosho",
        "lat": "34.48047",
        "lng": "134.17017"
    },
    {
        "country": "JP",
        "name": "Tondabayashicho",
        "lat": "34.50065",
        "lng": "135.60211"
    },
    {
        "country": "JP",
        "name": "Tomioka",
        "lat": "36.25411",
        "lng": "138.89813"
    },
    {
        "country": "JP",
        "name": "Tomigusuku",
        "lat": "26.18583",
        "lng": "127.68192"
    },
    {
        "country": "JP",
        "name": "Tokyo",
        "lat": "35.6895",
        "lng": "139.69171"
    },
    {
        "country": "JP",
        "name": "Tokuyama",
        "lat": "34.05",
        "lng": "131.81667"
    },
    {
        "country": "JP",
        "name": "Tokushima",
        "lat": "34.06667",
        "lng": "134.56667"
    },
    {
        "country": "JP",
        "name": "Tokorozawa",
        "lat": "35.79916",
        "lng": "139.46903"
    },
    {
        "country": "JP",
        "name": "Tokoname",
        "lat": "34.88333",
        "lng": "136.85"
    },
    {
        "country": "JP",
        "name": "Toki",
        "lat": "35.35",
        "lng": "137.18333"
    },
    {
        "country": "JP",
        "name": "Tokamachi",
        "lat": "37.13333",
        "lng": "138.76667"
    },
    {
        "country": "JP",
        "name": "Togitsu",
        "lat": "32.83333",
        "lng": "129.85"
    },
    {
        "country": "JP",
        "name": "Tochio-honcho",
        "lat": "37.47642",
        "lng": "138.99513"
    },
    {
        "country": "JP",
        "name": "Tochigi",
        "lat": "36.38333",
        "lng": "139.73333"
    },
    {
        "country": "JP",
        "name": "Toba",
        "lat": "34.4833",
        "lng": "136.84186"
    },
    {
        "country": "JP",
        "name": "Tenri",
        "lat": "34.58333",
        "lng": "135.83333"
    },
    {
        "country": "JP",
        "name": "Tenno",
        "lat": "39.9",
        "lng": "139.96667"
    },
    {
        "country": "JP",
        "name": "Tawaramoto",
        "lat": "34.5542",
        "lng": "135.79297"
    },
    {
        "country": "JP",
        "name": "Tatsuno",
        "lat": "35.98426",
        "lng": "137.99721"
    },
    {
        "country": "JP",
        "name": "Tatsunocho-tominaga",
        "lat": "34.86437",
        "lng": "134.552"
    },
    {
        "country": "JP",
        "name": "Tateyama",
        "lat": "34.98333",
        "lng": "139.86667"
    },
    {
        "country": "JP",
        "name": "Tatebayashi",
        "lat": "36.25",
        "lng": "139.53333"
    },
    {
        "country": "JP",
        "name": "Tarumizu",
        "lat": "31.48333",
        "lng": "130.7"
    },
    {
        "country": "JP",
        "name": "Tarui",
        "lat": "35.36667",
        "lng": "136.53333"
    },
    {
        "country": "JP",
        "name": "Tanushimarumachi-toyoki",
        "lat": "33.35",
        "lng": "130.68333"
    },
    {
        "country": "JP",
        "name": "Tanuma",
        "lat": "36.36667",
        "lng": "139.58333"
    },
    {
        "country": "JP",
        "name": "Nishi-Tokyo-shi",
        "lat": "35.72526",
        "lng": "139.5383"
    },
    {
        "country": "JP",
        "name": "Tanashicho",
        "lat": "35.72922",
        "lng": "139.53813"
    },
    {
        "country": "JP",
        "name": "Tanabe",
        "lat": "34.82242",
        "lng": "135.76604"
    },
    {
        "country": "JP",
        "name": "Tanabe",
        "lat": "33.73333",
        "lng": "135.36667"
    },
    {
        "country": "JP",
        "name": "Tamano",
        "lat": "34.51745",
        "lng": "133.94574"
    },
    {
        "country": "JP",
        "name": "Tamana",
        "lat": "32.94716",
        "lng": "130.57446"
    },
    {
        "country": "JP",
        "name": "Tamamura",
        "lat": "36.3",
        "lng": "139.11667"
    },
    {
        "country": "JP",
        "name": "Taketoyo",
        "lat": "34.85",
        "lng": "136.91667"
    },
    {
        "country": "JP",
        "name": "Takeocho-takeo",
        "lat": "33.19009",
        "lng": "130.02084"
    },
    {
        "country": "JP",
        "name": "Takehara",
        "lat": "34.33833",
        "lng": "132.91667"
    },
    {
        "country": "JP",
        "name": "Takefu",
        "lat": "35.90393",
        "lng": "136.16687"
    },
    {
        "country": "JP",
        "name": "Takedamachi",
        "lat": "32.96667",
        "lng": "131.4"
    },
    {
        "country": "JP",
        "name": "Takayama",
        "lat": "36.13333",
        "lng": "137.25"
    },
    {
        "country": "JP",
        "name": "Takatsuki",
        "lat": "34.84833",
        "lng": "135.61678"
    },
    {
        "country": "JP",
        "name": "Takasaki",
        "lat": "36.33333",
        "lng": "139.01667"
    },
    {
        "country": "JP",
        "name": "Takarazuka",
        "lat": "34.79936",
        "lng": "135.35697"
    },
    {
        "country": "JP",
        "name": "Takaoka",
        "lat": "36.75",
        "lng": "137.01667"
    },
    {
        "country": "JP",
        "name": "Takanabe",
        "lat": "32.13333",
        "lng": "131.5"
    },
    {
        "country": "JP",
        "name": "Takamatsu",
        "lat": "34.33333",
        "lng": "134.05"
    },
    {
        "country": "JP",
        "name": "Takaishi",
        "lat": "34.51667",
        "lng": "135.43333"
    },
    {
        "country": "JP",
        "name": "Takahashi",
        "lat": "34.78333",
        "lng": "133.61667"
    },
    {
        "country": "JP",
        "name": "Takahama",
        "lat": "34.91667",
        "lng": "136.98333"
    },
    {
        "country": "JP",
        "name": "Bungo-Takada-shi",
        "lat": "33.5567",
        "lng": "131.44506"
    },
    {
        "country": "JP",
        "name": "Tajimi",
        "lat": "35.31667",
        "lng": "137.13333"
    },
    {
        "country": "JP",
        "name": "Tahara",
        "lat": "34.66667",
        "lng": "137.26667"
    },
    {
        "country": "JP",
        "name": "Tagawa",
        "lat": "33.63333",
        "lng": "130.8"
    },
    {
        "country": "JP",
        "name": "Tadotsu",
        "lat": "34.275",
        "lng": "133.75"
    },
    {
        "country": "JP",
        "name": "Suzuka",
        "lat": "34.88333",
        "lng": "136.58333"
    },
    {
        "country": "JP",
        "name": "Suzaka",
        "lat": "36.65",
        "lng": "138.31667"
    },
    {
        "country": "JP",
        "name": "Suwa",
        "lat": "36.03799",
        "lng": "138.11308"
    },
    {
        "country": "JP",
        "name": "Susaki",
        "lat": "33.39471",
        "lng": "133.29128"
    },
    {
        "country": "JP",
        "name": "Sumoto",
        "lat": "34.34322",
        "lng": "134.88911"
    },
    {
        "country": "JP",
        "name": "Sukumo",
        "lat": "32.93333",
        "lng": "132.73333"
    },
    {
        "country": "JP",
        "name": "Suita",
        "lat": "34.76143",
        "lng": "135.51567"
    },
    {
        "country": "JP",
        "name": "Suibara",
        "lat": "37.84608",
        "lng": "139.23039"
    },
    {
        "country": "JP",
        "name": "Sugito",
        "lat": "36.03107",
        "lng": "139.72636"
    },
    {
        "country": "JP",
        "name": "Sueyoshicho-ninokata",
        "lat": "31.65",
        "lng": "131.01667"
    },
    {
        "country": "JP",
        "name": "Soka",
        "lat": "35.83643",
        "lng": "139.79957"
    },
    {
        "country": "JP",
        "name": "Soja",
        "lat": "34.67534",
        "lng": "133.75091"
    },
    {
        "country": "JP",
        "name": "Sobue",
        "lat": "35.25",
        "lng": "136.71667"
    },
    {
        "country": "JP",
        "name": "Shobu",
        "lat": "36.06667",
        "lng": "139.6"
    },
    {
        "country": "JP",
        "name": "Shobara",
        "lat": "34.85",
        "lng": "133.01667"
    },
    {
        "country": "JP",
        "name": "Shizuoka",
        "lat": "34.98333",
        "lng": "138.38333"
    },
    {
        "country": "JP",
        "name": "Shirone",
        "lat": "37.76354",
        "lng": "139.02199"
    },
    {
        "country": "JP",
        "name": "Shiraoka",
        "lat": "36.01839",
        "lng": "139.66034"
    },
    {
        "country": "JP",
        "name": "Shirahamacho-usazakiminami",
        "lat": "34.78333",
        "lng": "134.71667"
    },
    {
        "country": "JP",
        "name": "Shiozawa",
        "lat": "37.03757",
        "lng": "138.84867"
    },
    {
        "country": "JP",
        "name": "Shiojiri",
        "lat": "36.1",
        "lng": "137.96667"
    },
    {
        "country": "JP",
        "name": "Shinshiro",
        "lat": "34.9",
        "lng": "137.5"
    },
    {
        "country": "JP",
        "name": "Shin\u2019ichi",
        "lat": "34.55543",
        "lng": "133.27297"
    },
    {
        "country": "JP",
        "name": "Shingu",
        "lat": "33.71399",
        "lng": "130.4313"
    },
    {
        "country": "JP",
        "name": "Shimo-tsuma",
        "lat": "36.18333",
        "lng": "139.96667"
    },
    {
        "country": "JP",
        "name": "Shimonoseki",
        "lat": "33.95",
        "lng": "130.95"
    },
    {
        "country": "JP",
        "name": "Shimodate",
        "lat": "36.3",
        "lng": "139.98333"
    },
    {
        "country": "JP",
        "name": "Shimoda",
        "lat": "34.67652",
        "lng": "138.94456"
    },
    {
        "country": "JP",
        "name": "Minato",
        "lat": "34.2152",
        "lng": "135.1501"
    },
    {
        "country": "JP",
        "name": "Nishishinminato",
        "lat": "36.77957",
        "lng": "137.07576"
    },
    {
        "country": "JP",
        "name": "Shimada",
        "lat": "34.81667",
        "lng": "138.18333"
    },
    {
        "country": "JP",
        "name": "Shimabara",
        "lat": "32.78333",
        "lng": "130.36667"
    },
    {
        "country": "JP",
        "name": "Shima",
        "lat": "34.33333",
        "lng": "136.83333"
    },
    {
        "country": "JP",
        "name": "Shiki",
        "lat": "35.83333",
        "lng": "139.58333"
    },
    {
        "country": "JP",
        "name": "Shiida",
        "lat": "33.65341",
        "lng": "131.05797"
    },
    {
        "country": "JP",
        "name": "Shido",
        "lat": "34.32333",
        "lng": "134.17333"
    },
    {
        "country": "JP",
        "name": "Shibushi",
        "lat": "31.476",
        "lng": "131.10114"
    },
    {
        "country": "JP",
        "name": "Shibukawa",
        "lat": "36.48333",
        "lng": "139"
    },
    {
        "country": "JP",
        "name": "Shibata",
        "lat": "37.95",
        "lng": "139.33333"
    },
    {
        "country": "JP",
        "name": "Settsu",
        "lat": "34.77819",
        "lng": "135.59512"
    },
    {
        "country": "JP",
        "name": "Seto",
        "lat": "35.23333",
        "lng": "137.1"
    },
    {
        "country": "JP",
        "name": "Setakamachi-takayanagi",
        "lat": "33.14858",
        "lng": "130.46548"
    },
    {
        "country": "JP",
        "name": "Satsumasendai",
        "lat": "31.81667",
        "lng": "130.3"
    },
    {
        "country": "JP",
        "name": "Sekimachi",
        "lat": "35.48333",
        "lng": "136.91667"
    },
    {
        "country": "JP",
        "name": "Satte",
        "lat": "36.07254",
        "lng": "139.72615"
    },
    {
        "country": "JP",
        "name": "Sasebo",
        "lat": "33.16834",
        "lng": "129.72502"
    },
    {
        "country": "JP",
        "name": "Sasayama",
        "lat": "35.06667",
        "lng": "135.21667"
    },
    {
        "country": "JP",
        "name": "Sasaguri",
        "lat": "33.61561",
        "lng": "130.55105"
    },
    {
        "country": "JP",
        "name": "Sano",
        "lat": "36.31667",
        "lng": "139.58333"
    },
    {
        "country": "JP",
        "name": "Sanjo",
        "lat": "37.61667",
        "lng": "138.95"
    },
    {
        "country": "JP",
        "name": "Sandacho",
        "lat": "34.88444",
        "lng": "135.22694"
    },
    {
        "country": "JP",
        "name": "Sakurai",
        "lat": "34.5",
        "lng": "135.85"
    },
    {
        "country": "JP",
        "name": "Saku",
        "lat": "36.21667",
        "lng": "138.48333"
    },
    {
        "country": "JP",
        "name": "Sakata",
        "lat": "38.91667",
        "lng": "139.855"
    },
    {
        "country": "JP",
        "name": "Sakaiminato",
        "lat": "35.53774",
        "lng": "133.23094"
    },
    {
        "country": "JP",
        "name": "Sakaidecho",
        "lat": "34.32278",
        "lng": "133.8356"
    },
    {
        "country": "JP",
        "name": "Sakai-nakajima",
        "lat": "36.26667",
        "lng": "139.25"
    },
    {
        "country": "JP",
        "name": "Sakai",
        "lat": "36.1",
        "lng": "139.8"
    },
    {
        "country": "JP",
        "name": "Sakai",
        "lat": "34.58333",
        "lng": "135.46667"
    },
    {
        "country": "JP",
        "name": "Sakado",
        "lat": "35.95694",
        "lng": "139.38889"
    },
    {
        "country": "JP",
        "name": "Saiki",
        "lat": "32.95",
        "lng": "131.9"
    },
    {
        "country": "JP",
        "name": "Sagara",
        "lat": "34.68503",
        "lng": "138.20461"
    },
    {
        "country": "JP",
        "name": "Saga",
        "lat": "33.23333",
        "lng": "130.3"
    },
    {
        "country": "JP",
        "name": "Sabae",
        "lat": "35.94647",
        "lng": "136.18498"
    },
    {
        "country": "JP",
        "name": "Ryuo",
        "lat": "35.65",
        "lng": "138.5"
    },
    {
        "country": "JP",
        "name": "Ryotsu-minato",
        "lat": "38.07817",
        "lng": "138.43939"
    },
    {
        "country": "JP",
        "name": "Ozu",
        "lat": "32.8804",
        "lng": "130.87161"
    },
    {
        "country": "JP",
        "name": "Oyama",
        "lat": "36.3",
        "lng": "139.8"
    },
    {
        "country": "JP",
        "name": "Oyama",
        "lat": "34.60359",
        "lng": "138.21719"
    },
    {
        "country": "JP",
        "name": "Owase",
        "lat": "34.06667",
        "lng": "136.2"
    },
    {
        "country": "JP",
        "name": "Ouda",
        "lat": "34.46667",
        "lng": "135.93333"
    },
    {
        "country": "JP",
        "name": "Otsuki",
        "lat": "35.61851",
        "lng": "138.97396"
    },
    {
        "country": "JP",
        "name": "Otsu",
        "lat": "35",
        "lng": "135.86667"
    },
    {
        "country": "JP",
        "name": "Otake",
        "lat": "34.20754",
        "lng": "132.22063"
    },
    {
        "country": "JP",
        "name": "Ota",
        "lat": "36.3",
        "lng": "139.36667"
    },
    {
        "country": "JP",
        "name": "Osaka",
        "lat": "34.69374",
        "lng": "135.50218"
    },
    {
        "country": "JP",
        "name": "Onomichi",
        "lat": "34.41667",
        "lng": "133.2"
    },
    {
        "country": "JP",
        "name": "Onoda",
        "lat": "34.00139",
        "lng": "131.18361"
    },
    {
        "country": "JP",
        "name": "Ono",
        "lat": "35.98106",
        "lng": "136.48727"
    },
    {
        "country": "JP",
        "name": "Ono",
        "lat": "34.85",
        "lng": "134.93333"
    },
    {
        "country": "JP",
        "name": "Ono-hara",
        "lat": "34.28333",
        "lng": "132.26667"
    },
    {
        "country": "JP",
        "name": "Omuta",
        "lat": "33.03333",
        "lng": "130.45"
    },
    {
        "country": "JP",
        "name": "Omura",
        "lat": "32.92139",
        "lng": "129.95389"
    },
    {
        "country": "JP",
        "name": "Ome",
        "lat": "35.78389",
        "lng": "139.24306"
    },
    {
        "country": "JP",
        "name": "Omamacho-omama",
        "lat": "36.43181",
        "lng": "139.27534"
    },
    {
        "country": "JP",
        "name": "Omachi",
        "lat": "36.5",
        "lng": "137.86667"
    },
    {
        "country": "JP",
        "name": "Okuchi-shinohara",
        "lat": "32.06779",
        "lng": "130.62439"
    },
    {
        "country": "JP",
        "name": "Okegawa",
        "lat": "36",
        "lng": "139.55722"
    },
    {
        "country": "JP",
        "name": "Okazaki",
        "lat": "34.95",
        "lng": "137.16667"
    },
    {
        "country": "JP",
        "name": "Okayama",
        "lat": "34.65",
        "lng": "133.93333"
    },
    {
        "country": "JP",
        "name": "Okaya",
        "lat": "36.05659",
        "lng": "138.0451"
    },
    {
        "country": "JP",
        "name": "Okawa",
        "lat": "33.20566",
        "lng": "130.37527"
    },
    {
        "country": "JP",
        "name": "Ojiya",
        "lat": "37.3",
        "lng": "138.8"
    },
    {
        "country": "JP",
        "name": "Oita",
        "lat": "33.23333",
        "lng": "131.6"
    },
    {
        "country": "JP",
        "name": "Oiso",
        "lat": "35.31558",
        "lng": "139.31625"
    },
    {
        "country": "JP",
        "name": "Oi",
        "lat": "35.85091",
        "lng": "139.51998"
    },
    {
        "country": "JP",
        "name": "Ogori-shimogo",
        "lat": "34.1",
        "lng": "131.4"
    },
    {
        "country": "JP",
        "name": "Ogawa",
        "lat": "36.05342",
        "lng": "139.26612"
    },
    {
        "country": "JP",
        "name": "Ogaki",
        "lat": "35.35",
        "lng": "136.61667"
    },
    {
        "country": "JP",
        "name": "Odawara",
        "lat": "35.25556",
        "lng": "139.15972"
    },
    {
        "country": "JP",
        "name": "Odacho-oda",
        "lat": "35.19025",
        "lng": "132.50846"
    },
    {
        "country": "JP",
        "name": "Obu",
        "lat": "35.01756",
        "lng": "136.94947"
    },
    {
        "country": "JP",
        "name": "Obita",
        "lat": "32.81667",
        "lng": "129.88333"
    },
    {
        "country": "JP",
        "name": "Obama",
        "lat": "35.49576",
        "lng": "135.74604"
    },
    {
        "country": "JP",
        "name": "Nyuzen",
        "lat": "36.93744",
        "lng": "137.50059"
    },
    {
        "country": "JP",
        "name": "Numazu",
        "lat": "35.1",
        "lng": "138.86667"
    },
    {
        "country": "JP",
        "name": "Numata",
        "lat": "36.63333",
        "lng": "139.05"
    },
    {
        "country": "JP",
        "name": "Nonoichi",
        "lat": "36.53333",
        "lng": "136.61667"
    },
    {
        "country": "JP",
        "name": "Nogata",
        "lat": "33.74051",
        "lng": "130.72263"
    },
    {
        "country": "JP",
        "name": "Noda",
        "lat": "35.94897",
        "lng": "139.86793"
    },
    {
        "country": "JP",
        "name": "Nobeoka",
        "lat": "32.58333",
        "lng": "131.66667"
    },
    {
        "country": "JP",
        "name": "Nishiwaki",
        "lat": "34.98419",
        "lng": "134.97407"
    },
    {
        "country": "JP",
        "name": "Nishio",
        "lat": "34.86667",
        "lng": "137.05"
    },
    {
        "country": "JP",
        "name": "Nishinoomote",
        "lat": "30.73333",
        "lng": "131"
    },
    {
        "country": "JP",
        "name": "Nishinomiya-hama",
        "lat": "34.71562",
        "lng": "135.33199"
    },
    {
        "country": "JP",
        "name": "Nirasaki",
        "lat": "35.7",
        "lng": "138.45"
    },
    {
        "country": "JP",
        "name": "Ninomiya",
        "lat": "35.3015",
        "lng": "139.25581"
    },
    {
        "country": "JP",
        "name": "Nikko",
        "lat": "36.75",
        "lng": "139.61667"
    },
    {
        "country": "JP",
        "name": "Niitsu-honcho",
        "lat": "37.80024",
        "lng": "139.1224"
    },
    {
        "country": "JP",
        "name": "Niimi",
        "lat": "34.98333",
        "lng": "133.46667"
    },
    {
        "country": "JP",
        "name": "Niihama",
        "lat": "33.96047",
        "lng": "133.30522"
    },
    {
        "country": "JP",
        "name": "Niigata",
        "lat": "37.88637",
        "lng": "139.00589"
    },
    {
        "country": "JP",
        "name": "Nichinan",
        "lat": "31.6",
        "lng": "131.36667"
    },
    {
        "country": "JP",
        "name": "Naze",
        "lat": "28.36667",
        "lng": "129.48333"
    },
    {
        "country": "JP",
        "name": "Narutocho-mitsuishi",
        "lat": "34.19933",
        "lng": "134.60932"
    },
    {
        "country": "JP",
        "name": "Nara-shi",
        "lat": "34.68505",
        "lng": "135.80485"
    },
    {
        "country": "JP",
        "name": "Nanao",
        "lat": "37.05",
        "lng": "136.96667"
    },
    {
        "country": "JP",
        "name": "Namerikawa",
        "lat": "36.75965",
        "lng": "137.36215"
    },
    {
        "country": "JP",
        "name": "Nakatsugawa",
        "lat": "35.48333",
        "lng": "137.5"
    },
    {
        "country": "JP",
        "name": "Nakatsu",
        "lat": "33.59811",
        "lng": "131.1883"
    },
    {
        "country": "JP",
        "name": "Nakanojomachi",
        "lat": "36.58717",
        "lng": "138.84083"
    },
    {
        "country": "JP",
        "name": "Nakano",
        "lat": "36.75",
        "lng": "138.36667"
    },
    {
        "country": "JP",
        "name": "Nakamura",
        "lat": "32.98333",
        "lng": "132.93333"
    },
    {
        "country": "JP",
        "name": "Nakama",
        "lat": "33.81688",
        "lng": "130.70962"
    },
    {
        "country": "JP",
        "name": "Naha",
        "lat": "26.21667",
        "lng": "127.68333"
    },
    {
        "country": "JP",
        "name": "Nagoya",
        "lat": "35.18147",
        "lng": "136.90641"
    },
    {
        "country": "JP",
        "name": "Nago",
        "lat": "26.61502",
        "lng": "127.98543"
    },
    {
        "country": "JP",
        "name": "Nagata",
        "lat": "30.39516",
        "lng": "130.42548"
    },
    {
        "country": "JP",
        "name": "Nagasaki",
        "lat": "32.75",
        "lng": "129.88333"
    },
    {
        "country": "JP",
        "name": "Nagareyama",
        "lat": "35.8563",
        "lng": "139.90266"
    },
    {
        "country": "JP",
        "name": "Nagaoka",
        "lat": "37.45",
        "lng": "138.85"
    },
    {
        "country": "JP",
        "name": "Nagano",
        "lat": "36.65",
        "lng": "138.18333"
    },
    {
        "country": "JP",
        "name": "Nagahama",
        "lat": "35.38333",
        "lng": "136.26667"
    },
    {
        "country": "JP",
        "name": "Nabari",
        "lat": "34.61667",
        "lng": "136.08333"
    },
    {
        "country": "JP",
        "name": "Musashino",
        "lat": "35.70611",
        "lng": "139.55944"
    },
    {
        "country": "JP",
        "name": "Muroto-misakicho",
        "lat": "33.28662",
        "lng": "134.16832"
    },
    {
        "country": "JP",
        "name": "Muramatsu",
        "lat": "37.69257",
        "lng": "139.17127"
    },
    {
        "country": "JP",
        "name": "Murakami",
        "lat": "38.23333",
        "lng": "139.48333"
    },
    {
        "country": "JP",
        "name": "Muko",
        "lat": "34.96545",
        "lng": "135.70415"
    },
    {
        "country": "JP",
        "name": "Muikamachi",
        "lat": "37.06667",
        "lng": "138.88333"
    },
    {
        "country": "JP",
        "name": "Morohongo",
        "lat": "35.93556",
        "lng": "139.30444"
    },
    {
        "country": "JP",
        "name": "Moriyama",
        "lat": "35.06667",
        "lng": "135.98333"
    },
    {
        "country": "JP",
        "name": "Moriguchi",
        "lat": "34.73333",
        "lng": "135.56667"
    },
    {
        "country": "JP",
        "name": "Mori",
        "lat": "34.83333",
        "lng": "137.93333"
    },
    {
        "country": "JP",
        "name": "Mizunami",
        "lat": "35.36667",
        "lng": "137.25"
    },
    {
        "country": "JP",
        "name": "Miyoshi",
        "lat": "34.8",
        "lng": "132.85"
    },
    {
        "country": "JP",
        "name": "Miyazu",
        "lat": "35.53333",
        "lng": "135.18333"
    },
    {
        "country": "JP",
        "name": "Miyazaki",
        "lat": "31.91667",
        "lng": "131.41667"
    },
    {
        "country": "JP",
        "name": "Miyanoura",
        "lat": "30.4269",
        "lng": "130.57151"
    },
    {
        "country": "JP",
        "name": "Miyakonojo",
        "lat": "31.73333",
        "lng": "131.06667"
    },
    {
        "country": "JP",
        "name": "Miyajima",
        "lat": "34.29907",
        "lng": "132.32186"
    },
    {
        "country": "JP",
        "name": "Miyata",
        "lat": "33.70811",
        "lng": "130.65297"
    },
    {
        "country": "JP",
        "name": "Mitsuke",
        "lat": "37.53333",
        "lng": "138.93333"
    },
    {
        "country": "JP",
        "name": "Mitsukaido",
        "lat": "36.01667",
        "lng": "139.98333"
    },
    {
        "country": "JP",
        "name": "Mitake",
        "lat": "35.41667",
        "lng": "137.13333"
    },
    {
        "country": "JP",
        "name": "Mishima",
        "lat": "35.11667",
        "lng": "138.91667"
    },
    {
        "country": "JP",
        "name": "Mino",
        "lat": "34.82691",
        "lng": "135.47057"
    },
    {
        "country": "JP",
        "name": "Mino",
        "lat": "35.53333",
        "lng": "136.91667"
    },
    {
        "country": "JP",
        "name": "Minamirinkan",
        "lat": "35.49527",
        "lng": "139.44279"
    },
    {
        "country": "JP",
        "name": "Minamata",
        "lat": "32.21667",
        "lng": "130.4"
    },
    {
        "country": "JP",
        "name": "Minakuchicho-matoba",
        "lat": "34.96667",
        "lng": "136.16667"
    },
    {
        "country": "JP",
        "name": "Mikuni",
        "lat": "36.21706",
        "lng": "136.15185"
    },
    {
        "country": "JP",
        "name": "Miki",
        "lat": "34.8",
        "lng": "134.98333"
    },
    {
        "country": "JP",
        "name": "Mihara",
        "lat": "34.4",
        "lng": "133.08333"
    },
    {
        "country": "JP",
        "name": "Mibu",
        "lat": "36.41667",
        "lng": "139.8"
    },
    {
        "country": "JP",
        "name": "Menuma",
        "lat": "36.22245",
        "lng": "139.38205"
    },
    {
        "country": "JP",
        "name": "Matsuto",
        "lat": "36.51667",
        "lng": "136.56667"
    },
    {
        "country": "JP",
        "name": "Matsumoto",
        "lat": "36.23333",
        "lng": "137.96667"
    },
    {
        "country": "JP",
        "name": "Matsue",
        "lat": "35.48333",
        "lng": "133.05"
    },
    {
        "country": "JP",
        "name": "Matsudo",
        "lat": "35.77995",
        "lng": "139.90144"
    },
    {
        "country": "JP",
        "name": "Matsubase",
        "lat": "32.65",
        "lng": "130.66667"
    },
    {
        "country": "JP",
        "name": "Matsubara",
        "lat": "34.56667",
        "lng": "135.55"
    },
    {
        "country": "JP",
        "name": "Masuda",
        "lat": "34.66667",
        "lng": "131.85"
    },
    {
        "country": "JP",
        "name": "Maruoka",
        "lat": "36.1534",
        "lng": "136.27029"
    },
    {
        "country": "JP",
        "name": "Kamimaruko",
        "lat": "36.31865",
        "lng": "138.27329"
    },
    {
        "country": "JP",
        "name": "Marugame",
        "lat": "34.28333",
        "lng": "133.78333"
    },
    {
        "country": "JP",
        "name": "Makurazaki",
        "lat": "31.26667",
        "lng": "130.31667"
    },
    {
        "country": "JP",
        "name": "Makinohara",
        "lat": "34.77437",
        "lng": "138.14831"
    },
    {
        "country": "JP",
        "name": "Maki",
        "lat": "37.75",
        "lng": "138.88333"
    },
    {
        "country": "JP",
        "name": "Maizuru",
        "lat": "35.45",
        "lng": "135.33333"
    },
    {
        "country": "JP",
        "name": "Maibara",
        "lat": "35.31667",
        "lng": "136.28333"
    },
    {
        "country": "JP",
        "name": "Maebashi",
        "lat": "36.4",
        "lng": "139.08333"
    },
    {
        "country": "JP",
        "name": "Maebaru-chuo",
        "lat": "33.55916",
        "lng": "130.20148"
    },
    {
        "country": "JP",
        "name": "Machida",
        "lat": "35.54028",
        "lng": "139.45083"
    },
    {
        "country": "JP",
        "name": "Kyoto",
        "lat": "35.02107",
        "lng": "135.75385"
    },
    {
        "country": "JP",
        "name": "Kushikino",
        "lat": "31.71667",
        "lng": "130.26667"
    },
    {
        "country": "JP",
        "name": "Kusatsu",
        "lat": "35.01667",
        "lng": "135.96667"
    },
    {
        "country": "JP",
        "name": "Kurume",
        "lat": "33.31667",
        "lng": "130.51667"
    },
    {
        "country": "JP",
        "name": "Kuroda",
        "lat": "35.35",
        "lng": "136.78333"
    },
    {
        "country": "JP",
        "name": "Kurio",
        "lat": "30.27123",
        "lng": "130.4236"
    },
    {
        "country": "JP",
        "name": "Kurihashi",
        "lat": "36.13333",
        "lng": "139.7"
    },
    {
        "country": "JP",
        "name": "Kure",
        "lat": "34.23222",
        "lng": "132.56658"
    },
    {
        "country": "JP",
        "name": "Kurayoshi",
        "lat": "35.43333",
        "lng": "133.81667"
    },
    {
        "country": "JP",
        "name": "Kurashiki",
        "lat": "34.58333",
        "lng": "133.76667"
    },
    {
        "country": "JP",
        "name": "Kumamoto",
        "lat": "32.80589",
        "lng": "130.69181"
    },
    {
        "country": "JP",
        "name": "Kumagaya",
        "lat": "36.13497",
        "lng": "139.39004"
    },
    {
        "country": "JP",
        "name": "Kukichuo",
        "lat": "36.06739",
        "lng": "139.67498"
    },
    {
        "country": "JP",
        "name": "Kudamatsu",
        "lat": "34",
        "lng": "131.86667"
    },
    {
        "country": "JP",
        "name": "Kozakai-cho",
        "lat": "34.8",
        "lng": "137.35889"
    },
    {
        "country": "JP",
        "name": "Koshima",
        "lat": "30.23461",
        "lng": "130.53517"
    },
    {
        "country": "JP",
        "name": "Koshigaya",
        "lat": "35.89035",
        "lng": "139.78916"
    },
    {
        "country": "JP",
        "name": "Koseda",
        "lat": "30.38796",
        "lng": "130.64924"
    },
    {
        "country": "JP",
        "name": "Konosu",
        "lat": "36.06868",
        "lng": "139.51684"
    },
    {
        "country": "JP",
        "name": "Konan",
        "lat": "35.33165",
        "lng": "136.87042"
    },
    {
        "country": "JP",
        "name": "Komoro",
        "lat": "36.31667",
        "lng": "138.43333"
    },
    {
        "country": "JP",
        "name": "Komono",
        "lat": "35",
        "lng": "136.51667"
    },
    {
        "country": "JP",
        "name": "Komatsushimacho",
        "lat": "34",
        "lng": "134.58333"
    },
    {
        "country": "JP",
        "name": "Komatsu",
        "lat": "36.40263",
        "lng": "136.45088"
    },
    {
        "country": "JP",
        "name": "Komaki",
        "lat": "35.28333",
        "lng": "136.91667"
    },
    {
        "country": "JP",
        "name": "Kokubunji",
        "lat": "35.70222",
        "lng": "139.47556"
    },
    {
        "country": "JP",
        "name": "Kokubu-matsuki",
        "lat": "31.73333",
        "lng": "130.76667"
    },
    {
        "country": "JP",
        "name": "Koga",
        "lat": "36.18333",
        "lng": "139.71667"
    },
    {
        "country": "JP",
        "name": "Koga",
        "lat": "33.73333",
        "lng": "130.46667"
    },
    {
        "country": "JP",
        "name": "Kofu",
        "lat": "35.66667",
        "lng": "138.56667"
    },
    {
        "country": "JP",
        "name": "Kodamacho-kodamaminami",
        "lat": "36.18497",
        "lng": "139.13191"
    },
    {
        "country": "JP",
        "name": "Kochi",
        "lat": "33.55",
        "lng": "133.53333"
    },
    {
        "country": "JP",
        "name": "Kobe",
        "lat": "34.6913",
        "lng": "135.183"
    },
    {
        "country": "JP",
        "name": "Kobayashi",
        "lat": "31.98333",
        "lng": "130.98333"
    },
    {
        "country": "JP",
        "name": "Kiyosu",
        "lat": "35.21667",
        "lng": "136.83333"
    },
    {
        "country": "JP",
        "name": "Kitsuki",
        "lat": "33.41998",
        "lng": "131.61837"
    },
    {
        "country": "JP",
        "name": "Kitakyushu",
        "lat": "33.85181",
        "lng": "130.85034"
    },
    {
        "country": "JP",
        "name": "Kitakata",
        "lat": "37.65",
        "lng": "139.86667"
    },
    {
        "country": "JP",
        "name": "Kitahama",
        "lat": "35.16667",
        "lng": "135.91667"
    },
    {
        "country": "JP",
        "name": "Kishiwada",
        "lat": "34.46667",
        "lng": "135.36667"
    },
    {
        "country": "JP",
        "name": "Kisarazu",
        "lat": "35.38329",
        "lng": "139.93254"
    },
    {
        "country": "JP",
        "name": "Kisai",
        "lat": "36.1",
        "lng": "139.58333"
    },
    {
        "country": "JP",
        "name": "Kiryu",
        "lat": "36.4",
        "lng": "139.33333"
    },
    {
        "country": "JP",
        "name": "Kikuchi",
        "lat": "32.98333",
        "lng": "130.81667"
    },
    {
        "country": "JP",
        "name": "Kazo",
        "lat": "36.11667",
        "lng": "139.6"
    },
    {
        "country": "JP",
        "name": "Kawasaki",
        "lat": "35.52056",
        "lng": "139.71722"
    },
    {
        "country": "JP",
        "name": "Kawasaki",
        "lat": "33.59993",
        "lng": "130.81495"
    },
    {
        "country": "JP",
        "name": "Kawanishi",
        "lat": "34.81667",
        "lng": "135.41667"
    },
    {
        "country": "JP",
        "name": "Kawaguchi",
        "lat": "35.80521",
        "lng": "139.71072"
    },
    {
        "country": "JP",
        "name": "Kawagoe",
        "lat": "35.90861",
        "lng": "139.48528"
    },
    {
        "country": "JP",
        "name": "Katsuyama",
        "lat": "36.06173",
        "lng": "136.50101"
    },
    {
        "country": "JP",
        "name": "Kasukabe",
        "lat": "35.98308",
        "lng": "139.74966"
    },
    {
        "country": "JP",
        "name": "Kasugai",
        "lat": "35.24762",
        "lng": "136.97229"
    },
    {
        "country": "JP",
        "name": "Kashiwazaki",
        "lat": "37.36667",
        "lng": "138.55"
    },
    {
        "country": "JP",
        "name": "Kashiwa",
        "lat": "35.86224",
        "lng": "139.97732"
    },
    {
        "country": "JP",
        "name": "Kashima",
        "lat": "33.10611",
        "lng": "130.09056"
    },
    {
        "country": "JP",
        "name": "Kashihara-shi",
        "lat": "34.50896",
        "lng": "135.7929"
    },
    {
        "country": "JP",
        "name": "Kashihara",
        "lat": "34.58333",
        "lng": "135.61667"
    },
    {
        "country": "JP",
        "name": "Kaseda-shirakame",
        "lat": "31.41667",
        "lng": "130.31667"
    },
    {
        "country": "JP",
        "name": "Kasaoka",
        "lat": "34.50597",
        "lng": "133.50391"
    },
    {
        "country": "JP",
        "name": "Kasamatsucho",
        "lat": "35.36667",
        "lng": "136.76667"
    },
    {
        "country": "JP",
        "name": "Kariya",
        "lat": "34.98333",
        "lng": "136.98333"
    },
    {
        "country": "JP",
        "name": "Karatsu",
        "lat": "33.4425",
        "lng": "129.96972"
    },
    {
        "country": "JP",
        "name": "Kanzakimachi-kanzaki",
        "lat": "33.30895",
        "lng": "130.37383"
    },
    {
        "country": "JP",
        "name": "Kanuma",
        "lat": "36.55",
        "lng": "139.73333"
    },
    {
        "country": "JP",
        "name": "Kanoya",
        "lat": "31.38333",
        "lng": "130.85"
    },
    {
        "country": "JP",
        "name": "Kan\u2019onjicho",
        "lat": "34.1276",
        "lng": "133.64598"
    },
    {
        "country": "JP",
        "name": "Kannabecho-yahiro",
        "lat": "34.55808",
        "lng": "133.41796"
    },
    {
        "country": "JP",
        "name": "Kanie",
        "lat": "35.13333",
        "lng": "136.8"
    },
    {
        "country": "JP",
        "name": "Kanekomachi",
        "lat": "36.41097",
        "lng": "138.99621"
    },
    {
        "country": "JP",
        "name": "Kanda",
        "lat": "33.78333",
        "lng": "130.98333"
    },
    {
        "country": "JP",
        "name": "Kanazawa",
        "lat": "36.6",
        "lng": "136.61667"
    },
    {
        "country": "JP",
        "name": "Kanaya",
        "lat": "34.82022",
        "lng": "138.12775"
    },
    {
        "country": "JP",
        "name": "Kamojimacho-jogejima",
        "lat": "34.06803",
        "lng": "134.35033"
    },
    {
        "country": "JP",
        "name": "Kamogatacho-kamogata",
        "lat": "34.53745",
        "lng": "133.58967"
    },
    {
        "country": "JP",
        "name": "Kamo",
        "lat": "37.66442",
        "lng": "139.03502"
    },
    {
        "country": "JP",
        "name": "Kamirenjaku",
        "lat": "35.69423",
        "lng": "139.55495"
    },
    {
        "country": "JP",
        "name": "Kaminokawa",
        "lat": "36.43333",
        "lng": "139.91667"
    },
    {
        "country": "JP",
        "name": "Kamiichi",
        "lat": "36.7",
        "lng": "137.36667"
    },
    {
        "country": "JP",
        "name": "Kameyama",
        "lat": "34.85",
        "lng": "136.45"
    },
    {
        "country": "JP",
        "name": "Kameoka",
        "lat": "35",
        "lng": "135.58333"
    },
    {
        "country": "JP",
        "name": "Kameda-honcho",
        "lat": "37.87214",
        "lng": "139.1099"
    },
    {
        "country": "JP",
        "name": "Kamakura",
        "lat": "35.30889",
        "lng": "139.55028"
    },
    {
        "country": "JP",
        "name": "Kakogawacho-honmachi",
        "lat": "34.76943",
        "lng": "134.82905"
    },
    {
        "country": "JP",
        "name": "Kakegawa",
        "lat": "34.76667",
        "lng": "138.01667"
    },
    {
        "country": "JP",
        "name": "Kakamigahara",
        "lat": "35.41667",
        "lng": "136.86667"
    },
    {
        "country": "JP",
        "name": "Kashima-shi",
        "lat": "35.96536",
        "lng": "140.64474"
    },
    {
        "country": "JP",
        "name": "Kajiki",
        "lat": "31.73333",
        "lng": "130.66667"
    },
    {
        "country": "JP",
        "name": "Kaizuka",
        "lat": "34.45",
        "lng": "135.35"
    },
    {
        "country": "JP",
        "name": "Kainan",
        "lat": "34.15166",
        "lng": "135.21398"
    },
    {
        "country": "JP",
        "name": "Kagoshima",
        "lat": "31.56667",
        "lng": "130.55"
    },
    {
        "country": "JP",
        "name": "Kadoma",
        "lat": "34.7381",
        "lng": "135.57442"
    },
    {
        "country": "JP",
        "name": "Izumo",
        "lat": "35.36667",
        "lng": "132.76667"
    },
    {
        "country": "JP",
        "name": "Izumisano",
        "lat": "34.41667",
        "lng": "135.31667"
    },
    {
        "country": "JP",
        "name": "Izumiotsu",
        "lat": "34.5",
        "lng": "135.4"
    },
    {
        "country": "JP",
        "name": "Izumi",
        "lat": "34.48333",
        "lng": "135.43333"
    },
    {
        "country": "JP",
        "name": "Izumi",
        "lat": "32.08333",
        "lng": "130.36667"
    },
    {
        "country": "JP",
        "name": "Iwatsuki",
        "lat": "35.96474",
        "lng": "139.69644"
    },
    {
        "country": "JP",
        "name": "Iwata",
        "lat": "34.7",
        "lng": "137.85"
    },
    {
        "country": "JP",
        "name": "Iwakura",
        "lat": "35.28333",
        "lng": "136.86667"
    },
    {
        "country": "JP",
        "name": "Iwakuni",
        "lat": "34.16297",
        "lng": "132.22"
    },
    {
        "country": "JP",
        "name": "Iwai",
        "lat": "36.05",
        "lng": "139.9"
    },
    {
        "country": "JP",
        "name": "Iwade",
        "lat": "34.25",
        "lng": "135.31667"
    },
    {
        "country": "JP",
        "name": "Itsukaichi",
        "lat": "35.72528",
        "lng": "139.21778"
    },
    {
        "country": "JP",
        "name": "Itoman",
        "lat": "26.12647",
        "lng": "127.66918"
    },
    {
        "country": "JP",
        "name": "Itoigawa",
        "lat": "37.03333",
        "lng": "137.85"
    },
    {
        "country": "JP",
        "name": "Ito",
        "lat": "34.96667",
        "lng": "139.08333"
    },
    {
        "country": "JP",
        "name": "Itami",
        "lat": "34.78427",
        "lng": "135.40126"
    },
    {
        "country": "JP",
        "name": "Ishiki",
        "lat": "34.8",
        "lng": "137.01667"
    },
    {
        "country": "JP",
        "name": "Ishikawa",
        "lat": "26.42333",
        "lng": "127.82139"
    },
    {
        "country": "JP",
        "name": "Ishii",
        "lat": "34.06752",
        "lng": "134.44208"
    },
    {
        "country": "JP",
        "name": "Ishige",
        "lat": "36.11667",
        "lng": "139.96667"
    },
    {
        "country": "JP",
        "name": "Ishigaki",
        "lat": "24.34478",
        "lng": "124.15717"
    },
    {
        "country": "JP",
        "name": "Isesaki",
        "lat": "36.31667",
        "lng": "139.2"
    },
    {
        "country": "JP",
        "name": "Isehara",
        "lat": "35.39932",
        "lng": "139.31019"
    },
    {
        "country": "JP",
        "name": "Ise",
        "lat": "34.48333",
        "lng": "136.7"
    },
    {
        "country": "JP",
        "name": "Isawa",
        "lat": "35.65",
        "lng": "138.63333"
    },
    {
        "country": "JP",
        "name": "Isahaya",
        "lat": "32.84111",
        "lng": "130.04306"
    },
    {
        "country": "JP",
        "name": "Inuyama",
        "lat": "35.37995",
        "lng": "136.94295"
    },
    {
        "country": "JP",
        "name": "Ino",
        "lat": "33.55",
        "lng": "133.43333"
    },
    {
        "country": "JP",
        "name": "Innoshima",
        "lat": "34.28333",
        "lng": "133.18333"
    },
    {
        "country": "JP",
        "name": "Inazawa",
        "lat": "35.25",
        "lng": "136.78333"
    },
    {
        "country": "JP",
        "name": "Ina",
        "lat": "35.82756",
        "lng": "137.95378"
    },
    {
        "country": "JP",
        "name": "Imaricho-ko",
        "lat": "33.27362",
        "lng": "129.87877"
    },
    {
        "country": "JP",
        "name": "Imaichi",
        "lat": "36.71667",
        "lng": "139.68333"
    },
    {
        "country": "JP",
        "name": "Ikoma",
        "lat": "34.68333",
        "lng": "135.7"
    },
    {
        "country": "JP",
        "name": "Ikeda",
        "lat": "34.82208",
        "lng": "135.4298"
    },
    {
        "country": "JP",
        "name": "Ikedacho",
        "lat": "34.02849",
        "lng": "133.80616"
    },
    {
        "country": "JP",
        "name": "Ijuin",
        "lat": "31.61667",
        "lng": "130.4"
    },
    {
        "country": "JP",
        "name": "Iizuka",
        "lat": "33.63654",
        "lng": "130.68678"
    },
    {
        "country": "JP",
        "name": "Iiyama",
        "lat": "36.85",
        "lng": "138.36667"
    },
    {
        "country": "JP",
        "name": "Iida",
        "lat": "35.51965",
        "lng": "137.82074"
    },
    {
        "country": "JP",
        "name": "Ichinomiya",
        "lat": "35.3",
        "lng": "136.8"
    },
    {
        "country": "JP",
        "name": "Ibusuki",
        "lat": "31.23333",
        "lng": "130.65"
    },
    {
        "country": "JP",
        "name": "Ibaraki",
        "lat": "34.81641",
        "lng": "135.56828"
    },
    {
        "country": "JP",
        "name": "Ibara",
        "lat": "34.6",
        "lng": "133.46667"
    },
    {
        "country": "JP",
        "name": "Hotaka",
        "lat": "36.3396",
        "lng": "137.88254"
    },
    {
        "country": "JP",
        "name": "Horyuji",
        "lat": "34.61234",
        "lng": "135.73754"
    },
    {
        "country": "JP",
        "name": "Honjo",
        "lat": "36.2378",
        "lng": "139.19023"
    },
    {
        "country": "JP",
        "name": "Hondomachi-hondo",
        "lat": "32.45993",
        "lng": "130.16713"
    },
    {
        "country": "JP",
        "name": "Hofu",
        "lat": "34.05",
        "lng": "131.56667"
    },
    {
        "country": "JP",
        "name": "Hitoyoshi",
        "lat": "32.21667",
        "lng": "130.75"
    },
    {
        "country": "JP",
        "name": "Hita",
        "lat": "33.3213",
        "lng": "130.94098"
    },
    {
        "country": "JP",
        "name": "Hisai-motomachi",
        "lat": "34.66667",
        "lng": "136.46667"
    },
    {
        "country": "JP",
        "name": "Hiroshima",
        "lat": "34.4",
        "lng": "132.45"
    },
    {
        "country": "JP",
        "name": "Hiratsuka",
        "lat": "35.32785",
        "lng": "139.33735"
    },
    {
        "country": "JP",
        "name": "Hiratacho",
        "lat": "35.43333",
        "lng": "132.81667"
    },
    {
        "country": "JP",
        "name": "Hirara",
        "lat": "24.80379",
        "lng": "125.30222"
    },
    {
        "country": "JP",
        "name": "Hirakata",
        "lat": "34.81352",
        "lng": "135.64914"
    },
    {
        "country": "JP",
        "name": "Hirado",
        "lat": "33.36853",
        "lng": "129.55247"
    },
    {
        "country": "JP",
        "name": "Hioki",
        "lat": "31.58333",
        "lng": "130.35"
    },
    {
        "country": "JP",
        "name": "Hino",
        "lat": "35.67306",
        "lng": "139.40028"
    },
    {
        "country": "JP",
        "name": "Hino",
        "lat": "35",
        "lng": "136.25"
    },
    {
        "country": "JP",
        "name": "Himimachi",
        "lat": "36.85609",
        "lng": "136.9885"
    },
    {
        "country": "JP",
        "name": "Himeji",
        "lat": "34.81667",
        "lng": "134.7"
    },
    {
        "country": "JP",
        "name": "Hikone",
        "lat": "35.25",
        "lng": "136.25"
    },
    {
        "country": "JP",
        "name": "Hiji",
        "lat": "33.37081",
        "lng": "131.53025"
    },
    {
        "country": "JP",
        "name": "Higashi-osaka",
        "lat": "34.66667",
        "lng": "135.58333"
    },
    {
        "country": "JP",
        "name": "Hekinan",
        "lat": "34.88333",
        "lng": "136.98333"
    },
    {
        "country": "JP",
        "name": "Heda",
        "lat": "34.96277",
        "lng": "138.78543"
    },
    {
        "country": "JP",
        "name": "Hayama",
        "lat": "35.27651",
        "lng": "139.57733"
    },
    {
        "country": "JP",
        "name": "Hatsukaichi",
        "lat": "34.35",
        "lng": "132.33333"
    },
    {
        "country": "JP",
        "name": "Hatogaya-honcho",
        "lat": "35.83314",
        "lng": "139.7425"
    },
    {
        "country": "JP",
        "name": "Hashimoto",
        "lat": "34.31667",
        "lng": "135.61667"
    },
    {
        "country": "JP",
        "name": "Hanyu",
        "lat": "36.16667",
        "lng": "139.53333"
    },
    {
        "country": "JP",
        "name": "Hanno",
        "lat": "35.85194",
        "lng": "139.31806"
    },
    {
        "country": "JP",
        "name": "Handa",
        "lat": "34.88333",
        "lng": "136.93333"
    },
    {
        "country": "JP",
        "name": "Hamanoichi",
        "lat": "31.71667",
        "lng": "130.73333"
    },
    {
        "country": "JP",
        "name": "Hamamatsu",
        "lat": "34.7",
        "lng": "137.73333"
    },
    {
        "country": "JP",
        "name": "Hamakita",
        "lat": "34.8",
        "lng": "137.78333"
    },
    {
        "country": "JP",
        "name": "Hamada",
        "lat": "34.88333",
        "lng": "132.08333"
    },
    {
        "country": "JP",
        "name": "Hakui",
        "lat": "36.88333",
        "lng": "136.78333"
    },
    {
        "country": "JP",
        "name": "Hakone",
        "lat": "35.18945",
        "lng": "139.02649"
    },
    {
        "country": "JP",
        "name": "Haibara-akanedai",
        "lat": "34.53333",
        "lng": "135.95"
    },
    {
        "country": "JP",
        "name": "Hagi",
        "lat": "34.4",
        "lng": "131.41667"
    },
    {
        "country": "JP",
        "name": "Katsuren-haebaru",
        "lat": "26.33294",
        "lng": "127.87403"
    },
    {
        "country": "JP",
        "name": "Hadano",
        "lat": "35.37111",
        "lng": "139.22361"
    },
    {
        "country": "JP",
        "name": "Hachioji",
        "lat": "35.65583",
        "lng": "139.32389"
    },
    {
        "country": "JP",
        "name": "Omihachiman",
        "lat": "35.12861",
        "lng": "136.0976"
    },
    {
        "country": "JP",
        "name": "Gyoda",
        "lat": "36.14074",
        "lng": "139.46011"
    },
    {
        "country": "JP",
        "name": "Gushikawa",
        "lat": "26.35937",
        "lng": "127.86735"
    },
    {
        "country": "JP",
        "name": "Gotsucho",
        "lat": "35.00856",
        "lng": "132.2257"
    },
    {
        "country": "JP",
        "name": "Gotenba",
        "lat": "35.31859",
        "lng": "138.94343"
    },
    {
        "country": "JP",
        "name": "Gosen",
        "lat": "37.73333",
        "lng": "139.16667"
    },
    {
        "country": "JP",
        "name": "Gose",
        "lat": "34.45",
        "lng": "135.73333"
    },
    {
        "country": "JP",
        "name": "Gojo",
        "lat": "34.35",
        "lng": "135.7"
    },
    {
        "country": "JP",
        "name": "Godo",
        "lat": "35.41667",
        "lng": "136.6"
    },
    {
        "country": "JP",
        "name": "Gobo",
        "lat": "33.88153",
        "lng": "135.1696"
    },
    {
        "country": "JP",
        "name": "Ginowan",
        "lat": "26.26265",
        "lng": "127.76147"
    },
    {
        "country": "JP",
        "name": "Gifu-shi",
        "lat": "35.42291",
        "lng": "136.76039"
    },
    {
        "country": "JP",
        "name": "Gamagori",
        "lat": "34.83333",
        "lng": "137.23333"
    },
    {
        "country": "JP",
        "name": "Futtsu",
        "lat": "35.3108",
        "lng": "139.81877"
    },
    {
        "country": "JP",
        "name": "Honcho",
        "lat": "35.70129",
        "lng": "139.98648"
    },
    {
        "country": "JP",
        "name": "Fukuyama",
        "lat": "34.48333",
        "lng": "133.36667"
    },
    {
        "country": "JP",
        "name": "Fukuroi",
        "lat": "34.75",
        "lng": "137.91667"
    },
    {
        "country": "JP",
        "name": "Fukura",
        "lat": "34.25765",
        "lng": "134.71535"
    },
    {
        "country": "JP",
        "name": "Fukuoka",
        "lat": "33.6",
        "lng": "130.41667"
    },
    {
        "country": "JP",
        "name": "Fukumitsu",
        "lat": "36.55751",
        "lng": "136.86945"
    },
    {
        "country": "JP",
        "name": "Nishifukuma",
        "lat": "33.76627",
        "lng": "130.47461"
    },
    {
        "country": "JP",
        "name": "Fukui-shi",
        "lat": "36.06443",
        "lng": "136.22257"
    },
    {
        "country": "JP",
        "name": "Fukuecho",
        "lat": "32.69732",
        "lng": "128.84561"
    },
    {
        "country": "JP",
        "name": "Fukuchiyama",
        "lat": "35.3",
        "lng": "135.11667"
    },
    {
        "country": "JP",
        "name": "Fukiage-fujimi",
        "lat": "36.1",
        "lng": "139.45"
    },
    {
        "country": "JP",
        "name": "Fukayacho",
        "lat": "36.2",
        "lng": "139.28333"
    },
    {
        "country": "JP",
        "name": "Fujisawa",
        "lat": "35.34926",
        "lng": "139.47666"
    },
    {
        "country": "JP",
        "name": "Fujioka",
        "lat": "36.25",
        "lng": "139.65"
    },
    {
        "country": "JP",
        "name": "Fujioka",
        "lat": "36.24624",
        "lng": "139.07204"
    },
    {
        "country": "JP",
        "name": "Fujinomiya",
        "lat": "35.21667",
        "lng": "138.61667"
    },
    {
        "country": "JP",
        "name": "Fujieda",
        "lat": "34.86667",
        "lng": "138.26667"
    },
    {
        "country": "JP",
        "name": "Fuji",
        "lat": "35.16667",
        "lng": "138.68333"
    },
    {
        "country": "JP",
        "name": "Fuchucho",
        "lat": "34.5735",
        "lng": "133.23513"
    },
    {
        "country": "JP",
        "name": "Enzan",
        "lat": "35.7",
        "lng": "138.73333"
    },
    {
        "country": "JP",
        "name": "Daitocho",
        "lat": "34.71378",
        "lng": "135.62033"
    },
    {
        "country": "JP",
        "name": "Chofugaoka",
        "lat": "35.65924",
        "lng": "139.54837"
    },
    {
        "country": "JP",
        "name": "Chiryu",
        "lat": "35",
        "lng": "137.03333"
    },
    {
        "country": "JP",
        "name": "Chino",
        "lat": "35.9944",
        "lng": "138.15428"
    },
    {
        "country": "JP",
        "name": "Chikushino-shi",
        "lat": "33.49631",
        "lng": "130.5156"
    },
    {
        "country": "JP",
        "name": "Chigasaki",
        "lat": "35.33638",
        "lng": "139.40434"
    },
    {
        "country": "JP",
        "name": "Chichibu",
        "lat": "35.99028",
        "lng": "139.07639"
    },
    {
        "country": "JP",
        "name": "Chatan",
        "lat": "26.30948",
        "lng": "127.77024"
    },
    {
        "country": "JP",
        "name": "Beppu",
        "lat": "33.27945",
        "lng": "131.49751"
    },
    {
        "country": "JP",
        "name": "Ayabe",
        "lat": "35.3",
        "lng": "135.25"
    },
    {
        "country": "JP",
        "name": "Awara",
        "lat": "36.22309",
        "lng": "136.19236"
    },
    {
        "country": "JP",
        "name": "Atami",
        "lat": "35.08834",
        "lng": "139.05325"
    },
    {
        "country": "JP",
        "name": "Ashiya",
        "lat": "34.72807",
        "lng": "135.30264"
    },
    {
        "country": "JP",
        "name": "Ashikaga",
        "lat": "36.33333",
        "lng": "139.45"
    },
    {
        "country": "JP",
        "name": "Arai",
        "lat": "37.00059",
        "lng": "138.2259"
    },
    {
        "country": "JP",
        "name": "Annaka",
        "lat": "36.33011",
        "lng": "138.89585"
    },
    {
        "country": "JP",
        "name": "Anjo",
        "lat": "34.95828",
        "lng": "137.08054"
    },
    {
        "country": "JP",
        "name": "Anan",
        "lat": "33.91667",
        "lng": "134.65"
    },
    {
        "country": "JP",
        "name": "Amagi",
        "lat": "33.41804",
        "lng": "130.65413"
    },
    {
        "country": "JP",
        "name": "Amagasaki",
        "lat": "34.71667",
        "lng": "135.41667"
    },
    {
        "country": "JP",
        "name": "Akune",
        "lat": "32.01667",
        "lng": "130.2"
    },
    {
        "country": "JP",
        "name": "Kariya",
        "lat": "34.75136",
        "lng": "134.38734"
    },
    {
        "country": "JP",
        "name": "Aki",
        "lat": "33.5",
        "lng": "133.9"
    },
    {
        "country": "JP",
        "name": "Aioi",
        "lat": "34.80361",
        "lng": "134.46806"
    },
    {
        "country": "JP",
        "name": "Ageoshimo",
        "lat": "35.97145",
        "lng": "139.61382"
    },
    {
        "country": "JP",
        "name": "Okinawa",
        "lat": "26.33583",
        "lng": "127.80139"
    },
    {
        "country": "JP",
        "name": "Kushima",
        "lat": "31.48621",
        "lng": "131.2421"
    },
    {
        "country": "JP",
        "name": "Hikari",
        "lat": "33.955",
        "lng": "131.95"
    },
    {
        "country": "JP",
        "name": "Nagato",
        "lat": "34.38333",
        "lng": "131.2"
    },
    {
        "country": "JP",
        "name": "Hasuda",
        "lat": "35.97113",
        "lng": "139.6491"
    },
    {
        "country": "JP",
        "name": "Kamifukuoka",
        "lat": "35.87266",
        "lng": "139.51369"
    },
    {
        "country": "JP",
        "name": "Sayama",
        "lat": "35.85295",
        "lng": "139.41212"
    },
    {
        "country": "JP",
        "name": "Fussa",
        "lat": "35.73667",
        "lng": "139.32361"
    },
    {
        "country": "JP",
        "name": "Asaka",
        "lat": "35.80472",
        "lng": "139.60194"
    },
    {
        "country": "JP",
        "name": "Wako",
        "lat": "35.78944",
        "lng": "139.62333"
    },
    {
        "country": "JP",
        "name": "Shimotoda",
        "lat": "35.815",
        "lng": "139.6853"
    },
    {
        "country": "JP",
        "name": "Kimitsu",
        "lat": "35.35043",
        "lng": "139.87029"
    },
    {
        "country": "JP",
        "name": "Miura",
        "lat": "35.14",
        "lng": "139.61917"
    },
    {
        "country": "JP",
        "name": "Wakayama",
        "lat": "34.23333",
        "lng": "135.16667"
    },
    {
        "country": "JP",
        "name": "Iyo",
        "lat": "33.75139",
        "lng": "132.70139"
    },
    {
        "country": "JP",
        "name": "Uwajima",
        "lat": "33.22375",
        "lng": "132.56001"
    },
    {
        "country": "JP",
        "name": "Saijo",
        "lat": "33.91667",
        "lng": "133.18333"
    },
    {
        "country": "JP",
        "name": "Ozu",
        "lat": "33.5",
        "lng": "132.55"
    },
    {
        "country": "JP",
        "name": "Matsuyama",
        "lat": "33.83916",
        "lng": "132.76574"
    },
    {
        "country": "JP",
        "name": "Masaki-cho",
        "lat": "33.78757",
        "lng": "132.71124"
    },
    {
        "country": "JP",
        "name": "Kawanoecho",
        "lat": "34.01654",
        "lng": "133.57844"
    },
    {
        "country": "JP",
        "name": "Imabari-shi",
        "lat": "34.07001",
        "lng": "133.00023"
    },
    {
        "country": "JP",
        "name": "Hojo",
        "lat": "33.97661",
        "lng": "132.77767"
    },
    {
        "country": "JP",
        "name": "Yuzawa",
        "lat": "39.16667",
        "lng": "140.5"
    },
    {
        "country": "JP",
        "name": "Yotsukaido",
        "lat": "35.65",
        "lng": "140.16667"
    },
    {
        "country": "JP",
        "name": "Yonezawa",
        "lat": "37.91",
        "lng": "140.11667"
    },
    {
        "country": "JP",
        "name": "Yokote",
        "lat": "39.31691",
        "lng": "140.55034"
    },
    {
        "country": "JP",
        "name": "Yokaichiba",
        "lat": "35.7",
        "lng": "140.55"
    },
    {
        "country": "JP",
        "name": "Yanagawamachi-saiwaicho",
        "lat": "37.85",
        "lng": "140.6"
    },
    {
        "country": "JP",
        "name": "Yamoto",
        "lat": "38.42738",
        "lng": "141.21487"
    },
    {
        "country": "JP",
        "name": "Yamagata",
        "lat": "38.23333",
        "lng": "140.36667"
    },
    {
        "country": "JP",
        "name": "Yamada",
        "lat": "39.46667",
        "lng": "141.95"
    },
    {
        "country": "JP",
        "name": "Yachimata",
        "lat": "35.65",
        "lng": "140.31667"
    },
    {
        "country": "JP",
        "name": "Watari",
        "lat": "38.035",
        "lng": "140.85111"
    },
    {
        "country": "JP",
        "name": "Wakuya",
        "lat": "38.54465",
        "lng": "141.13461"
    },
    {
        "country": "JP",
        "name": "Ushiku",
        "lat": "35.96667",
        "lng": "140.13333"
    },
    {
        "country": "JP",
        "name": "Tsukuba",
        "lat": "36.2",
        "lng": "140.1"
    },
    {
        "country": "JP",
        "name": "Toride",
        "lat": "35.9",
        "lng": "140.08333"
    },
    {
        "country": "JP",
        "name": "Tono",
        "lat": "39.31667",
        "lng": "141.53333"
    },
    {
        "country": "JP",
        "name": "Tomobe",
        "lat": "36.35",
        "lng": "140.3"
    },
    {
        "country": "JP",
        "name": "Tomiya",
        "lat": "38.39306",
        "lng": "140.88611"
    },
    {
        "country": "JP",
        "name": "Togane",
        "lat": "35.55",
        "lng": "140.36667"
    },
    {
        "country": "JP",
        "name": "Tendo",
        "lat": "38.35361",
        "lng": "140.36972"
    },
    {
        "country": "JP",
        "name": "Takahata",
        "lat": "38.0025",
        "lng": "140.19111"
    },
    {
        "country": "JP",
        "name": "Takahagi",
        "lat": "36.71667",
        "lng": "140.71667"
    },
    {
        "country": "JP",
        "name": "Tagajo-shi",
        "lat": "38.3",
        "lng": "141"
    },
    {
        "country": "JP",
        "name": "Sukagawa",
        "lat": "37.28333",
        "lng": "140.38333"
    },
    {
        "country": "JP",
        "name": "Shizukuishi",
        "lat": "39.69414",
        "lng": "140.98442"
    },
    {
        "country": "JP",
        "name": "Shisui",
        "lat": "35.71667",
        "lng": "140.26667"
    },
    {
        "country": "JP",
        "name": "Shiroishi",
        "lat": "38.00333",
        "lng": "140.61833"
    },
    {
        "country": "JP",
        "name": "Shiroi",
        "lat": "35.8",
        "lng": "140.06667"
    },
    {
        "country": "JP",
        "name": "Shiogama",
        "lat": "38.31667",
        "lng": "141.03333"
    },
    {
        "country": "JP",
        "name": "Shinjo",
        "lat": "38.75861",
        "lng": "140.30083"
    },
    {
        "country": "JP",
        "name": "Sendai",
        "lat": "38.26667",
        "lng": "140.86667"
    },
    {
        "country": "JP",
        "name": "Sawara",
        "lat": "35.88333",
        "lng": "140.5"
    },
    {
        "country": "JP",
        "name": "Sakura",
        "lat": "35.71667",
        "lng": "140.23333"
    },
    {
        "country": "JP",
        "name": "Sagae",
        "lat": "38.3725",
        "lng": "140.2725"
    },
    {
        "country": "JP",
        "name": "Ryugasaki",
        "lat": "35.9",
        "lng": "140.18333"
    },
    {
        "country": "JP",
        "name": "Rifu",
        "lat": "38.33092",
        "lng": "140.97691"
    },
    {
        "country": "JP",
        "name": "Otsuchi",
        "lat": "39.36667",
        "lng": "141.9"
    },
    {
        "country": "JP",
        "name": "Otawara",
        "lat": "36.86667",
        "lng": "140.03333"
    },
    {
        "country": "JP",
        "name": "Onagawa Cho",
        "lat": "38.4466",
        "lng": "141.44794"
    },
    {
        "country": "JP",
        "name": "Omiya",
        "lat": "36.55",
        "lng": "140.41667"
    },
    {
        "country": "JP",
        "name": "Omigawa",
        "lat": "35.85",
        "lng": "140.61667"
    },
    {
        "country": "JP",
        "name": "Omagari",
        "lat": "39.45",
        "lng": "140.48333"
    },
    {
        "country": "JP",
        "name": "Okunoya",
        "lat": "36.28333",
        "lng": "140.41667"
    },
    {
        "country": "JP",
        "name": "Okawara",
        "lat": "38.05",
        "lng": "140.73361"
    },
    {
        "country": "JP",
        "name": "Ohara",
        "lat": "35.24761",
        "lng": "140.39289"
    },
    {
        "country": "JP",
        "name": "Ofunato",
        "lat": "39.07167",
        "lng": "141.71667"
    },
    {
        "country": "JP",
        "name": "Obanazawa",
        "lat": "38.60333",
        "lng": "140.40194"
    },
    {
        "country": "JP",
        "name": "Oarai",
        "lat": "36.31409",
        "lng": "140.58389"
    },
    {
        "country": "JP",
        "name": "Oami",
        "lat": "35.51667",
        "lng": "140.31667"
    },
    {
        "country": "JP",
        "name": "Nihommatsu",
        "lat": "37.58333",
        "lng": "140.43333"
    },
    {
        "country": "JP",
        "name": "Natori-shi",
        "lat": "38.16667",
        "lng": "140.88333"
    },
    {
        "country": "JP",
        "name": "Naruto",
        "lat": "35.6",
        "lng": "140.41667"
    },
    {
        "country": "JP",
        "name": "Narita",
        "lat": "35.78333",
        "lng": "140.31667"
    },
    {
        "country": "JP",
        "name": "Namie",
        "lat": "37.48333",
        "lng": "141"
    },
    {
        "country": "JP",
        "name": "Naka",
        "lat": "36.05",
        "lng": "140.16667"
    },
    {
        "country": "JP",
        "name": "Nagai",
        "lat": "38.10361",
        "lng": "140.035"
    },
    {
        "country": "JP",
        "name": "Motomiya",
        "lat": "37.51391",
        "lng": "140.40063"
    },
    {
        "country": "JP",
        "name": "Motegi",
        "lat": "36.51667",
        "lng": "140.18333"
    },
    {
        "country": "JP",
        "name": "Moriya",
        "lat": "35.93333",
        "lng": "140"
    },
    {
        "country": "JP",
        "name": "Morioka",
        "lat": "39.7",
        "lng": "141.15"
    },
    {
        "country": "JP",
        "name": "Mooka",
        "lat": "36.43333",
        "lng": "140.01667"
    },
    {
        "country": "JP",
        "name": "Mobara",
        "lat": "35.42583",
        "lng": "140.29608"
    },
    {
        "country": "JP",
        "name": "Mizusawa",
        "lat": "39.13333",
        "lng": "141.13333"
    },
    {
        "country": "JP",
        "name": "Miyako",
        "lat": "39.64691",
        "lng": "141.94057"
    },
    {
        "country": "JP",
        "name": "Mito",
        "lat": "36.35",
        "lng": "140.45"
    },
    {
        "country": "JP",
        "name": "Miharu",
        "lat": "37.43333",
        "lng": "140.48333"
    },
    {
        "country": "JP",
        "name": "Matsushima",
        "lat": "38.37357",
        "lng": "141.06105"
    },
    {
        "country": "JP",
        "name": "Mashiko",
        "lat": "36.46667",
        "lng": "140.1"
    },
    {
        "country": "JP",
        "name": "Marumori",
        "lat": "37.91667",
        "lng": "140.76667"
    },
    {
        "country": "JP",
        "name": "Makabe",
        "lat": "36.26667",
        "lng": "140.1"
    },
    {
        "country": "JP",
        "name": "Kuroiso",
        "lat": "36.96667",
        "lng": "140.05"
    },
    {
        "country": "JP",
        "name": "Koriyama",
        "lat": "37.4",
        "lng": "140.38333"
    },
    {
        "country": "JP",
        "name": "Kogota",
        "lat": "38.55",
        "lng": "141.05"
    },
    {
        "country": "JP",
        "name": "Kitakami",
        "lat": "39.28333",
        "lng": "141.11667"
    },
    {
        "country": "JP",
        "name": "Kitaibaraki",
        "lat": "36.78671",
        "lng": "140.74901"
    },
    {
        "country": "JP",
        "name": "Kesennuma",
        "lat": "38.90112",
        "lng": "141.57746"
    },
    {
        "country": "JP",
        "name": "Kamogawa",
        "lat": "35.0969",
        "lng": "140.1003"
    },
    {
        "country": "JP",
        "name": "Katsuura",
        "lat": "35.14621",
        "lng": "140.31507"
    },
    {
        "country": "JP",
        "name": "Katsuta",
        "lat": "36.38333",
        "lng": "140.53333"
    },
    {
        "country": "JP",
        "name": "Katori-shi",
        "lat": "35.89767",
        "lng": "140.49943"
    },
    {
        "country": "JP",
        "name": "Kasama",
        "lat": "36.38333",
        "lng": "140.26667"
    },
    {
        "country": "JP",
        "name": "Karasuyama",
        "lat": "36.65",
        "lng": "140.15"
    },
    {
        "country": "JP",
        "name": "Kaminoyama",
        "lat": "38.15389",
        "lng": "140.27361"
    },
    {
        "country": "JP",
        "name": "Kamaishi",
        "lat": "39.27694",
        "lng": "141.86801"
    },
    {
        "country": "JP",
        "name": "Kakunodatemachi",
        "lat": "39.58926",
        "lng": "140.56724"
    },
    {
        "country": "JP",
        "name": "Kakuda",
        "lat": "37.97451",
        "lng": "140.77202"
    },
    {
        "country": "JP",
        "name": "Iwase",
        "lat": "36.35",
        "lng": "140.1"
    },
    {
        "country": "JP",
        "name": "Iwanuma",
        "lat": "38.10472",
        "lng": "140.85944"
    },
    {
        "country": "JP",
        "name": "Iwaki",
        "lat": "37.05",
        "lng": "140.88333"
    },
    {
        "country": "JP",
        "name": "Itako",
        "lat": "35.93333",
        "lng": "140.55"
    },
    {
        "country": "JP",
        "name": "Ishioka",
        "lat": "36.18333",
        "lng": "140.26667"
    },
    {
        "country": "JP",
        "name": "Ishinomaki",
        "lat": "38.41667",
        "lng": "141.3"
    },
    {
        "country": "JP",
        "name": "Ishikawa",
        "lat": "37.15",
        "lng": "140.45"
    },
    {
        "country": "JP",
        "name": "Inawashiro",
        "lat": "37.56667",
        "lng": "140.11667"
    },
    {
        "country": "JP",
        "name": "Ichinoseki",
        "lat": "38.91667",
        "lng": "141.13333"
    },
    {
        "country": "JP",
        "name": "Ichihara",
        "lat": "35.51667",
        "lng": "140.08333"
    },
    {
        "country": "JP",
        "name": "Hokota",
        "lat": "36.15",
        "lng": "140.51667"
    },
    {
        "country": "JP",
        "name": "Hobaramachi",
        "lat": "37.81667",
        "lng": "140.55"
    },
    {
        "country": "JP",
        "name": "Hitachi",
        "lat": "36.6",
        "lng": "140.65"
    },
    {
        "country": "JP",
        "name": "Higashine",
        "lat": "38.43889",
        "lng": "140.40056"
    },
    {
        "country": "JP",
        "name": "Hasaki",
        "lat": "35.73333",
        "lng": "140.83333"
    },
    {
        "country": "JP",
        "name": "Hanamaki",
        "lat": "39.38333",
        "lng": "141.11667"
    },
    {
        "country": "JP",
        "name": "Furukawa",
        "lat": "38.57167",
        "lng": "140.95556"
    },
    {
        "country": "JP",
        "name": "Funehikimachi-funehiki",
        "lat": "37.44722",
        "lng": "140.5771"
    },
    {
        "country": "JP",
        "name": "Funaishikawa",
        "lat": "36.46667",
        "lng": "140.56667"
    },
    {
        "country": "JP",
        "name": "Fukushima",
        "lat": "37.75",
        "lng": "140.46667"
    },
    {
        "country": "JP",
        "name": "Fujishiro",
        "lat": "35.91667",
        "lng": "140.11667"
    },
    {
        "country": "JP",
        "name": "Edosaki",
        "lat": "35.95",
        "lng": "140.31667"
    },
    {
        "country": "JP",
        "name": "Date",
        "lat": "37.81667",
        "lng": "140.5"
    },
    {
        "country": "JP",
        "name": "Daigo",
        "lat": "36.76667",
        "lng": "140.35"
    },
    {
        "country": "JP",
        "name": "Choshi",
        "lat": "35.73333",
        "lng": "140.83333"
    },
    {
        "country": "JP",
        "name": "Chiba",
        "lat": "35.6",
        "lng": "140.11667"
    },
    {
        "country": "JP",
        "name": "Asahi",
        "lat": "35.71667",
        "lng": "140.65"
    },
    {
        "country": "JP",
        "name": "Ami",
        "lat": "36.03333",
        "lng": "140.2"
    },
    {
        "country": "JP",
        "name": "Akita",
        "lat": "39.71667",
        "lng": "140.11667"
    },
    {
        "country": "JP",
        "name": "Abiko",
        "lat": "35.86667",
        "lng": "140.01667"
    },
    {
        "country": "JP",
        "name": "Otrada",
        "lat": "44.06832",
        "lng": "145.86454"
    },
    {
        "country": "JP",
        "name": "Motomachi",
        "lat": "43.82634",
        "lng": "144.09638"
    },
    {
        "country": "JP",
        "name": "Yubari",
        "lat": "43.03778",
        "lng": "141.95778"
    },
    {
        "country": "JP",
        "name": "Wakkanai",
        "lat": "45.40944",
        "lng": "141.67389"
    },
    {
        "country": "JP",
        "name": "Utashinai",
        "lat": "43.51667",
        "lng": "142.05"
    },
    {
        "country": "JP",
        "name": "Tomakomai",
        "lat": "42.63694",
        "lng": "141.60333"
    },
    {
        "country": "JP",
        "name": "Tobetsu",
        "lat": "43.21694",
        "lng": "141.51694"
    },
    {
        "country": "JP",
        "name": "Mutsu",
        "lat": "41.28944",
        "lng": "141.21694"
    },
    {
        "country": "JP",
        "name": "Takikawa",
        "lat": "43.55278",
        "lng": "141.90639"
    },
    {
        "country": "JP",
        "name": "Takanosu",
        "lat": "40.22268",
        "lng": "140.36611"
    },
    {
        "country": "JP",
        "name": "Sunagawa",
        "lat": "43.48639",
        "lng": "141.90556"
    },
    {
        "country": "JP",
        "name": "Shizunai-furukawacho",
        "lat": "42.33389",
        "lng": "142.36694"
    },
    {
        "country": "JP",
        "name": "Shiraoi",
        "lat": "42.55",
        "lng": "141.35"
    },
    {
        "country": "JP",
        "name": "Shimo-furano",
        "lat": "43.35",
        "lng": "142.38333"
    },
    {
        "country": "JP",
        "name": "Shibetsu",
        "lat": "43.65899",
        "lng": "145.13197"
    },
    {
        "country": "JP",
        "name": "Sapporo",
        "lat": "43.06667",
        "lng": "141.35"
    },
    {
        "country": "JP",
        "name": "Rumoi",
        "lat": "43.93444",
        "lng": "141.64278"
    },
    {
        "country": "JP",
        "name": "Otofuke",
        "lat": "42.99167",
        "lng": "143.20028"
    },
    {
        "country": "JP",
        "name": "Otaru",
        "lat": "43.18944",
        "lng": "141.00222"
    },
    {
        "country": "JP",
        "name": "Odate",
        "lat": "40.27178",
        "lng": "140.55756"
    },
    {
        "country": "JP",
        "name": "Obihiro",
        "lat": "42.91722",
        "lng": "143.20444"
    },
    {
        "country": "JP",
        "name": "Noshiro",
        "lat": "40.20838",
        "lng": "140.0274"
    },
    {
        "country": "JP",
        "name": "Noboribetsu",
        "lat": "42.45215",
        "lng": "141.17914"
    },
    {
        "country": "JP",
        "name": "Nemuro",
        "lat": "43.32361",
        "lng": "145.575"
    },
    {
        "country": "JP",
        "name": "Nayoro",
        "lat": "44.35056",
        "lng": "142.45778"
    },
    {
        "country": "JP",
        "name": "Nanae",
        "lat": "41.88333",
        "lng": "140.68333"
    },
    {
        "country": "JP",
        "name": "Namioka",
        "lat": "40.71069",
        "lng": "140.59048"
    },
    {
        "country": "JP",
        "name": "Mobetsu",
        "lat": "44.27096",
        "lng": "143.36025"
    },
    {
        "country": "JP",
        "name": "Muroran",
        "lat": "42.31722",
        "lng": "140.98806"
    },
    {
        "country": "JP",
        "name": "Mombetsu",
        "lat": "44.3525",
        "lng": "143.3525"
    },
    {
        "country": "JP",
        "name": "Misawa",
        "lat": "40.68682",
        "lng": "141.38969"
    },
    {
        "country": "JP",
        "name": "Yoichi",
        "lat": "43.20389",
        "lng": "140.77028"
    },
    {
        "country": "JP",
        "name": "Mikasa",
        "lat": "43.25581",
        "lng": "141.88818"
    },
    {
        "country": "JP",
        "name": "Makubetsu",
        "lat": "45.37139",
        "lng": "141.82111"
    },
    {
        "country": "JP",
        "name": "Kushiro",
        "lat": "42.975",
        "lng": "144.37472"
    },
    {
        "country": "JP",
        "name": "Kuroishi",
        "lat": "40.64581",
        "lng": "140.58354"
    },
    {
        "country": "JP",
        "name": "Kuji",
        "lat": "40.18778",
        "lng": "141.76889"
    },
    {
        "country": "JP",
        "name": "Shimokizukuri",
        "lat": "40.81609",
        "lng": "140.37539"
    },
    {
        "country": "JP",
        "name": "Kitami",
        "lat": "43.80306",
        "lng": "143.89083"
    },
    {
        "country": "JP",
        "name": "Kamikawa",
        "lat": "43.84",
        "lng": "142.77111"
    },
    {
        "country": "JP",
        "name": "Kamiiso",
        "lat": "41.82013",
        "lng": "140.64482"
    },
    {
        "country": "JP",
        "name": "Iwanai",
        "lat": "42.97444",
        "lng": "140.50889"
    },
    {
        "country": "JP",
        "name": "Iwamizawa",
        "lat": "43.20028",
        "lng": "141.75972"
    },
    {
        "country": "JP",
        "name": "Ishikari",
        "lat": "43.23972",
        "lng": "141.35389"
    },
    {
        "country": "JP",
        "name": "Ichinohe",
        "lat": "40.21965",
        "lng": "141.28986"
    },
    {
        "country": "JP",
        "name": "Kitahiroshima",
        "lat": "42.97583",
        "lng": "141.56722"
    },
    {
        "country": "JP",
        "name": "Hirosaki",
        "lat": "40.59306",
        "lng": "140.4725"
    },
    {
        "country": "JP",
        "name": "Hanawa",
        "lat": "40.18361",
        "lng": "140.78722"
    },
    {
        "country": "JP",
        "name": "Hakodate",
        "lat": "41.77583",
        "lng": "140.73667"
    },
    {
        "country": "JP",
        "name": "Hachinohe",
        "lat": "40.5",
        "lng": "141.5"
    },
    {
        "country": "JP",
        "name": "Furano",
        "lat": "43.35",
        "lng": "142.38333"
    },
    {
        "country": "JP",
        "name": "Fukagawa",
        "lat": "43.70806",
        "lng": "142.03917"
    },
    {
        "country": "JP",
        "name": "Ebetsu",
        "lat": "43.10806",
        "lng": "141.55056"
    },
    {
        "country": "JP",
        "name": "Date",
        "lat": "42.46806",
        "lng": "140.86806"
    },
    {
        "country": "JP",
        "name": "Chitose",
        "lat": "42.81944",
        "lng": "141.65222"
    },
    {
        "country": "JP",
        "name": "Bibai",
        "lat": "43.32472",
        "lng": "141.85861"
    },
    {
        "country": "JP",
        "name": "Ashibetsu",
        "lat": "43.50972",
        "lng": "142.18556"
    },
    {
        "country": "JP",
        "name": "Asahikawa",
        "lat": "43.77063",
        "lng": "142.36489"
    },
    {
        "country": "JP",
        "name": "Aomori",
        "lat": "40.81667",
        "lng": "140.73333"
    },
    {
        "country": "JP",
        "name": "Akabira",
        "lat": "43.55139",
        "lng": "142.05306"
    },
    {
        "country": "JP",
        "name": "Abashiri",
        "lat": "44.02127",
        "lng": "144.26971"
    },
    {
        "country": "JP",
        "name": "Goshogawara",
        "lat": "40.80444",
        "lng": "140.44139"
    },
    {
        "country": "JP",
        "name": "Aso",
        "lat": "32.93726",
        "lng": "131.08008"
    },
    {
        "country": "JP",
        "name": "Koya",
        "lat": "34.21294",
        "lng": "135.62244"
    },
    {
        "country": "JP",
        "name": "Kihoku-cho",
        "lat": "33.25592",
        "lng": "132.68343"
    },
    {
        "country": "JP",
        "name": "Nanto-shi",
        "lat": "36.56922",
        "lng": "136.91162"
    },
    {
        "country": "JP",
        "name": "Kawage",
        "lat": "34.80447",
        "lng": "136.54645"
    },
    {
        "country": "JP",
        "name": "Asahi",
        "lat": "35.97259",
        "lng": "136.12455"
    },
    {
        "country": "JP",
        "name": "Neyagawa",
        "lat": "34.76615",
        "lng": "135.62759"
    },
    {
        "country": "JP",
        "name": "Hitachi-Naka",
        "lat": "36.39659",
        "lng": "140.53479"
    },
    {
        "country": "JP",
        "name": "Chikusei",
        "lat": "36.316",
        "lng": "139.98238"
    },
    {
        "country": "JP",
        "name": "Kasumigaura",
        "lat": "36.15326",
        "lng": "140.24635"
    },
    {
        "country": "JP",
        "name": "Tsuchiura",
        "lat": "36.09047",
        "lng": "140.21047"
    },
    {
        "country": "JP",
        "name": "Tsukubamirai",
        "lat": "35.98411",
        "lng": "140.00929"
    },
    {
        "country": "JP",
        "name": "Omitama",
        "lat": "36.25449",
        "lng": "140.37962"
    },
    {
        "country": "JP",
        "name": "Hitachiomiya",
        "lat": "36.56447",
        "lng": "140.40269"
    },
    {
        "country": "JP",
        "name": "Kamisu",
        "lat": "35.89685",
        "lng": "140.66666"
    },
    {
        "country": "JP",
        "name": "Namegata",
        "lat": "36.00705",
        "lng": "140.49623"
    },
    {
        "country": "JP",
        "name": "Sakuragawa",
        "lat": "36.25052",
        "lng": "140.11565"
    },
    {
        "country": "JP",
        "name": "Bando",
        "lat": "36.06997",
        "lng": "139.86705"
    },
    {
        "country": "JP",
        "name": "Hitachi-ota",
        "lat": "36.5513",
        "lng": "140.52821"
    },
    {
        "country": "JP",
        "name": "Inashiki",
        "lat": "35.95633",
        "lng": "140.32356"
    },
    {
        "country": "JP",
        "name": "Azumino",
        "lat": "36.28815",
        "lng": "137.88705"
    },
    {
        "country": "JP",
        "name": "Chikuma",
        "lat": "36.52715",
        "lng": "138.08943"
    },
    {
        "country": "JP",
        "name": "Murayama",
        "lat": "38.46972",
        "lng": "140.41441"
    },
    {
        "country": "JP",
        "name": "Minamiashigara",
        "lat": "35.31947",
        "lng": "139.1096"
    },
    {
        "country": "JP",
        "name": "Ritto",
        "lat": "35.02745",
        "lng": "135.99971"
    },
    {
        "country": "JP",
        "name": "Takashima",
        "lat": "35.41347",
        "lng": "136.01612"
    },
    {
        "country": "JP",
        "name": "Koka",
        "lat": "34.9802",
        "lng": "136.15752"
    },
    {
        "country": "JP",
        "name": "Katsuragi",
        "lat": "34.48562",
        "lng": "135.69698"
    },
    {
        "country": "JP",
        "name": "Kashiba",
        "lat": "34.53472",
        "lng": "135.70925"
    },
    {
        "country": "JP",
        "name": "Nanto",
        "lat": "36.51274",
        "lng": "136.89352"
    },
    {
        "country": "JP",
        "name": "Oyabe",
        "lat": "36.66667",
        "lng": "136.85"
    },
    {
        "country": "JP",
        "name": "Imizu",
        "lat": "36.76835",
        "lng": "137.12572"
    },
    {
        "country": "JP",
        "name": "Kurobe-shi",
        "lat": "36.90123",
        "lng": "137.44955"
    },
    {
        "country": "JP",
        "name": "Tama",
        "lat": "35.6436",
        "lng": "139.46844"
    },
    {
        "country": "JP",
        "name": "Musashimurayama",
        "lat": "35.74242",
        "lng": "139.42635"
    },
    {
        "country": "JP",
        "name": "Akishima",
        "lat": "35.72085",
        "lng": "139.37999"
    },
    {
        "country": "JP",
        "name": "Higashiyamato",
        "lat": "35.76298",
        "lng": "139.44575"
    },
    {
        "country": "JP",
        "name": "Misato",
        "lat": "35.84373",
        "lng": "139.88347"
    },