[
    {
        "country": "KG",
        "name": "Tayan",
        "lat": "39.9026",
        "lng": "71.10826"
    },
    {
        "country": "KG",
        "name": "Suluktu",
        "lat": "39.93652",
        "lng": "69.56779"
    },
    {
        "country": "KG",
        "name": "Korgon",
        "lat": "39.88899",
        "lng": "69.93559"
    },
    {
        "country": "KG",
        "name": "Aydarken",
        "lat": "39.94319",
        "lng": "71.34184"
    },
    {
        "country": "KG",
        "name": "Katran",
        "lat": "39.84434",
        "lng": "70.01474"
    },
    {
        "country": "KG",
        "name": "Isfana",
        "lat": "39.83895",
        "lng": "69.5276"
    },
    {
        "country": "KG",
        "name": "Andarak",
        "lat": "39.76849",
        "lng": "69.46398"
    },
    {
        "country": "KG",
        "name": "Balykchy",
        "lat": "42.46017",
        "lng": "76.18709"
    },
    {
        "country": "KG",
        "name": "Uch-Korgon",
        "lat": "40.22881",
        "lng": "72.05924"
    },
    {
        "country": "KG",
        "name": "Tyup",
        "lat": "42.7276",
        "lng": "78.36476"
    },
    {
        "country": "KG",
        "name": "Tokmok",
        "lat": "42.84194",
        "lng": "75.30149"
    },
    {
        "country": "KG",
        "name": "Ak-Suu",
        "lat": "42.49948",
        "lng": "78.52702"
    },
    {
        "country": "KG",
        "name": "Tash-Kumyr",
        "lat": "41.34612",
        "lng": "72.21707"
    },
    {
        "country": "KG",
        "name": "Talas",
        "lat": "42.52277",
        "lng": "72.24274"
    },
    {
        "country": "KG",
        "name": "Suzak",
        "lat": "40.8982",
        "lng": "72.90481"
    },
    {
        "country": "KG",
        "name": "Chuy",
        "lat": "42.81973",
        "lng": "75.28233"
    },
    {
        "country": "KG",
        "name": "Sosnovka",
        "lat": "42.63707",
        "lng": "73.89608"
    },
    {
        "country": "KG",
        "name": "Sokuluk",
        "lat": "42.85401",
        "lng": "74.30257"
    },
    {
        "country": "KG",
        "name": "Pokrovka",
        "lat": "42.7362",
        "lng": "71.60982"
    },
    {
        "country": "KG",
        "name": "Kyzyl-Suu",
        "lat": "42.34211",
        "lng": "78.00644"
    },
    {
        "country": "KG",
        "name": "Uzgen",
        "lat": "40.76994",
        "lng": "73.30068"
    },
    {
        "country": "KG",
        "name": "Osh",
        "lat": "40.52828",
        "lng": "72.7985"
    },
    {
        "country": "KG",
        "name": "Orozbekovo",
        "lat": "40.05689",
        "lng": "71.66945"
    },
    {
        "country": "KG",
        "name": "Naryn",
        "lat": "41.42866",
        "lng": "75.99111"
    },
    {
        "country": "KG",
        "name": "Bakai-Ata",
        "lat": "42.49298",
        "lng": "71.9236"
    },
    {
        "country": "KG",
        "name": "Massy",
        "lat": "41.0601",
        "lng": "72.63285"
    },
    {
        "country": "KG",
        "name": "Lebedinovka",
        "lat": "42.88454",
        "lng": "74.67819"
    },
    {
        "country": "KG",
        "name": "Kyzyl-Kyya",
        "lat": "40.25684",
        "lng": "72.12793"
    },
    {
        "country": "KG",
        "name": "Kochkor",
        "lat": "42.21552",
        "lng": "75.75659"
    },
    {
        "country": "KG",
        "name": "Kochkor-Ata",
        "lat": "41.03709",
        "lng": "72.4832"
    },
    {
        "country": "KG",
        "name": "Kyzyl-Adyr",
        "lat": "42.61981",
        "lng": "71.5891"
    },
    {
        "country": "KG",
        "name": "Khalmion",
        "lat": "40.21218",
        "lng": "71.63274"
    },
    {
        "country": "KG",
        "name": "Kazarman",
        "lat": "41.40452",
        "lng": "74.02828"
    },
    {
        "country": "KG",
        "name": "Kerben",
        "lat": "41.49399",
        "lng": "71.75826"
    },
    {
        "country": "KG",
        "name": "Karavan",
        "lat": "40.29513",
        "lng": "72.18627"
    },
    {
        "country": "KG",
        "name": "Kara Suu",
        "lat": "40.7046",
        "lng": "72.86666"
    },
    {
        "country": "KG",
        "name": "Karakol",
        "lat": "42.49068",
        "lng": "78.39362"
    },
    {
        "country": "KG",
        "name": "Kara-Dzhygach",
        "lat": "40.12209",
        "lng": "72.09271"
    },
    {
        "country": "KG",
        "name": "Kara-Balta",
        "lat": "42.81423",
        "lng": "73.84813"
    },
    {
        "country": "KG",
        "name": "Kanysh-Kyya",
        "lat": "41.76536",
        "lng": "71.09181"
    },
    {
        "country": "KG",
        "name": "Kant",
        "lat": "42.89106",
        "lng": "74.85077"
    },
    {
        "country": "KG",
        "name": "Kaindy",
        "lat": "42.82469",
        "lng": "73.67585"
    },
    {
        "country": "KG",
        "name": "Kadzhi-Say",
        "lat": "42.14107",
        "lng": "77.17848"
    },
    {
        "country": "KG",
        "name": "Jalal-Abad",
        "lat": "40.93333",
        "lng": "73"
    },
    {
        "country": "KG",
        "name": "Ivanovka",
        "lat": "42.88778",
        "lng": "75.085"
    },
    {
        "country": "KG",
        "name": "Ivanovo-Alekseyevka",
        "lat": "42.54689",
        "lng": "72.20921"
    },
    {
        "country": "KG",
        "name": "Iradan",
        "lat": "40.26667",
        "lng": "72.1"
    },
    {
        "country": "KG",
        "name": "Gul\u2019cha",
        "lat": "40.3138",
        "lng": "73.44418"
    },
    {
        "country": "KG",
        "name": "Nookat",
        "lat": "40.26597",
        "lng": "72.61834"
    },
    {
        "country": "KG",
        "name": "Cholpon-Ata",
        "lat": "42.64944",
        "lng": "77.08225"
    },
    {
        "country": "KG",
        "name": "Chayek",
        "lat": "41.92768",
        "lng": "74.51699"
    },
    {
        "country": "KG",
        "name": "Kemin",
        "lat": "42.78611",
        "lng": "75.69167"
    },
    {
        "country": "KG",
        "name": "Bokombayevskoye",
        "lat": "42.11769",
        "lng": "76.99332"
    },
    {
        "country": "KG",
        "name": "Bishkek",
        "lat": "42.87",
        "lng": "74.59"
    },
    {
        "country": "KG",
        "name": "Belovodskoye",
        "lat": "42.82944",
        "lng": "74.1083"
    },
    {
        "country": "KG",
        "name": "Bazar-Korgon",
        "lat": "41.0376",
        "lng": "72.74586"
    },
    {
        "country": "KG",
        "name": "Batken",
        "lat": "40.06259",
        "lng": "70.81939"
    },
    {
        "country": "KG",
        "name": "Baetovo",
        "lat": "41.26668",
        "lng": "74.95698"
    },
    {
        "country": "KG",
        "name": "At-Bashi",
        "lat": "41.16951",
        "lng": "75.80099"
    },
    {
        "country": "KG",
        "name": "Aravan",
        "lat": "40.51608",
        "lng": "72.4996"
    },
    {
        "country": "KG",
        "name": "Alga",
        "lat": "40.2363",
        "lng": "71.49899"
    },
    {
        "country": "KG",
        "name": "Ala-Buka",
        "lat": "41.4105",
        "lng": "71.48628"
    },
    {
        "country": "KG",
        "name": "Beshkent",
        "lat": "40.03083",
        "lng": "69.81861"
    },
    {
        "country": "KG",
        "name": "Toktogul",
        "lat": "41.87442",
        "lng": "72.94192"
    },
    {
        "country": "KG",
        "name": "Pulgon",
        "lat": "40.14724",
        "lng": "71.72962"
    },
    {
        "country": "KG",
        "name": "Talas",
        "lat": "42.35473",
        "lng": "72.65678"
    },
    {
        "country": "KG",
        "name": "\u00dcch-Terek",
        "lat": "41.76222",
        "lng": "73.20033"
    },
    {
        "country": "KG",
        "name": "Kara-D\u00ebb\u00eb",
        "lat": "40.24428",
        "lng": "72.04475"
    },
    {
        "country": "KG",
        "name": "Kara-Kulja",
        "lat": "40.63223",
        "lng": "73.59249"
    },
    {
        "country": "KG",
        "name": "Chek",
        "lat": "40.10934",
        "lng": "70.84636"
    },
    {
        "country": "KG",
        "name": "Kara-Bak",
        "lat": "40.16169",
        "lng": "70.81959"
    },
    {
        "country": "KG",
        "name": "Samarkandyk",
        "lat": "39.9981",
        "lng": "70.54589"
    },
    {
        "country": "KG",
        "name": "Kyrgyz-Kyshtak",
        "lat": "40.31055",
        "lng": "71.34966"
    },
    {
        "country": "KG",
        "name": "Kyzyl-Bulak",
        "lat": "40.0517",
        "lng": "71.73726"
    },
    {
        "country": "KG",
        "name": "Boz-Adyr",
        "lat": "39.9986",
        "lng": "71.07338"
    },
    {
        "country": "KG",
        "name": "Markaz",
        "lat": "40.24019",
        "lng": "71.89983"
    },
    {
        "country": "KG",
        "name": "Kulundu",
        "lat": "40.10635",
        "lng": "69.64127"
    },
    {
        "country": "KG",
        "name": "Ak-Suu",
        "lat": "39.89877",
        "lng": "69.3716"
    },
    {
        "country": "KG",
        "name": "Toguz-Bulak",
        "lat": "39.84331",
        "lng": "69.71355"
    },
    {
        "country": "KG",
        "name": "Ak-Tatyr",
        "lat": "39.9599",
        "lng": "70.48451"
    },
    {
        "country": "KG",
        "name": "Ormosh",
        "lat": "39.94591",
        "lng": "71.26086"
    },
    {
        "country": "KG",
        "name": "Ak-Say",
        "lat": "39.87438",
        "lng": "70.52211"
    }
]