[
    {
        "country": "KI",
        "name": "Teaoraereke Village",
        "lat": "1.33309",
        "lng": "173.01162"
    },
    {
        "country": "KI",
        "name": "Rawannawi Village",
        "lat": "2.05379",
        "lng": "173.26354"
    },
    {
        "country": "KI",
        "name": "Buota Village",
        "lat": "1.39078",
        "lng": "173.13082"
    },
    {
        "country": "KI",
        "name": "Betio Village",
        "lat": "1.35797",
        "lng": "172.92105"
    },
    {
        "country": "KI",
        "name": "Banraeaba Village",
        "lat": "1.3454",
        "lng": "173.03464"
    },
    {
        "country": "KI",
        "name": "Tarawa",
        "lat": "1.3278",
        "lng": "172.97696"
    },
    {
        "country": "KI",
        "name": "Napari Village",
        "lat": "3.90806",
        "lng": "-159.38832"
    },
    {
        "country": "KI",
        "name": "London Village",
        "lat": "1.98487",
        "lng": "-157.47502"
    },
    {
        "country": "KI",
        "name": "Tabwakea Village",
        "lat": "2.01643",
        "lng": "-157.48773"
    },
    {
        "country": "KI",
        "name": "Banana Village",
        "lat": "1.98329",
        "lng": "-157.36526"
    },
    {
        "country": "KI",
        "name": "Makin Village",
        "lat": "3.3644",
        "lng": "172.98352"
    },
    {
        "country": "KI",
        "name": "Bairiki Village",
        "lat": "1.32924",
        "lng": "172.97522"
    },
    {
        "country": "KI",
        "name": "Ambo Village",
        "lat": "1.35317",
        "lng": "173.04259"
    },
    {
        "country": "KI",
        "name": "Bonriki Village",
        "lat": "1.38081",
        "lng": "173.13887"
    },
    {
        "country": "KI",
        "name": "Temaiku Village",
        "lat": "1.36292",
        "lng": "173.16226"
    },
    {
        "country": "KI",
        "name": "Nawerewere Village",
        "lat": "1.36362",
        "lng": "173.13935"
    },
    {
        "country": "KI",
        "name": "Bikenibeu Village",
        "lat": "1.3673",
        "lng": "173.12415"
    },
    {
        "country": "KI",
        "name": "Eita Village",
        "lat": "1.36154",
        "lng": "173.08113"
    }
]