[
    {
        "country": "KW",
        "name": "Janub as Surrah",
        "lat": "29.26917",
        "lng": "47.97806"
    },
    {
        "country": "KW",
        "name": "?awalli",
        "lat": "29.33278",
        "lng": "48.02861"
    },
    {
        "country": "KW",
        "name": "Bayan",
        "lat": "29.3032",
        "lng": "48.04881"
    },
    {
        "country": "KW",
        "name": "Az Zawr",
        "lat": "29.4425",
        "lng": "48.27472"
    },
    {
        "country": "KW",
        "name": "As Salimiyah",
        "lat": "29.33389",
        "lng": "48.07611"
    },
    {
        "country": "KW",
        "name": "Ash Shamiyah",
        "lat": "29.34722",
        "lng": "47.96167"
    },
    {
        "country": "KW",
        "name": "Ar Rumaythiyah",
        "lat": "29.31167",
        "lng": "48.07417"
    },
    {
        "country": "KW",
        "name": "Ar Riqqah",
        "lat": "29.14583",
        "lng": "48.09472"
    },
    {
        "country": "KW",
        "name": "Al Wafrah",
        "lat": "28.63917",
        "lng": "47.93056"
    },
    {
        "country": "KW",
        "name": "Al Manqaf",
        "lat": "29.09611",
        "lng": "48.13278"
    },
    {
        "country": "KW",
        "name": "Al Mahbulah",
        "lat": "29.145",
        "lng": "48.13028"
    },
    {
        "country": "KW",
        "name": "Kuwait City",
        "lat": "29.36972",
        "lng": "47.97833"
    },
    {
        "country": "KW",
        "name": "Al Jahra\u2019",
        "lat": "29.3375",
        "lng": "47.65806"
    },
    {
        "country": "KW",
        "name": "Al Funaytis",
        "lat": "29.22528",
        "lng": "48.10167"
    },
    {
        "country": "KW",
        "name": "Al Fa?a?il",
        "lat": "29.0825",
        "lng": "48.13028"
    },
    {
        "country": "KW",
        "name": "Al Fintas",
        "lat": "29.17389",
        "lng": "48.12111"
    },
    {
        "country": "KW",
        "name": "Al Farwaniyah",
        "lat": "29.2775",
        "lng": "47.95861"
    },
    {
        "country": "KW",
        "name": "Al A?madi",
        "lat": "29.07694",
        "lng": "48.08389"
    },
    {
        "country": "KW",
        "name": "Ad Dasmah",
        "lat": "29.365",
        "lng": "48.00139"
    },
    {
        "country": "KW",
        "name": "Salw\u00e1",
        "lat": "29.29583",
        "lng": "48.07861"
    },
    {
        "country": "KW",
        "name": "Ar Rabiyah",
        "lat": "29.295",
        "lng": "47.93306"
    },
    {
        "country": "KW",
        "name": "Saba? as Salim",
        "lat": "29.25722",
        "lng": "48.05722"
    },
    {
        "country": "KW",
        "name": "Mubarak al Kabir",
        "lat": "29.18979",
        "lng": "48.08716"
    },
    {
        "country": "KW",
        "name": "Al-Masayel",
        "lat": "29.2393",
        "lng": "48.08862"
    },
    {
        "country": "KW",
        "name": "Abu Fatira",
        "lat": "29.19746",
        "lng": "48.10278"
    },
    {
        "country": "KW",
        "name": "Abu Al Hasaniya",
        "lat": "29.19076",
        "lng": "48.11355"
    }
]