[
    {
        "country": "MH",
        "name": "Likiep",
        "lat": "9.82511",
        "lng": "169.31065"
    },
    {
        "country": "MH",
        "name": "Jabor",
        "lat": "5.92098",
        "lng": "169.64335"
    },
    {
        "country": "MH",
        "name": "Ailuk",
        "lat": "10.21972",
        "lng": "169.97967"
    },
    {
        "country": "MH",
        "name": "Majuro",
        "lat": "7.08971",
        "lng": "171.38027"
    },
    {
        "country": "MH",
        "name": "Taroa",
        "lat": "8.70576",
        "lng": "171.2275"
    },
    {
        "country": "MH",
        "name": "Ebaye",
        "lat": "8.77479",
        "lng": "167.73919"
    },
    {
        "country": "MH",
        "name": "Enewetak",
        "lat": "11.34735",
        "lng": "162.33733"
    },
    {
        "country": "MH",
        "name": "Ebon",
        "lat": "4.58199",
        "lng": "168.69636"
    },
    {
        "country": "MH",
        "name": "Aur",
        "lat": "8.1499",
        "lng": "171.16869"
    },
    {
        "country": "MH",
        "name": "Arno",
        "lat": "7.06691",
        "lng": "171.55413"
    },
    {
        "country": "MH",
        "name": "Airuk",
        "lat": "7.27717",
        "lng": "168.8203"
    },
    {
        "country": "MH",
        "name": "Mili",
        "lat": "6.0815",
        "lng": "171.73502"
    },
    {
        "country": "MH",
        "name": "Lae",
        "lat": "8.92217",
        "lng": "166.26344"
    },
    {
        "country": "MH",
        "name": "Utrik",
        "lat": "11.22778",
        "lng": "169.84739"
    },
    {
        "country": "MH",
        "name": "Ujae",
        "lat": "8.93218",
        "lng": "165.76416"
    },
    {
        "country": "MH",
        "name": "Rongelap",
        "lat": "11.16351",
        "lng": "166.89408"
    },
    {
        "country": "MH",
        "name": "Loen",
        "lat": "7.76007",
        "lng": "168.23072"
    },
    {
        "country": "MH",
        "name": "Namdrik",
        "lat": "5.59944",
        "lng": "168.10282"
    },
    {
        "country": "MH",
        "name": "Mejit",
        "lat": "10.27531",
        "lng": "170.86461"
    },
    {
        "country": "MH",
        "name": "Lib",
        "lat": "8.31221",
        "lng": "167.37662"
    },
    {
        "country": "MH",
        "name": "Kili",
        "lat": "5.64387",
        "lng": "169.12109"
    },
    {
        "country": "MH",
        "name": "Jabat",
        "lat": "7.75003",
        "lng": "168.97513"
    },
    {
        "country": "MH",
        "name": "Wotje",
        "lat": "9.45429",
        "lng": "170.23674"
    },
    {
        "country": "MH",
        "name": "Wotho",
        "lat": "10.16575",
        "lng": "166.01022"
    },
    {
        "country": "MH",
        "name": "RMI Capitol",
        "lat": "7.08931",
        "lng": "171.3805"
    }
]