[
    {
        "country": "MN",
        "name": "Uyenchi Somon",
        "lat": "46.05",
        "lng": "92.01667"
    },
    {
        "country": "MN",
        "name": "Uujim",
        "lat": "48.9",
        "lng": "89.61667"
    },
    {
        "country": "MN",
        "name": "Urdgol",
        "lat": "47.83333",
        "lng": "92.65"
    },
    {
        "country": "MN",
        "name": "Uliastay",
        "lat": "47.74167",
        "lng": "96.84444"
    },
    {
        "country": "MN",
        "name": "Ulaantolgoy",
        "lat": "46.68333",
        "lng": "92.78333"
    },
    {
        "country": "MN",
        "name": "Ulaangom",
        "lat": "49.98111",
        "lng": "92.06667"
    },
    {
        "country": "MN",
        "name": "Tsetserleg",
        "lat": "49.27128",
        "lng": "94.85836"
    },
    {
        "country": "MN",
        "name": "Tsetsegnuur",
        "lat": "46.6",
        "lng": "93.26667"
    },
    {
        "country": "MN",
        "name": "Tsenher",
        "lat": "46.91667",
        "lng": "92.11667"
    },
    {
        "country": "MN",
        "name": "Tseel",
        "lat": "45.56667",
        "lng": "95.86667"
    },
    {
        "country": "MN",
        "name": "Tsalgar",
        "lat": "49.71667",
        "lng": "93.26667"
    },
    {
        "country": "MN",
        "name": "Tsahir",
        "lat": "48.07972",
        "lng": "98.85167"
    },
    {
        "country": "MN",
        "name": "Tsagaant\u00fcngi",
        "lat": "49.05",
        "lng": "90.45"
    },
    {
        "country": "MN",
        "name": "Tsagaan-Olom",
        "lat": "46.71327",
        "lng": "96.52588"
    },
    {
        "country": "MN",
        "name": "Tsagaanchuluut",
        "lat": "47.11196",
        "lng": "96.67145"
    },
    {
        "country": "MN",
        "name": "Tosontsengel",
        "lat": "48.75667",
        "lng": "98.28389"
    },
    {
        "country": "MN",
        "name": "Tooromt",
        "lat": "50.46667",
        "lng": "93.58333"
    },
    {
        "country": "MN",
        "name": "Tolbo",
        "lat": "48.41667",
        "lng": "90.28333"
    },
    {
        "country": "MN",
        "name": "T\u00f6gr\u00f6g",
        "lat": "47.42414",
        "lng": "92.22439"
    },
    {
        "country": "MN",
        "name": "T\u00f6gr\u00f6g",
        "lat": "45.82976",
        "lng": "94.81544"
    },
    {
        "country": "MN",
        "name": "Vlaa Vula",
        "lat": "50.68333",
        "lng": "99.23333"
    },
    {
        "country": "MN",
        "name": "Tegsh",
        "lat": "48.75132",
        "lng": "95.99974"
    },
    {
        "country": "MN",
        "name": "Taygan",
        "lat": "46.35356",
        "lng": "97.36633"
    },
    {
        "country": "MN",
        "name": "Talshand",
        "lat": "45.33333",
        "lng": "97.98333"
    },
    {
        "country": "MN",
        "name": "Tahilt",
        "lat": "45.3466",
        "lng": "96.6457"
    },
    {
        "country": "MN",
        "name": "Shiree",
        "lat": "47.49714",
        "lng": "96.80311"
    },
    {
        "country": "MN",
        "name": "Sharga",
        "lat": "49.8",
        "lng": "98.8"
    },
    {
        "country": "MN",
        "name": "Sharga",
        "lat": "46.25",
        "lng": "95.26667"
    },
    {
        "country": "MN",
        "name": "Sharbulag",
        "lat": "48.81667",
        "lng": "93.1"
    },
    {
        "country": "MN",
        "name": "Sayn-Ust",
        "lat": "47.35732",
        "lng": "94.52448"
    },
    {
        "country": "MN",
        "name": "Sangiyn Dalay",
        "lat": "45.13333",
        "lng": "97.75"
    },
    {
        "country": "MN",
        "name": "Rashaant",
        "lat": "47.76667",
        "lng": "90.83333"
    },
    {
        "country": "MN",
        "name": "Oygon",
        "lat": "48.98562",
        "lng": "96.54339"
    },
    {
        "country": "MN",
        "name": "Telmin Suma",
        "lat": "48.64278",
        "lng": "97.61861"
    },
    {
        "country": "MN",
        "name": "Orgil",
        "lat": "48.58722",
        "lng": "99.35083"
    },
    {
        "country": "MN",
        "name": "\u00d6lgii",
        "lat": "48.96833",
        "lng": "89.9625"
    },
    {
        "country": "MN",
        "name": "Nuga",
        "lat": "48.31667",
        "lng": "95.11667"
    },
    {
        "country": "MN",
        "name": "Nogoonnuur",
        "lat": "49.61627",
        "lng": "90.24204"
    },
    {
        "country": "MN",
        "name": "Naranbulag",
        "lat": "49.36667",
        "lng": "92.56667"
    },
    {
        "country": "MN",
        "name": "Namir",
        "lat": "49.10641",
        "lng": "91.71782"
    },
    {
        "country": "MN",
        "name": "Tsagaanhayrhan",
        "lat": "49.4",
        "lng": "94.23333"
    },
    {
        "country": "MN",
        "name": "Mandal",
        "lat": "49.9",
        "lng": "99.43333"
    },
    {
        "country": "MN",
        "name": "Jargalant",
        "lat": "49.30677",
        "lng": "95.44785"
    },
    {
        "country": "MN",
        "name": "Jargalant",
        "lat": "47.15",
        "lng": "99.63333"
    },
    {
        "country": "MN",
        "name": "Jargalant",
        "lat": "46.9267",
        "lng": "91.08782"
    },
    {
        "country": "MN",
        "name": "Jargalant",
        "lat": "45.70954",
        "lng": "97.17596"
    },
    {
        "country": "MN",
        "name": "Ider",
        "lat": "48.77278",
        "lng": "99.87389"
    },
    {
        "country": "MN",
        "name": "Hunt",
        "lat": "47.86667",
        "lng": "99.46667"
    },
    {
        "country": "MN",
        "name": "Hungiy",
        "lat": "48.51672",
        "lng": "94.29428"
    },
    {
        "country": "MN",
        "name": "H\u00f6viyn Am",
        "lat": "47.23123",
        "lng": "98.5714"
    },
    {
        "country": "MN",
        "name": "H\u00f6sh\u00f6\u00f6t",
        "lat": "48.94776",
        "lng": "89.14358"
    },
    {
        "country": "MN",
        "name": "Holboo",
        "lat": "48.58876",
        "lng": "95.43257"
    },
    {
        "country": "MN",
        "name": "H\u00f6htolgoy",
        "lat": "49.28001",
        "lng": "90.91015"
    },
    {
        "country": "MN",
        "name": "H\u00f6dr\u00f6g\u00f6",
        "lat": "48.87284",
        "lng": "96.96259"
    },
    {
        "country": "MN",
        "name": "Havtsal",
        "lat": "50.1",
        "lng": "91.66667"
    },
    {
        "country": "MN",
        "name": "Har-Us",
        "lat": "49.03333",
        "lng": "92.03333"
    },
    {
        "country": "MN",
        "name": "Har-Us",
        "lat": "48.48333",
        "lng": "91.43333"
    },
    {
        "country": "MN",
        "name": "Harmod",
        "lat": "50.3413",
        "lng": "91.60641"
    },
    {
        "country": "MN",
        "name": "Harhiraa",
        "lat": "49.77849",
        "lng": "91.90424"
    },
    {
        "country": "MN",
        "name": "Haliun",
        "lat": "45.9296",
        "lng": "96.16239"
    },
    {
        "country": "MN",
        "name": "Halban",
        "lat": "49.52877",
        "lng": "97.7409"
    },
    {
        "country": "MN",
        "name": "Erdenet",
        "lat": "48.94877",
        "lng": "99.53665"
    },
    {
        "country": "MN",
        "name": "Dz\u00fcyl",
        "lat": "46.30686",
        "lng": "93.90409"
    },
    {
        "country": "MN",
        "name": "Dzuunmod",
        "lat": "48.21987",
        "lng": "97.3744"
    },
    {
        "country": "MN",
        "name": "Dz\u00fc\u00fcnh\u00f6v\u00f6\u00f6",
        "lat": "50.60977",
        "lng": "92.4024"
    },
    {
        "country": "MN",
        "name": "Dz\u00fcr",
        "lat": "49.65796",
        "lng": "95.79323"
    },
    {
        "country": "MN",
        "name": "Dz\u00f6\u00f6l\u00f6n",
        "lat": "51.10719",
        "lng": "99.67226"
    },
    {
        "country": "MN",
        "name": "Dzel",
        "lat": "49.90713",
        "lng": "93.78582"
    },
    {
        "country": "MN",
        "name": "Dzalaa",
        "lat": "44.53333",
        "lng": "99.26667"
    },
    {
        "country": "MN",
        "name": "Dzag",
        "lat": "46.94229",
        "lng": "99.16689"
    },
    {
        "country": "MN",
        "name": "Dzadgay",
        "lat": "46.21061",
        "lng": "99.59862"
    },
    {
        "country": "MN",
        "name": "Duut",
        "lat": "47.51667",
        "lng": "91.63333"
    },
    {
        "country": "MN",
        "name": "Khovd",
        "lat": "48.00556",
        "lng": "91.64194"
    },
    {
        "country": "MN",
        "name": "Tsagaannuur",
        "lat": "51.35639",
        "lng": "99.34444"
    },
    {
        "country": "MN",
        "name": "Delgerm\u00f6r\u00f6n",
        "lat": "46.40946",
        "lng": "98.28712"
    },
    {
        "country": "MN",
        "name": "Darvi",
        "lat": "46.45",
        "lng": "94.11667"
    },
    {
        "country": "MN",
        "name": "Chihertey",
        "lat": "48.30272",
        "lng": "89.51557"
    },
    {
        "country": "MN",
        "name": "Chandmani",
        "lat": "48.05",
        "lng": "96.25"
    },
    {
        "country": "MN",
        "name": "Buyant",
        "lat": "48.57967",
        "lng": "89.5475"
    },
    {
        "country": "MN",
        "name": "Buyant",
        "lat": "48.06667",
        "lng": "91.81667"
    },
    {
        "country": "MN",
        "name": "Buyant",
        "lat": "47.21211",
        "lng": "97.60666"
    },
    {
        "country": "MN",
        "name": "Buyant",
        "lat": "46.1664",
        "lng": "98.69173"
    },
    {
        "country": "MN",
        "name": "Buyanbat",
        "lat": "46.97838",
        "lng": "95.92532"
    },
    {
        "country": "MN",
        "name": "B\u00fcrenhayrhan",
        "lat": "46.09237",
        "lng": "91.54796"
    },
    {
        "country": "MN",
        "name": "Darvi",
        "lat": "46.93678",
        "lng": "93.61673"
    },
    {
        "country": "MN",
        "name": "Bulgan",
        "lat": "44.78333",
        "lng": "98.65"
    },
    {
        "country": "MN",
        "name": "Bugat",
        "lat": "49.53333",
        "lng": "93.81667"
    },
    {
        "country": "MN",
        "name": "Buga",
        "lat": "49.01667",
        "lng": "90.18333"
    },
    {
        "country": "MN",
        "name": "Buga",
        "lat": "47.65013",
        "lng": "95.0005"
    },
    {
        "country": "MN",
        "name": "Altay sumu",
        "lat": "45.8",
        "lng": "92.28333"
    },
    {
        "country": "MN",
        "name": "Bil\u00fc\u00fc",
        "lat": "49.04372",
        "lng": "89.43798"
    },
    {
        "country": "MN",
        "name": "Bayshint",
        "lat": "49.66667",
        "lng": "90.28333"
    },
    {
        "country": "MN",
        "name": "Bayan-Uhaa",
        "lat": "48.71906",
        "lng": "98.79181"
    },
    {
        "country": "MN",
        "name": "Bayansayr",
        "lat": "45.55529",
        "lng": "99.43314"
    },
    {
        "country": "MN",
        "name": "Bayan-Ovoo",
        "lat": "44.61667",
        "lng": "94.91667"
    },
    {
        "country": "MN",
        "name": "Bayanhoshuu",
        "lat": "48.23333",
        "lng": "91.91667"
    },
    {
        "country": "MN",
        "name": "Bayangol",
        "lat": "45.55655",
        "lng": "94.36449"
    },
    {
        "country": "MN",
        "name": "Bayanbulag",
        "lat": "46.80981",
        "lng": "98.09006"
    },
    {
        "country": "MN",
        "name": "Bayan",
        "lat": "49.43333",
        "lng": "99.6"
    },
    {
        "country": "MN",
        "name": "Bayan",
        "lat": "46.9929",
        "lng": "95.19962"
    },
    {
        "country": "MN",
        "name": "Baruunturuun",
        "lat": "49.65963",
        "lng": "94.40414"
    },
    {
        "country": "MN",
        "name": "Balgatay",
        "lat": "46.9",
        "lng": "97.15"
    },
    {
        "country": "MN",
        "name": "Altraga",
        "lat": "50.1791",
        "lng": "98.97205"
    },
    {
        "country": "MN",
        "name": "Altay",
        "lat": "49.70317",
        "lng": "96.3592"
    },
    {
        "country": "MN",
        "name": "Altai",
        "lat": "46.37222",
        "lng": "96.25833"
    },
    {
        "country": "MN",
        "name": "Altanteel",
        "lat": "47.11044",
        "lng": "92.84374"
    },
    {
        "country": "MN",
        "name": "Altanbulag",
        "lat": "49.30688",
        "lng": "96.34237"
    },
    {
        "country": "MN",
        "name": "Altan",
        "lat": "48.11667",
        "lng": "95.71667"
    },
    {
        "country": "MN",
        "name": "Aldar",
        "lat": "47.64226",
        "lng": "96.53687"
    },
    {
        "country": "MN",
        "name": "Horgo",
        "lat": "48.16",
        "lng": "99.87556"
    },
    {
        "country": "MN",
        "name": "\u00dcydzen",
        "lat": "44.08216",
        "lng": "106.86985"
    },
    {
        "country": "MN",
        "name": "Uubulan",
        "lat": "48.60885",
        "lng": "101.93424"
    },
    {
        "country": "MN",
        "name": "Urt",
        "lat": "43.23245",
        "lng": "101.04813"
    },
    {
        "country": "MN",
        "name": "Uldz",
        "lat": "48.69028",
        "lng": "111.99463"
    },
    {
        "country": "MN",
        "name": "Ulaan-Uul",
        "lat": "46.0674",
        "lng": "100.81724"
    },
    {
        "country": "MN",
        "name": "Ulaan-Uul",
        "lat": "44.33333",
        "lng": "111.23333"
    },
    {
        "country": "MN",
        "name": "Ulaanjirem",
        "lat": "45.05",
        "lng": "105.56667"
    },
    {
        "country": "MN",
        "name": "Ulaanhudag",
        "lat": "47.33333",
        "lng": "104.5"
    },
    {
        "country": "MN",
        "name": "Ulaanhad",
        "lat": "47.94993",
        "lng": "105.55321"
    },
    {
        "country": "MN",
        "name": "Ulaan-Ereg",
        "lat": "46.9",
        "lng": "109.75"
    },
    {
        "country": "MN",
        "name": "Ulaandel",
        "lat": "46.36446",
        "lng": "113.577"
    },
    {
        "country": "MN",
        "name": "Ulan Bator",
        "lat": "47.90771",
        "lng": "106.88324"
    },
    {
        "country": "MN",
        "name": "Turt",
        "lat": "51.50725",
        "lng": "100.66257"
    },
    {
        "country": "MN",
        "name": "Tsul-Ulaan",
        "lat": "47.83333",
        "lng": "104.5"
    },
    {
        "country": "MN",
        "name": "Tsoohor",
        "lat": "43.30657",
        "lng": "104.07417"
    },
    {
        "country": "MN",
        "name": "Tsomog",
        "lat": "45.91667",
        "lng": "109.06667"
    },
    {
        "country": "MN",
        "name": "Tsetserleg",
        "lat": "47.475",
        "lng": "101.45417"
    },
    {
        "country": "MN",
        "name": "Tsengel",
        "lat": "49.47833",
        "lng": "100.88944"
    },
    {
        "country": "MN",
        "name": "Tsant",
        "lat": "46.18333",
        "lng": "106.71667"
    },
    {
        "country": "MN",
        "name": "Tsagaan-Ovoo",
        "lat": "45.96404",
        "lng": "101.45977"
    },
    {
        "country": "MN",
        "name": "Tsagaan-Ovoo",
        "lat": "45.50719",
        "lng": "105.75594"
    },
    {
        "country": "MN",
        "name": "Tsagaand\u00f6rv\u00f6lj",
        "lat": "45.79817",
        "lng": "109.31826"
    },
    {
        "country": "MN",
        "name": "Tsagaanders",
        "lat": "48.05",
        "lng": "114.36667"
    },
    {
        "country": "MN",
        "name": "Naran-mandokhu Somon",
        "lat": "44.4",
        "lng": "108.25"
    },
    {
        "country": "MN",
        "name": "Teshig",
        "lat": "49.94669",
        "lng": "102.66123"
    },
    {
        "country": "MN",
        "name": "Teel",
        "lat": "48.04639",
        "lng": "100.50917"
    },
    {
        "country": "MN",
        "name": "Tavin",
        "lat": "46.39194",
        "lng": "105.73517"
    },
    {
        "country": "MN",
        "name": "Tavanbulag",
        "lat": "47.38185",
        "lng": "101.90815"
    },
    {
        "country": "MN",
        "name": "Dashinchilling",
        "lat": "47.85",
        "lng": "104.05"
    },
    {
        "country": "MN",
        "name": "Suugaant",
        "lat": "45.53257",
        "lng": "107.04546"
    },
    {
        "country": "MN",
        "name": "S\u00fcmiyn Bulag",
        "lat": "49.13333",
        "lng": "114.88333"
    },
    {
        "country": "MN",
        "name": "S\u00fchbaatar",
        "lat": "50.23139",
        "lng": "106.20778"
    },
    {
        "country": "MN",
        "name": "S\u00f6rt",
        "lat": "49.31751",
        "lng": "104.38196"
    },
    {
        "country": "MN",
        "name": "Shireet",
        "lat": "45.72727",
        "lng": "112.35563"
    },
    {
        "country": "MN",
        "name": "Shiree",
        "lat": "45.85",
        "lng": "103.4"
    },
    {
        "country": "MN",
        "name": "Shar\u00efngol",
        "lat": "49.23733",
        "lng": "106.43005"
    },
    {
        "country": "MN",
        "name": "Sharhulsan",
        "lat": "44.65",
        "lng": "104.05"
    },
    {
        "country": "MN",
        "name": "Sharga",
        "lat": "49.04192",
        "lng": "102.08925"
    },
    {
        "country": "MN",
        "name": "Sergelen",
        "lat": "48.56667",
        "lng": "114.08333"
    },
    {
        "country": "MN",
        "name": "Sergelen",
        "lat": "46.2",
        "lng": "111.81667"
    },
    {
        "country": "MN",
        "name": "Senj",
        "lat": "44.71667",
        "lng": "110.76667"
    },
    {
        "country": "MN",
        "name": "Selenge",
        "lat": "49.43333",
        "lng": "101.46667"
    },
    {
        "country": "MN",
        "name": "Saynshand",
        "lat": "43.61667",
        "lng": "102.53333"
    },
    {
        "country": "MN",
        "name": "Sangiyn Dalay",
        "lat": "46.65",
        "lng": "103.31667"
    },
    {
        "country": "MN",
        "name": "Sangiyn Dalay",
        "lat": "46.00793",
        "lng": "104.94209"
    },
    {
        "country": "MN",
        "name": "Sangiyn Dalay",
        "lat": "42.84199",
        "lng": "105.13796"
    },
    {
        "country": "MN",
        "name": "Rashaant",
        "lat": "49.12667",
        "lng": "101.42806"
    },
    {
        "country": "MN",
        "name": "Rashaant",
        "lat": "45.3",
        "lng": "106.2"
    },
    {
        "country": "MN",
        "name": "\u00d6vt",
        "lat": "46.81667",
        "lng": "102.25"
    },
    {
        "country": "MN",
        "name": "Ovoot",
        "lat": "45.30423",
        "lng": "113.84977"
    },
    {
        "country": "MN",
        "name": "Orhontuul",
        "lat": "48.94972",
        "lng": "104.97583"
    },
    {
        "country": "MN",
        "name": "\u00d6rg\u00f6n",
        "lat": "44.73637",
        "lng": "100.39135"
    },
    {
        "country": "MN",
        "name": "Orgil",
        "lat": "48.4538",
        "lng": "105.31769"
    },
    {
        "country": "MN",
        "name": "Onon",
        "lat": "48.61667",
        "lng": "110.6"
    },
    {
        "country": "MN",
        "name": "Ongon",
        "lat": "46.98259",
        "lng": "103.78389"
    },
    {
        "country": "MN",
        "name": "Ongi",
        "lat": "46.46667",
        "lng": "102.28333"
    },
    {
        "country": "MN",
        "name": "Ongi",
        "lat": "45.45",
        "lng": "103.9"
    },
    {
        "country": "MN",
        "name": "\u00d6nd\u00f6rhoshuu",
        "lat": "48",
        "lng": "113.93333"
    },
    {
        "country": "MN",
        "name": "Undurkhaan",
        "lat": "47.31944",
        "lng": "110.65556"
    },
    {
        "country": "MN",
        "name": "\u00d6ldziyt",
        "lat": "48.52843",
        "lng": "101.37394"
    },
    {
        "country": "MN",
        "name": "\u00d6ldziyt",
        "lat": "44.68333",
        "lng": "109.01667"
    },
    {
        "country": "MN",
        "name": "\u00d6g\u00f6\u00f6m\u00f6r",
        "lat": "43.78336",
        "lng": "104.48067"
    },
    {
        "country": "MN",
        "name": "N\u00fcden",
        "lat": "43.58333",
        "lng": "110.46667"
    },
    {
        "country": "MN",
        "name": "Nomgon",
        "lat": "49.2001",
        "lng": "105.66582"
    },
    {
        "country": "MN",
        "name": "Nart",
        "lat": "49.145",
        "lng": "105.38833"
    },
    {
        "country": "MN",
        "name": "Naranbulag",
        "lat": "49.2436",
        "lng": "113.37427"
    },
    {
        "country": "MN",
        "name": "Murun-kuren",
        "lat": "49.63417",
        "lng": "100.1625"
    },
    {
        "country": "MN",
        "name": "M\u00f6r\u00f6n",
        "lat": "47.38254",
        "lng": "110.31647"
    },
    {
        "country": "MN",
        "name": "M\u00f6nhbulag",
        "lat": "46.75",
        "lng": "103.51667"
    },
    {
        "country": "MN",
        "name": "Modot",
        "lat": "47.75",
        "lng": "109.05"
    },
    {
        "country": "MN",
        "name": "Mayhan",
        "lat": "46.09121",
        "lng": "103.83951"
    },
    {
        "country": "MN",
        "name": "Mardzad",
        "lat": "45.95",
        "lng": "102.05"
    },
    {
        "country": "MN",
        "name": "Manhan",
        "lat": "50.12139",
        "lng": "100.04306"
    },
    {
        "country": "MN",
        "name": "Mandalgovi",
        "lat": "45.7625",
        "lng": "106.27083"
    },
    {
        "country": "MN",
        "name": "Dz\u00fc\u00fcnkharaa",
        "lat": "48.63333",
        "lng": "106.73333"
    },
    {
        "country": "MN",
        "name": "Mandal",
        "lat": "48.63111",
        "lng": "103.52917"
    },
    {
        "country": "MN",
        "name": "Mandal",
        "lat": "48.37062",
        "lng": "106.74076"
    },
    {
        "country": "MN",
        "name": "Maanit",
        "lat": "48.29667",
        "lng": "103.42556"
    },
    {
        "country": "MN",
        "name": "Maanit",
        "lat": "47.25",
        "lng": "107.53333"
    },
    {
        "country": "MN",
        "name": "Sujji",
        "lat": "47.86667",
        "lng": "105.25"
    },
    {
        "country": "MN",
        "name": "Javhlant",
        "lat": "48.80189",
        "lng": "105.924"
    },
    {
        "country": "MN",
        "name": "Javarthushuu",
        "lat": "49.15",
        "lng": "112.73333"
    },
    {
        "country": "MN",
        "name": "Jargalant",
        "lat": "50.0675",
        "lng": "105.88056"
    },
    {
        "country": "MN",
        "name": "Jargalant",
        "lat": "49.29591",
        "lng": "100.25711"
    },
    {
        "country": "MN",
        "name": "Jargalant",
        "lat": "48.52056",
        "lng": "105.86833"
    },
    {
        "country": "MN",
        "name": "Jargalant",
        "lat": "47.79309",
        "lng": "101.97235"
    },
    {
        "country": "MN",
        "name": "Jargalant",
        "lat": "47.53333",
        "lng": "100.21667"
    },
    {
        "country": "MN",
        "name": "Ingettolgoy",
        "lat": "49.46167",
        "lng": "103.97417"
    },
    {
        "country": "MN",
        "name": "Ihs\u00fc\u00fcj",
        "lat": "48.2257",
        "lng": "106.29152"
    },
    {
        "country": "MN",
        "name": "Ihbulag",
        "lat": "43.2",
        "lng": "107.2"
    },
    {
        "country": "MN",
        "name": "Huurch",
        "lat": "50.10361",
        "lng": "105.42"
    },
    {
        "country": "MN",
        "name": "Hutag",
        "lat": "49.395",
        "lng": "102.69333"
    },
    {
        "country": "MN",
        "name": "H\u00fcremt",
        "lat": "48.66306",
        "lng": "102.62278"
    },
    {
        "country": "MN",
        "name": "H\u00fcremt",
        "lat": "46.30241",
        "lng": "102.44554"
    },
    {
        "country": "MN",
        "name": "Hulstay",
        "lat": "48.43333",
        "lng": "114.86667"
    },
    {
        "country": "MN",
        "name": "Hujirt",
        "lat": "48.88199",
        "lng": "101.23953"
    },
    {
        "country": "MN",
        "name": "Khujirt",
        "lat": "46.89704",
        "lng": "102.76903"
    },
    {
        "country": "MN",
        "name": "Hujirt",
        "lat": "46.6",
        "lng": "104.58333"
    },
    {
        "country": "MN",
        "name": "Noyon Suma",
        "lat": "43.17361",
        "lng": "102.13194"
    },
    {
        "country": "MN",
        "name": "Khuvsget",
        "lat": "43.60639",
        "lng": "109.63806"
    },
    {
        "country": "MN",
        "name": "Hovd",
        "lat": "44.66667",
        "lng": "102.38333"
    },
    {
        "country": "MN",
        "name": "Hovd",
        "lat": "44.67024",
        "lng": "102.17491"
    },
    {
        "country": "MN",
        "name": "Hotont",
        "lat": "47.36278",
        "lng": "102.46794"
    },
    {
        "country": "MN",
        "name": "H\u00f6sh\u00f6\u00f6t",
        "lat": "48.1009",
        "lng": "102.55686"
    },
    {
        "country": "MN",
        "name": "Horiult",
        "lat": "45.2",
        "lng": "100.76667"
    },
    {
        "country": "MN",
        "name": "Tsagaan-Owoo",
        "lat": "48.4",
        "lng": "113.43333"
    },
    {
        "country": "MN",
        "name": "Bayan Uula Sumu",
        "lat": "45.16667",
        "lng": "101.4"
    },
    {
        "country": "MN",
        "name": "Hoolt",
        "lat": "45.53333",
        "lng": "102.98333"
    },
    {
        "country": "MN",
        "name": "Hongor",
        "lat": "45.8",
        "lng": "111.2"
    },
    {
        "country": "MN",
        "name": "Hongor",
        "lat": "45.13507",
        "lng": "113.68378"
    },
    {
        "country": "MN",
        "name": "Undur Sume",
        "lat": "50.47278",
        "lng": "100.92778"
    },
    {
        "country": "MN",
        "name": "H\u00f6hb\u00fcrd",
        "lat": "46.28575",
        "lng": "100.44834"
    },
    {
        "country": "MN",
        "name": "Herlen",
        "lat": "47.3",
        "lng": "110.56667"
    },
    {
        "country": "MN",
        "name": "Haylaastay",
        "lat": "46.9",
        "lng": "113.41667"
    },
    {
        "country": "MN",
        "name": "Havirga",
        "lat": "45.66667",
        "lng": "113.08333"
    },
    {
        "country": "MN",
        "name": "Hatavch",
        "lat": "46.16667",
        "lng": "112.95"
    },
    {
        "country": "MN",
        "name": "Hatansuudal",
        "lat": "44.54595",
        "lng": "100.82788"
    },
    {
        "country": "MN",
        "name": "Hashaat",
        "lat": "45.24323",
        "lng": "104.80511"
    },
    {
        "country": "MN",
        "name": "Orhon",
        "lat": "49.8325",
        "lng": "106.13639"
    },
    {
        "country": "MN",
        "name": "Harhorin",
        "lat": "47.19753",
        "lng": "102.82379"
    },
    {
        "country": "MN",
        "name": "Haraat",
        "lat": "46.41667",
        "lng": "107.65"
    },
    {
        "country": "MN",
        "name": "Hanh\u00f6hiy",
        "lat": "47.61667",
        "lng": "112.13333"
    },
    {
        "country": "MN",
        "name": "Hajuu-Us",
        "lat": "46.04988",
        "lng": "107.48955"
    },
    {
        "country": "MN",
        "name": "Erhet",
        "lat": "48.27394",
        "lng": "102.9812"
    },
    {
        "country": "MN",
        "name": "Ergel",
        "lat": "43.15",
        "lng": "109.13333"
    },
    {
        "country": "MN",
        "name": "Ereencav",
        "lat": "49.8807",
        "lng": "115.72526"
    },
    {
        "country": "MN",
        "name": "Erdenetsogt",
        "lat": "46.41845",
        "lng": "100.82239"
    },
    {
        "country": "MN",
        "name": "Erdenetsogt",
        "lat": "42.97238",
        "lng": "106.11866"
    },
    {
        "country": "MN",
        "name": "Erdenet",
        "lat": "49.03333",
        "lng": "104.08333"
    },
    {
        "country": "MN",
        "name": "Eg-Uur",
        "lat": "50.10944",
        "lng": "101.57528"
    },
    {
        "country": "MN",
        "name": "Enhtal",
        "lat": "49.2475",
        "lng": "105.37361"
    },
    {
        "country": "MN",
        "name": "Eg",
        "lat": "48.68333",
        "lng": "110.18333"
    },
    {
        "country": "MN",
        "name": "Dzuunmod",
        "lat": "47.70694",
        "lng": "106.95278"
    },
    {
        "country": "MN",
        "name": "Dz\u00fc\u00fcnharaa",
        "lat": "48.85229",
        "lng": "106.45786"
    },
    {
        "country": "MN",
        "name": "Dz\u00fc\u00fcnbulag",
        "lat": "46.95343",
        "lng": "115.29396"
    },
    {
        "country": "MN",
        "name": "Dz\u00fc\u00fcnbulag",
        "lat": "46.38333",
        "lng": "112.18333"
    },
    {
        "country": "MN",
        "name": "Dzogsool",
        "lat": "46.8",
        "lng": "107.15"
    },
    {
        "country": "MN",
        "name": "Dzelter",
        "lat": "50.31556",
        "lng": "105.04583"
    },
    {
        "country": "MN",
        "name": "Dzegstey",
        "lat": "47.66805",
        "lng": "102.54999"
    },
    {
        "country": "MN",
        "name": "Dzaanhoshuu",
        "lat": "47.49331",
        "lng": "100.87801"
    },
    {
        "country": "MN",
        "name": "Dund-Urt",
        "lat": "48.03791",
        "lng": "105.9219"
    },
    {
        "country": "MN",
        "name": "Dundb\u00fcrd",
        "lat": "47.9459",
        "lng": "111.49784"
    },
    {
        "country": "MN",
        "name": "Doloon",
        "lat": "44.42446",
        "lng": "105.32078"
    },
    {
        "country": "MN",
        "name": "Delgerhaan",
        "lat": "50.08578",
        "lng": "106.18578"
    },
    {
        "country": "MN",
        "name": "Dashbalbar",
        "lat": "49.54571",
        "lng": "114.40287"
    },
    {
        "country": "MN",
        "name": "Darhan",
        "lat": "49.48667",
        "lng": "105.92278"
    },
    {
        "country": "MN",
        "name": "Darhan",
        "lat": "48.25463",
        "lng": "103.88054"
    },
    {
        "country": "MN",
        "name": "Darhan",
        "lat": "46.61667",
        "lng": "109.41667"
    },
    {
        "country": "MN",
        "name": "Dalay",
        "lat": "43.46787",
        "lng": "103.51284"
    },
    {
        "country": "MN",
        "name": "Dalandzadgad",
        "lat": "43.57083",
        "lng": "104.425"
    },
    {
        "country": "MN",
        "name": "Choyr",
        "lat": "46.36111",
        "lng": "108.36111"
    },
    {
        "country": "MN",
        "name": "Choibalsan",
        "lat": "48.07257",
        "lng": "114.53264"
    },
    {
        "country": "MN",
        "name": "Chonogol",
        "lat": "45.9",
        "lng": "115.36667"
    },
    {
        "country": "MN",
        "name": "Chandmani",
        "lat": "45.53333",
        "lng": "110.46667"
    },
    {
        "country": "MN",
        "name": "Saynshand",
        "lat": "44.88239",
        "lng": "110.11631"
    },
    {
        "country": "MN",
        "name": "Buyant",
        "lat": "46.25",
        "lng": "110.83333"
    },
    {
        "country": "MN",
        "name": "Burgaltay",
        "lat": "49.265",
        "lng": "104.74348"
    },
    {
        "country": "MN",
        "name": "Bumbat",
        "lat": "46.49674",
        "lng": "104.11777"
    },
    {
        "country": "MN",
        "name": "Bulgan",
        "lat": "50.54194",
        "lng": "101.51417"
    },
    {
        "country": "MN",
        "name": "Bulgan",
        "lat": "48.8125",
        "lng": "103.53472"
    },
    {
        "country": "MN",
        "name": "Bulgan",
        "lat": "44.09745",
        "lng": "103.54288"
    },
    {
        "country": "MN",
        "name": "Bulagtay",
        "lat": "49.77594",
        "lng": "107.51616"
    },
    {
        "country": "MN",
        "name": "Bulagiyn Denj",
        "lat": "47.31869",
        "lng": "101.11576"
    },
    {
        "country": "MN",
        "name": "Bulag",
        "lat": "49.85946",
        "lng": "100.62687"
    },
    {
        "country": "MN",
        "name": "Bulag",
        "lat": "48.2",
        "lng": "108.48333"
    },
    {
        "country": "MN",
        "name": "Bugat",
        "lat": "49.06667",
        "lng": "103.66583"
    },
    {
        "country": "MN",
        "name": "Bugant",
        "lat": "49.58333",
        "lng": "106.85"
    },
    {
        "country": "MN",
        "name": "Bornuur",
        "lat": "48.46667",
        "lng": "106.26667"
    },
    {
        "country": "MN",
        "name": "B\u00f6h\u00f6t",
        "lat": "45.23223",
        "lng": "108.28245"
    },
    {
        "country": "MN",
        "name": "Bodi",
        "lat": "45.41171",
        "lng": "100.574"
    },
    {
        "country": "MN",
        "name": "Bayshint",
        "lat": "47.41667",
        "lng": "104.81667"
    },
    {
        "country": "MN",
        "name": "Bayasgalant",
        "lat": "47.17945",
        "lng": "108.25996"
    },
    {
        "country": "MN",
        "name": "Bayasgalant",
        "lat": "46.98333",
        "lng": "112.05"
    },
    {
        "country": "MN",
        "name": "Bayan-Ulaan",
        "lat": "46.52178",
        "lng": "102.59428"
    },
    {
        "country": "MN",
        "name": "Bayantsagaan",
        "lat": "48.73167",
        "lng": "100.76"
    },
    {
        "country": "MN",
        "name": "Bayant\u00f6h\u00f6m",
        "lat": "46.91667",
        "lng": "105.05"
    },
    {
        "country": "MN",
        "name": "Bayan-Ovoo",
        "lat": "49.01667",
        "lng": "111.63333"
    },
    {
        "country": "MN",
        "name": "Javhlant",
        "lat": "47.78333",
        "lng": "112.11667"
    },
    {
        "country": "MN",
        "name": "Bayanhoshuu",
        "lat": "46.70197",
        "lng": "100.1433"
    },
    {
        "country": "MN",
        "name": "Bayanhongor",
        "lat": "46.71667",
        "lng": "100.11667"
    },
    {
        "country": "MN",
        "name": "Bayanhongor",
        "lat": "46.19444",
        "lng": "100.71806"
    },
    {
        "country": "MN",
        "name": "Bayandelger",
        "lat": "47.72732",
        "lng": "108.11062"
    },
    {
        "country": "MN",
        "name": "Bayanbulag",
        "lat": "47.86667",
        "lng": "109.91667"
    },
    {
        "country": "MN",
        "name": "Bayanbaraat",
        "lat": "46.86667",
        "lng": "106.25"
    },
    {
        "country": "MN",
        "name": "Bayan",
        "lat": "48.55",
        "lng": "111.08333"
    },
    {
        "country": "MN",
        "name": "Bayan",
        "lat": "47.91667",
        "lng": "112.95"
    },
    {
        "country": "MN",
        "name": "Bayan",
        "lat": "47.45",
        "lng": "103.15"
    },
    {
        "country": "MN",
        "name": "Bayan",
        "lat": "47.16667",
        "lng": "110.81667"
    },
    {
        "country": "MN",
        "name": "Bayan",
        "lat": "46.25",
        "lng": "110.16667"
    },
    {
        "country": "MN",
        "name": "Bat-\u00d6ldziyt",
        "lat": "48.21552",
        "lng": "104.77318"
    },
    {
        "country": "MN",
        "name": "Baruun-Urt",
        "lat": "46.68056",
        "lng": "113.27917"
    },
    {
        "country": "MN",
        "name": "Baruunsuu",
        "lat": "43.65595",
        "lng": "105.75577"
    },
    {
        "country": "MN",
        "name": "Hushaat",
        "lat": "49.5",
        "lng": "105.61667"
    },
    {
        "country": "MN",
        "name": "Badrah",
        "lat": "49.61833",
        "lng": "101.98972"
    },
    {
        "country": "MN",
        "name": "Avraga",
        "lat": "47.17851",
        "lng": "109.18968"
    },
    {
        "country": "MN",
        "name": "Avdzaga",
        "lat": "47.63333",
        "lng": "103.51667"
    },
    {
        "country": "MN",
        "name": "Arvayheer",
        "lat": "46.26389",
        "lng": "102.775"
    },
    {
        "country": "MN",
        "name": "Arhust",
        "lat": "47.79425",
        "lng": "107.88334"
    },
    {
        "country": "MN",
        "name": "Arguut",
        "lat": "45.46278",
        "lng": "102.42056"
    },
    {
        "country": "MN",
        "name": "Argatay",
        "lat": "45.76667",
        "lng": "107.98333"
    },
    {
        "country": "MN",
        "name": "Argalant",
        "lat": "47.94211",
        "lng": "105.89584"
    },
    {
        "country": "MN",
        "name": "Ar-Asgat",
        "lat": "48.26222",
        "lng": "105.41194"
    },
    {
        "country": "MN",
        "name": "Amardalay",
        "lat": "46.12572",
        "lng": "106.37426"
    },
    {
        "country": "MN",
        "name": "Altan-Ovoo",
        "lat": "47.44742",
        "lng": "101.75503"
    },
    {
        "country": "MN",
        "name": "Altanbulag",
        "lat": "50.31556",
        "lng": "106.49861"
    },
    {
        "country": "MN",
        "name": "Altanbulag",
        "lat": "47.7",
        "lng": "106.4"
    },
    {
        "country": "MN",
        "name": "Asgat",
        "lat": "49.51082",
        "lng": "96.79944"
    },
    {
        "country": "MN",
        "name": "Ulaanshiveet",
        "lat": "47.28948",
        "lng": "103.85659"
    },
    {
        "country": "MN",
        "name": "S\u00fcmber",
        "lat": "47.65858",
        "lng": "118.51014"
    },
    {
        "country": "MN",
        "name": "Bayantal",
        "lat": "46.62134",
        "lng": "108.35804"
    },
    {
        "country": "MN",
        "name": "Shiveegovi",
        "lat": "46.09081",
        "lng": "108.68306"
    },
    {
        "country": "MN",
        "name": "Hongor",
        "lat": "49.23012",
        "lng": "105.89674"
    },
    {
        "country": "MN",
        "name": "Jargalant",
        "lat": "49.12915",
        "lng": "104.40803"
    },
    {
        "country": "MN",
        "name": "H\u00f6shigiyn-Ar",
        "lat": "47.55717",
        "lng": "106.96333"
    },
    {
        "country": "MN",
        "name": "???????",
        "lat": "47.70693",
        "lng": "106.95276"
    },
    {
        "country": "MN",
        "name": "Kharkhorin",
        "lat": "47.19245",
        "lng": "102.81349"
    }
]