[
    {
        "country": "MU",
        "name": "Verdun",
        "lat": "-20.23417",
        "lng": "57.55476"
    },
    {
        "country": "MU",
        "name": "Vacoas",
        "lat": "-20.29806",
        "lng": "57.47833"
    },
    {
        "country": "MU",
        "name": "Triolet",
        "lat": "-20.05472",
        "lng": "57.54528"
    },
    {
        "country": "MU",
        "name": "The Vale",
        "lat": "-20.02833",
        "lng": "57.58778"
    },
    {
        "country": "MU",
        "name": "Terre Rouge",
        "lat": "-20.12611",
        "lng": "57.52444"
    },
    {
        "country": "MU",
        "name": "Tamarin",
        "lat": "-20.32556",
        "lng": "57.37056"
    },
    {
        "country": "MU",
        "name": "Surinam",
        "lat": "-20.50972",
        "lng": "57.50528"
    },
    {
        "country": "MU",
        "name": "Souillac",
        "lat": "-20.51667",
        "lng": "57.51667"
    },
    {
        "country": "MU",
        "name": "Sebastopol",
        "lat": "-20.2907",
        "lng": "57.68779"
    },
    {
        "country": "MU",
        "name": "Saint Pierre",
        "lat": "-20.2175",
        "lng": "57.52083"
    },
    {
        "country": "MU",
        "name": "Saint Julien",
        "lat": "-20.22639",
        "lng": "57.63639"
    },
    {
        "country": "MU",
        "name": "Saint Hubert",
        "lat": "-20.36417",
        "lng": "57.63833"
    },
    {
        "country": "MU",
        "name": "Saint Aubin",
        "lat": "-20.496",
        "lng": "57.55"
    },
    {
        "country": "MU",
        "name": "Morcellemont Saint Andr\u00e9",
        "lat": "-20.07306",
        "lng": "57.55806"
    },
    {
        "country": "MU",
        "name": "Rose Belle",
        "lat": "-20.40028",
        "lng": "57.59667"
    },
    {
        "country": "MU",
        "name": "Roche Terre",
        "lat": "-20.01861",
        "lng": "57.64472"
    },
    {
        "country": "MU",
        "name": "Roches Noire",
        "lat": "-20.11111",
        "lng": "57.71222"
    },
    {
        "country": "MU",
        "name": "Grande Rivi\u00e8re Noire",
        "lat": "-20.36028",
        "lng": "57.36611"
    },
    {
        "country": "MU",
        "name": "Rivi\u00e8re du Rempart",
        "lat": "-20.10306",
        "lng": "57.68472"
    },
    {
        "country": "MU",
        "name": "Rivi\u00e8re des Anguilles",
        "lat": "-20.48528",
        "lng": "57.55083"
    },
    {
        "country": "MU",
        "name": "Queen Victoria",
        "lat": "-20.22",
        "lng": "57.7075"
    },
    {
        "country": "MU",
        "name": "Quatre Soeurs",
        "lat": "-20.29917",
        "lng": "57.77056"
    },
    {
        "country": "MU",
        "name": "Quatre Bornes",
        "lat": "-20.26381",
        "lng": "57.4791"
    },
    {
        "country": "MU",
        "name": "Quartier Militaire",
        "lat": "-20.2479",
        "lng": "57.59737"
    },
    {
        "country": "MU",
        "name": "Providence",
        "lat": "-20.24472",
        "lng": "57.61222"
    },
    {
        "country": "MU",
        "name": "Poste de Flacq",
        "lat": "-20.16306",
        "lng": "57.73056"
    },
    {
        "country": "MU",
        "name": "Port Louis",
        "lat": "-20.16194",
        "lng": "57.49889"
    },
    {
        "country": "MU",
        "name": "Plaine Magnien",
        "lat": "-20.42967",
        "lng": "57.66968"
    },
    {
        "country": "MU",
        "name": "Plaine des Papayes",
        "lat": "-20.065",
        "lng": "57.5725"
    },
    {
        "country": "MU",
        "name": "Petit Raffray",
        "lat": "-20.01333",
        "lng": "57.61194"
    },
    {
        "country": "MU",
        "name": "Petite Rivi\u00e8re",
        "lat": "-20.19551",
        "lng": "57.44592"
    },
    {
        "country": "MU",
        "name": "Petite Case Noyale",
        "lat": "-20.39306",
        "lng": "57.365"
    },
    {
        "country": "MU",
        "name": "Pamplemousses",
        "lat": "-20.10389",
        "lng": "57.57028"
    },
    {
        "country": "MU",
        "name": "Pailles",
        "lat": "-20.19271",
        "lng": "57.48826"
    },
    {
        "country": "MU",
        "name": "Olivia",
        "lat": "-20.28778",
        "lng": "57.73097"
    },
    {
        "country": "MU",
        "name": "Nouvelle France",
        "lat": "-20.37056",
        "lng": "57.56111"
    },
    {
        "country": "MU",
        "name": "Notre Dame",
        "lat": "-20.14056",
        "lng": "57.55306"
    },
    {
        "country": "MU",
        "name": "New Grove",
        "lat": "-20.40861",
        "lng": "57.61361"
    },
    {
        "country": "MU",
        "name": "Piton",
        "lat": "-20.09028",
        "lng": "57.63028"
    },
    {
        "country": "MU",
        "name": "Montagne Blanche",
        "lat": "-20.28538",
        "lng": "57.65865"
    },
    {
        "country": "MU",
        "name": "Moka",
        "lat": "-20.21889",
        "lng": "57.49583"
    },
    {
        "country": "MU",
        "name": "Midlands",
        "lat": "-20.31907",
        "lng": "57.57016"
    },
    {
        "country": "MU",
        "name": "Melrose",
        "lat": "-20.26972",
        "lng": "57.63194"
    },
    {
        "country": "MU",
        "name": "Mah\u00e9bourg",
        "lat": "-20.40806",
        "lng": "57.7"
    },
    {
        "country": "MU",
        "name": "Long Mountain",
        "lat": "-20.14306",
        "lng": "57.56222"
    },
    {
        "country": "MU",
        "name": "Lalmatie",
        "lat": "-20.18972",
        "lng": "57.66111"
    },
    {
        "country": "MU",
        "name": "Dagoti\u00e8re",
        "lat": "-20.24476",
        "lng": "57.56188"
    },
    {
        "country": "MU",
        "name": "Grand Sable",
        "lat": "-20.31417",
        "lng": "57.76444"
    },
    {
        "country": "MU",
        "name": "Grande Rivi\u00e8re Sud Est",
        "lat": "-20.28611",
        "lng": "57.77583"
    },
    {
        "country": "MU",
        "name": "Grand Gaube",
        "lat": "-20.00639",
        "lng": "57.66083"
    },
    {
        "country": "MU",
        "name": "Grand Baie",
        "lat": "-20.01816",
        "lng": "57.58015"
    },
    {
        "country": "MU",
        "name": "Grand Bois",
        "lat": "-20.41889",
        "lng": "57.54417"
    },
    {
        "country": "MU",
        "name": "Goodlands",
        "lat": "-20.035",
        "lng": "57.64306"
    },
    {
        "country": "MU",
        "name": "Fond du Sac",
        "lat": "-20.04306",
        "lng": "57.57861"
    },
    {
        "country": "MU",
        "name": "Flic en Flac",
        "lat": "-20.27417",
        "lng": "57.36306"
    },
    {
        "country": "MU",
        "name": "Esp\u00e9rance Tr\u00e9buchet",
        "lat": "-20.06972",
        "lng": "57.64194"
    },
    {
        "country": "MU",
        "name": "Curepipe",
        "lat": "-20.31472",
        "lng": "57.52028"
    },
    {
        "country": "MU",
        "name": "Cr\u00e8ve Coeur",
        "lat": "-20.19111",
        "lng": "57.55722"
    },
    {
        "country": "MU",
        "name": "Cl\u00e9mencia",
        "lat": "-20.26389",
        "lng": "57.70611"
    },
    {
        "country": "MU",
        "name": "Chemin Grenier",
        "lat": "-20.48722",
        "lng": "57.46556"
    },
    {
        "country": "MU",
        "name": "Chamouny",
        "lat": "-20.48222",
        "lng": "57.46611"
    },
    {
        "country": "MU",
        "name": "Centre de Flacq",
        "lat": "-20.18972",
        "lng": "57.71444"
    },
    {
        "country": "MU",
        "name": "Cascavelle",
        "lat": "-20.28694",
        "lng": "57.40722"
    },
    {
        "country": "MU",
        "name": "Cap Malheureux",
        "lat": "-19.98417",
        "lng": "57.61417"
    },
    {
        "country": "MU",
        "name": "Camp Thorel",
        "lat": "-20.21472",
        "lng": "57.61611"
    },
    {
        "country": "MU",
        "name": "Camp Diable",
        "lat": "-20.46278",
        "lng": "57.57889"
    },
    {
        "country": "MU",
        "name": "Camp de Masque",
        "lat": "-20.23694",
        "lng": "57.66333"
    },
    {
        "country": "MU",
        "name": "Bris\u00e9e Verdi\u00e8re",
        "lat": "-20.16389",
        "lng": "57.64667"
    },
    {
        "country": "MU",
        "name": "Bon Accueil",
        "lat": "-20.17083",
        "lng": "57.65639"
    },
    {
        "country": "MU",
        "name": "Bois des Amourettes",
        "lat": "-20.36306",
        "lng": "57.73111"
    },
    {
        "country": "MU",
        "name": "Bel Air Rivi\u00e8re S\u00e8che",
        "lat": "-20.25777",
        "lng": "57.74976"
    },
    {
        "country": "MU",
        "name": "Beau Vallon",
        "lat": "-20.41889",
        "lng": "57.69528"
    },
    {
        "country": "MU",
        "name": "Beau Bassin-Rose Hill",
        "lat": "-20.23325",
        "lng": "57.46609"
    },
    {
        "country": "MU",
        "name": "Bambous",
        "lat": "-20.25667",
        "lng": "57.40611"
    },
    {
        "country": "MU",
        "name": "Albion",
        "lat": "-20.20814",
        "lng": "57.40766"
    },
    {
        "country": "MU",
        "name": "Laventure",
        "lat": "-20.14583",
        "lng": "57.67667"
    },
    {
        "country": "MU",
        "name": "Cluny",
        "lat": "-20.36694",
        "lng": "57.60389"
    },
    {
        "country": "MU",
        "name": "Cottage",
        "lat": "-20.05972",
        "lng": "57.62917"
    },
    {
        "country": "MU",
        "name": "Pointe aux Piments",
        "lat": "-20.06278",
        "lng": "57.51306"
    },
    {
        "country": "MU",
        "name": "Congomah",
        "lat": "-20.14889",
        "lng": "57.59083"
    },
    {
        "country": "MU",
        "name": "Amaury",
        "lat": "-20.13083",
        "lng": "57.65917"
    },
    {
        "country": "MU",
        "name": "Plaines des Roches",
        "lat": "-20.11167",
        "lng": "57.69083"
    },
    {
        "country": "MU",
        "name": "Mare La Chaux",
        "lat": "-20.19806",
        "lng": "57.74944"
    },
    {
        "country": "MU",
        "name": "Quatre Cocos",
        "lat": "-20.20151",
        "lng": "57.77448"
    },
    {
        "country": "MU",
        "name": "Camp Ithier",
        "lat": "-20.21583",
        "lng": "57.74556"
    },
    {
        "country": "MU",
        "name": "Ecroignard",
        "lat": "-20.22611",
        "lng": "57.73611"
    },
    {
        "country": "MU",
        "name": "Bambous Virieux",
        "lat": "-20.34278",
        "lng": "57.7575"
    },
    {
        "country": "MU",
        "name": "Ebene",
        "lat": "-20.24494",
        "lng": "57.49163"
    },
    {
        "country": "MU",
        "name": "Gros Cailloux",
        "lat": "-20.20722",
        "lng": "57.43"
    },
    {
        "country": "MU",
        "name": "Mapou",
        "lat": "-20.07583",
        "lng": "57.60139"
    },
    {
        "country": "MU",
        "name": "Dubreuil",
        "lat": "-20.30132",
        "lng": "57.59861"
    },
    {
        "country": "MU",
        "name": "Le Hochet",
        "lat": "-20.135",
        "lng": "57.52111"
    },
    {
        "country": "MU",
        "name": "Calebasses",
        "lat": "-20.11167",
        "lng": "57.55389"
    },
    {
        "country": "MU",
        "name": "Arsenal",
        "lat": "-20.10556",
        "lng": "57.53528"
    },
    {
        "country": "MU",
        "name": "Port Mathurin",
        "lat": "-19.68333",
        "lng": "63.41667"
    },
    {
        "country": "MU",
        "name": "Baie aux Hu\u00eetres",
        "lat": "-19.69444",
        "lng": "63.40833"
    },
    {
        "country": "MU",
        "name": "Cargados Carajos",
        "lat": "-16.60329",
        "lng": "59.65851"
    }
]