[
    {
        "country": "MX",
        "name": "Cuauht\u00e9moc",
        "lat": "22.54408",
        "lng": "-98.15074"
    },
    {
        "country": "MX",
        "name": "Gonz\u00e1lez",
        "lat": "22.82735",
        "lng": "-98.42713"
    },
    {
        "country": "MX",
        "name": "Santa Martha",
        "lat": "22.34278",
        "lng": "-98.70639"
    },
    {
        "country": "MX",
        "name": "G\u00f3mez Far\u00edas",
        "lat": "22.88371",
        "lng": "-99.02612"
    },
    {
        "country": "MX",
        "name": "Xicot\u00e9ncatl",
        "lat": "22.99623",
        "lng": "-98.94218"
    },
    {
        "country": "MX",
        "name": "San Fernando",
        "lat": "24.84749",
        "lng": "-98.14828"
    },
    {
        "country": "MX",
        "name": "El Control",
        "lat": "25.95867",
        "lng": "-97.81281"
    },
    {
        "country": "MX",
        "name": "Ciudad Gustavo D\u00edaz Ordaz",
        "lat": "26.23186",
        "lng": "-98.5956"
    },
    {
        "country": "MX",
        "name": "Matlapa",
        "lat": "21.33649",
        "lng": "-98.82777"
    },
    {
        "country": "MX",
        "name": "Nueva Primavera",
        "lat": "21.91342",
        "lng": "-98.85785"
    },
    {
        "country": "MX",
        "name": "Tamcuime",
        "lat": "21.60137",
        "lng": "-99.01077"
    },
    {
        "country": "MX",
        "name": "Tampate",
        "lat": "21.63639",
        "lng": "-99.02552"
    },
    {
        "country": "MX",
        "name": "Ciudad Valles",
        "lat": "21.99631",
        "lng": "-99.01093"
    },
    {
        "country": "MX",
        "name": "El Naranjo",
        "lat": "22.52597",
        "lng": "-99.32968"
    },
    {
        "country": "MX",
        "name": "Zumpango",
        "lat": "19.7967",
        "lng": "-99.09946"
    },
    {
        "country": "MX",
        "name": "Zumpango del R\u00edo",
        "lat": "17.65437",
        "lng": "-99.52725"
    },
    {
        "country": "MX",
        "name": "Zumpahuac\u00e1n",
        "lat": "18.91642",
        "lng": "-99.56568"
    },
    {
        "country": "MX",
        "name": "Zozocolco de Hidalgo",
        "lat": "20.14048",
        "lng": "-97.57567"
    },
    {
        "country": "MX",
        "name": "Zoquitl\u00e1n",
        "lat": "18.33523",
        "lng": "-97.01745"
    },
    {
        "country": "MX",
        "name": "Zoquiopan",
        "lat": "20.00898",
        "lng": "-97.59606"
    },
    {
        "country": "MX",
        "name": "Zoogocho",
        "lat": "17.24009",
        "lng": "-96.24299"
    },
    {
        "country": "MX",
        "name": "Zongozotla",
        "lat": "19.9793",
        "lng": "-97.72751"
    },
    {
        "country": "MX",
        "name": "Zongolica",
        "lat": "18.66673",
        "lng": "-96.99707"
    },
    {
        "country": "MX",
        "name": "Santa Mar\u00eda Zolotepec",
        "lat": "19.41728",
        "lng": "-99.49327"
    },
    {
        "country": "MX",
        "name": "Zitlala",
        "lat": "17.69049",
        "lng": "-99.18642"
    },
    {
        "country": "MX",
        "name": "Zinacant\u00e1n",
        "lat": "16.7602",
        "lng": "-92.72257"
    },
    {
        "country": "MX",
        "name": "Zimatl\u00e1n de \u00c1lvarez",
        "lat": "16.86939",
        "lng": "-96.78435"
    },
    {
        "country": "MX",
        "name": "Zimapan",
        "lat": "20.73814",
        "lng": "-99.3818"
    },
    {
        "country": "MX",
        "name": "Zempoala",
        "lat": "19.91587",
        "lng": "-98.666"
    },
    {
        "country": "MX",
        "name": "Villa Zempoala",
        "lat": "19.44422",
        "lng": "-96.40773"
    },
    {
        "country": "MX",
        "name": "General Zaragoza",
        "lat": "23.97319",
        "lng": "-99.77233"
    },
    {
        "country": "MX",
        "name": "Zaragoza",
        "lat": "21.27975",
        "lng": "-97.72055"
    },
    {
        "country": "MX",
        "name": "Zaragoza",
        "lat": "19.77097",
        "lng": "-97.55506"
    },
    {
        "country": "MX",
        "name": "Zaragoza de Guadalupe",
        "lat": "19.1483",
        "lng": "-99.64405"
    },
    {
        "country": "MX",
        "name": "Zapotl\u00e1n de Ju\u00e1rez",
        "lat": "19.97709",
        "lng": "-98.8642"
    },
    {
        "country": "MX",
        "name": "Zapotitl\u00e1n",
        "lat": "18.3296",
        "lng": "-97.47399"
    },
    {
        "country": "MX",
        "name": "Zapotitl\u00e1n Palmas",
        "lat": "17.88965",
        "lng": "-97.81849"
    },
    {
        "country": "MX",
        "name": "Zacualtip\u00e1n",
        "lat": "20.65002",
        "lng": "-98.65628"
    },
    {
        "country": "MX",
        "name": "Zacualpan",
        "lat": "18.71895",
        "lng": "-99.77605"
    },
    {
        "country": "MX",
        "name": "Zacatl\u00e1n",
        "lat": "19.9355",
        "lng": "-97.96125"
    },
    {
        "country": "MX",
        "name": "Zacatepec",
        "lat": "19.26631",
        "lng": "-97.5328"
    },
    {
        "country": "MX",
        "name": "Zacatepec",
        "lat": "18.65409",
        "lng": "-99.18981"
    },
    {
        "country": "MX",
        "name": "Zacapoaxtla",
        "lat": "19.87271",
        "lng": "-97.58899"
    },
    {
        "country": "MX",
        "name": "Zacapala",
        "lat": "18.59415",
        "lng": "-98.06583"
    },
    {
        "country": "MX",
        "name": "Zacamixtle",
        "lat": "21.24762",
        "lng": "-97.72155"
    },
    {
        "country": "MX",
        "name": "Villa de Zaachila",
        "lat": "16.95098",
        "lng": "-96.74938"
    },
    {
        "country": "MX",
        "name": "Yucuyachi",
        "lat": "17.60858",
        "lng": "-98.19675"
    },
    {
        "country": "MX",
        "name": "San Pedro M\u00e1rtir Yucuxaco",
        "lat": "17.43245",
        "lng": "-97.611"
    },
    {
        "country": "MX",
        "name": "Santiago Yogana",
        "lat": "16.4613",
        "lng": "-96.78786"
    },
    {
        "country": "MX",
        "name": "Magdalena Yodocono de Porfirio D\u00edaz",
        "lat": "17.3847",
        "lng": "-97.3553"
    },
    {
        "country": "MX",
        "name": "San Agust\u00edn Yatareni",
        "lat": "17.08198",
        "lng": "-96.66578"
    },
    {
        "country": "MX",
        "name": "Yehualtepec",
        "lat": "18.79518",
        "lng": "-97.6616"
    },
    {
        "country": "MX",
        "name": "Yecuatla",
        "lat": "19.86614",
        "lng": "-96.77836"
    },
    {
        "country": "MX",
        "name": "Yecapixtla",
        "lat": "18.88333",
        "lng": "-98.865"
    },
    {
        "country": "MX",
        "name": "Yaxkukul",
        "lat": "21.06139",
        "lng": "-89.41932"
    },
    {
        "country": "MX",
        "name": "Yaxe",
        "lat": "16.72595",
        "lng": "-96.47191"
    },
    {
        "country": "MX",
        "name": "Yaxcab\u00e1",
        "lat": "20.54846",
        "lng": "-88.82714"
    },
    {
        "country": "MX",
        "name": "Yautepec",
        "lat": "18.88188",
        "lng": "-99.06715"
    },
    {
        "country": "MX",
        "name": "Yatzachi",
        "lat": "17.22588",
        "lng": "-96.22137"
    },
    {
        "country": "MX",
        "name": "Yaonahuac",
        "lat": "19.87076",
        "lng": "-97.46587"
    },
    {
        "country": "MX",
        "name": "Yanga",
        "lat": "18.83288",
        "lng": "-96.79837"
    },
    {
        "country": "MX",
        "name": "Yajal\u00f3n",
        "lat": "17.17276",
        "lng": "-92.33315"
    },
    {
        "country": "MX",
        "name": "Xoxolpa",
        "lat": "20.87574",
        "lng": "-98.42386"
    },
    {
        "country": "MX",
        "name": "Xoxocotla",
        "lat": "18.68415",
        "lng": "-99.24577"
    },
    {
        "country": "MX",
        "name": "Xopilapa",
        "lat": "18.50472",
        "lng": "-97.07944"
    },
    {
        "country": "MX",
        "name": "Xonacatl\u00e1n",
        "lat": "19.40513",
        "lng": "-99.52807"
    },
    {
        "country": "MX",
        "name": "Xometla",
        "lat": "19.64281",
        "lng": "-98.88171"
    },
    {
        "country": "MX",
        "name": "Xocotla",
        "lat": "19.01511",
        "lng": "-97.10092"
    },
    {
        "country": "MX",
        "name": "Xochitlan Todos Santos",
        "lat": "18.70395",
        "lng": "-97.77609"
    },
    {
        "country": "MX",
        "name": "Xochitepec",
        "lat": "18.7808",
        "lng": "-99.23049"
    },
    {
        "country": "MX",
        "name": "Xochistlahuaca",
        "lat": "16.78915",
        "lng": "-98.24172"
    },
    {
        "country": "MX",
        "name": "Xochimilco",
        "lat": "19.25465",
        "lng": "-99.10356"
    },
    {
        "country": "MX",
        "name": "Xochiltepec",
        "lat": "18.65095",
        "lng": "-98.3445"
    },
    {
        "country": "MX",
        "name": "Xochihuehuetl\u00e1n",
        "lat": "17.90619",
        "lng": "-98.48818"
    },
    {
        "country": "MX",
        "name": "Xilitla",
        "lat": "21.38681",
        "lng": "-98.99009"
    },
    {
        "country": "MX",
        "name": "Xicotepec de Ju\u00e1rez",
        "lat": "20.27605",
        "lng": "-97.96111"
    },
    {
        "country": "MX",
        "name": "Xico",
        "lat": "19.42178",
        "lng": "-97.00819"
    },
    {
        "country": "MX",
        "name": "San Miguel Xico Viejo",
        "lat": "19.27022",
        "lng": "-98.93588"
    },
    {
        "country": "MX",
        "name": "Xayacatl\u00e1n de Bravo",
        "lat": "18.23712",
        "lng": "-97.97524"
    },
    {
        "country": "MX",
        "name": "Santa Mar\u00eda Xadani",
        "lat": "16.36198",
        "lng": "-95.01826"
    },
    {
        "country": "MX",
        "name": "Xaltianguis",
        "lat": "17.09834",
        "lng": "-99.71557"
    },
    {
        "country": "MX",
        "name": "Xaltepuxtla",
        "lat": "20.17546",
        "lng": "-97.97208"
    },
    {
        "country": "MX",
        "name": "Xaltepec",
        "lat": "18.88163",
        "lng": "-97.60825"
    },
    {
        "country": "MX",
        "name": "Xalpatlahuac",
        "lat": "17.47066",
        "lng": "-98.60675"
    },
    {
        "country": "MX",
        "name": "Xaloztoc",
        "lat": "19.40775",
        "lng": "-98.04602"
    },
    {
        "country": "MX",
        "name": "Santa Ana Xalmimilulco",
        "lat": "19.21287",
        "lng": "-98.38207"
    },
    {
        "country": "MX",
        "name": "Vista Hermosa",
        "lat": "19.51616",
        "lng": "-99.22335"
    },
    {
        "country": "MX",
        "name": "San Antonio Virreyes",
        "lat": "19.40989",
        "lng": "-97.63697"
    },
    {
        "country": "MX",
        "name": "Villa Victoria",
        "lat": "19.43693",
        "lng": "-99.99589"
    },
    {
        "country": "MX",
        "name": "Camar\u00f3n de Tejeda",
        "lat": "19.02166",
        "lng": "-96.61513"
    },
    {
        "country": "MX",
        "name": "\u00c1lvaro Obreg\u00f3n",
        "lat": "19.35867",
        "lng": "-99.20329"
    },
    {
        "country": "MX",
        "name": "Villa Mainero",
        "lat": "24.56007",
        "lng": "-99.61561"
    },
    {
        "country": "MX",
        "name": "Villahermosa",
        "lat": "17.98689",
        "lng": "-92.93028"
    },
    {
        "country": "MX",
        "name": "Gustavo Adolfo Madero",
        "lat": "19.49392",
        "lng": "-99.11075"
    },
    {
        "country": "MX",
        "name": "Villa Guerrero",
        "lat": "18.96211",
        "lng": "-99.64061"
    },
    {
        "country": "MX",
        "name": "Villagr\u00e1n",
        "lat": "24.47264",
        "lng": "-99.49107"
    },
    {
        "country": "MX",
        "name": "El Triunfo",
        "lat": "17.92241",
        "lng": "-91.16946"
    },
    {
        "country": "MX",
        "name": "Villa del Carb\u00f3n",
        "lat": "19.72875",
        "lng": "-99.46362"
    },
    {
        "country": "MX",
        "name": "Villa Cuauhtemoc",
        "lat": "22.18439",
        "lng": "-97.83472"
    },
    {
        "country": "MX",
        "name": "Villa Cuauht\u00e9moc Otzolotepec",
        "lat": "19.41676",
        "lng": "-99.55872"
    },
    {
        "country": "MX",
        "name": "Villa Corzo",
        "lat": "16.1851",
        "lng": "-93.26881"
    },
    {
        "country": "MX",
        "name": "Villa Comaltitl\u00e1n",
        "lat": "15.21397",
        "lng": "-92.57659"
    },
    {
        "country": "MX",
        "name": "Tesechoacan",
        "lat": "18.13749",
        "lng": "-95.65835"
    },
    {
        "country": "MX",
        "name": "Villa Aldama",
        "lat": "19.64861",
        "lng": "-97.22333"
    },
    {
        "country": "MX",
        "name": "Veracruz",
        "lat": "19.18095",
        "lng": "-96.1429"
    },
    {
        "country": "MX",
        "name": "Venustiano Carranza",
        "lat": "16.33815",
        "lng": "-92.563"
    },
    {
        "country": "MX",
        "name": "Veinte de Noviembre",
        "lat": "14.9773",
        "lng": "-92.26509"
    },
    {
        "country": "MX",
        "name": "Vega de Alatorre",
        "lat": "20.02823",
        "lng": "-96.64751"
    },
    {
        "country": "MX",
        "name": "Valle Hermoso",
        "lat": "25.67207",
        "lng": "-97.81313"
    },
    {
        "country": "MX",
        "name": "Vallecillo",
        "lat": "26.66033",
        "lng": "-99.98744"
    },
    {
        "country": "MX",
        "name": "Valladolid",
        "lat": "20.68812",
        "lng": "-88.19936"
    },
    {
        "country": "MX",
        "name": "\u00darsulo Galv\u00e1n",
        "lat": "19.40531",
        "lng": "-96.3609"
    },
    {
        "country": "MX",
        "name": "Uni\u00f3n Hidalgo",
        "lat": "16.4723",
        "lng": "-94.82952"
    },
    {
        "country": "MX",
        "name": "Uman",
        "lat": "20.88213",
        "lng": "-89.74649"
    },
    {
        "country": "MX",
        "name": "Uc\u00fa",
        "lat": "21.03135",
        "lng": "-89.74466"
    },
    {
        "country": "MX",
        "name": "Uayma",
        "lat": "20.71781",
        "lng": "-88.31693"
    },
    {
        "country": "MX",
        "name": "Tzucacab",
        "lat": "20.07237",
        "lng": "-89.05022"
    },
    {
        "country": "MX",
        "name": "Tzompantepec",
        "lat": "19.37608",
        "lng": "-98.09014"
    },
    {
        "country": "MX",
        "name": "Tzinacapan",
        "lat": "20.02944",
        "lng": "-97.54047"
    },
    {
        "country": "MX",
        "name": "Tzimol",
        "lat": "16.26667",
        "lng": "-92.26667"
    },
    {
        "country": "MX",
        "name": "Tuzant\u00e1n",
        "lat": "15.14711",
        "lng": "-92.42237"
    },
    {
        "country": "MX",
        "name": "Tuzamapan",
        "lat": "20.06572",
        "lng": "-97.5752"
    },
    {
        "country": "MX",
        "name": "Tuzamapan",
        "lat": "19.40253",
        "lng": "-96.8636"
    },
    {
        "country": "MX",
        "name": "Tuxtla",
        "lat": "16.75973",
        "lng": "-93.11308"
    },
    {
        "country": "MX",
        "name": "Tuxtla Chico",
        "lat": "14.93945",
        "lng": "-92.1673"
    },
    {
        "country": "MX",
        "name": "Tuxtla",
        "lat": "20.00037",
        "lng": "-97.65526"
    },
    {
        "country": "MX",
        "name": "T\u00faxpam de Rodr\u00edguez Cano",
        "lat": "20.95777",
        "lng": "-97.40805"
    },
    {
        "country": "MX",
        "name": "Tunkas",
        "lat": "20.90294",
        "lng": "-88.75171"
    },
    {
        "country": "MX",
        "name": "Tulum",
        "lat": "20.21173",
        "lng": "-87.46325"
    },
    {
        "country": "MX",
        "name": "Tultitl\u00e1n",
        "lat": "19.64655",
        "lng": "-99.16787"
    },
    {
        "country": "MX",
        "name": "Tultepec",
        "lat": "19.685",
        "lng": "-99.12806"
    },
    {
        "country": "MX",
        "name": "Tulcingo de Valle",
        "lat": "18.0437",
        "lng": "-98.44074"
    },
    {
        "country": "MX",
        "name": "Tulancingo",
        "lat": "20.08355",
        "lng": "-98.36288"
    },
    {
        "country": "MX",
        "name": "Tula de Allende",
        "lat": "20.05161",
        "lng": "-99.34397"
    },
    {
        "country": "MX",
        "name": "Ciudad Tula",
        "lat": "22.99732",
        "lng": "-99.71101"
    },
    {
        "country": "MX",
        "name": "Trinidad Zaachila",
        "lat": "16.92135",
        "lng": "-96.76384"
    },
    {
        "country": "MX",
        "name": "Tres Picos",
        "lat": "15.88209",
        "lng": "-93.52867"
    },
    {
        "country": "MX",
        "name": "Trapiche del Rosario",
        "lat": "19.54306",
        "lng": "-96.74111"
    },
    {
        "country": "MX",
        "name": "Totutla",
        "lat": "19.21169",
        "lng": "-96.96118"
    },
    {
        "country": "MX",
        "name": "Totontepec Villa de Morelos",
        "lat": "17.25679",
        "lng": "-96.02786"
    },
    {
        "country": "MX",
        "name": "Totoltepec de Guerrero",
        "lat": "18.2256",
        "lng": "-97.85511"
    },
    {
        "country": "MX",
        "name": "Totolapan",
        "lat": "18.98487",
        "lng": "-98.92073"
    },
    {
        "country": "MX",
        "name": "Totolapa",
        "lat": "16.54357",
        "lng": "-92.68019"
    },
    {
        "country": "MX",
        "name": "San Miguel Totocuitlapilco",
        "lat": "19.23107",
        "lng": "-99.59116"
    },
    {
        "country": "MX",
        "name": "Santo Domingo Tomaltepec",
        "lat": "17.06117",
        "lng": "-96.6228"
    },
    {
        "country": "MX",
        "name": "Tonalixco",
        "lat": "18.78194",
        "lng": "-97.05972"
    },
    {
        "country": "MX",
        "name": "Tomatl\u00e1n",
        "lat": "19.03102",
        "lng": "-97.00986"
    },
    {
        "country": "MX",
        "name": "Toluca",
        "lat": "19.28786",
        "lng": "-99.65324"
    },
    {
        "country": "MX",
        "name": "Tolome",
        "lat": "19.26667",
        "lng": "-96.39472"
    },
    {
        "country": "MX",
        "name": "Tolim\u00e1n",
        "lat": "20.90845",
        "lng": "-99.9304"
    },
    {
        "country": "MX",
        "name": "Tolcayuca",
        "lat": "19.95814",
        "lng": "-98.91941"
    },
    {
        "country": "MX",
        "name": "Tocuila",
        "lat": "18.95",
        "lng": "-97.01667"
    },
    {
        "country": "MX",
        "name": "Tochtepec",
        "lat": "18.83928",
        "lng": "-97.82282"
    },
    {
        "country": "MX",
        "name": "Tochimilco",
        "lat": "18.89062",
        "lng": "-98.57154"
    },
    {
        "country": "MX",
        "name": "Tocatl\u00e1n",
        "lat": "19.38865",
        "lng": "-98.0274"
    },
    {
        "country": "MX",
        "name": "Tlazala de Fabela",
        "lat": "19.55857",
        "lng": "-99.41469"
    },
    {
        "country": "MX",
        "name": "Tlayacapan",
        "lat": "18.95556",
        "lng": "-98.98111"
    },
    {
        "country": "MX",
        "name": "Tlaxco",
        "lat": "19.61442",
        "lng": "-98.11997"
    },
    {
        "country": "MX",
        "name": "Tlaxcoapan",
        "lat": "20.09163",
        "lng": "-99.22042"
    },
    {
        "country": "MX",
        "name": "Tlaxco",
        "lat": "20.42345",
        "lng": "-98.02917"
    },
    {
        "country": "MX",
        "name": "San Bernardino Tlaxcalancingo",
        "lat": "19.02867",
        "lng": "-98.27698"
    },
    {
        "country": "MX",
        "name": "Tlatlauquitepec",
        "lat": "19.84765",
        "lng": "-97.49718"
    },
    {
        "country": "MX",
        "name": "Tlatenchi",
        "lat": "18.59639",
        "lng": "-99.18639"
    },
    {
        "country": "MX",
        "name": "Tlaquiltenango",
        "lat": "18.63429",
        "lng": "-99.1632"
    },
    {
        "country": "MX",
        "name": "Tlapa de Comonfort",
        "lat": "17.54528",
        "lng": "-98.57599"
    },
    {
        "country": "MX",
        "name": "Tlapacoyan",
        "lat": "19.96268",
        "lng": "-97.21141"
    },
    {
        "country": "MX",
        "name": "Tlanepantla",
        "lat": "18.8631",
        "lng": "-97.88701"
    },
    {
        "country": "MX",
        "name": "Tlanchinol",
        "lat": "20.9919",
        "lng": "-98.65715"
    },
    {
        "country": "MX",
        "name": "Tlanalapa",
        "lat": "19.81868",
        "lng": "-98.60396"
    },
    {
        "country": "MX",
        "name": "Tlanalapan",
        "lat": "19.25084",
        "lng": "-97.27604"
    },
    {
        "country": "MX",
        "name": "Tlamixtlahuacan",
        "lat": "17.50306",
        "lng": "-99.22583"
    },
    {
        "country": "MX",
        "name": "Tlamacazapa",
        "lat": "18.49649",
        "lng": "-99.50037"
    },
    {
        "country": "MX",
        "name": "Tlaltizap\u00e1n",
        "lat": "18.6863",
        "lng": "-99.11868"
    },
    {
        "country": "MX",
        "name": "Tlaltenango",
        "lat": "19.17165",
        "lng": "-98.34072"
    },
    {
        "country": "MX",
        "name": "Tlalpan",
        "lat": "19.29513",
        "lng": "-99.16206"
    },
    {
        "country": "MX",
        "name": "Tlalnepantla",
        "lat": "19.54005",
        "lng": "-99.19538"
    },
    {
        "country": "MX",
        "name": "Tlalnepantla",
        "lat": "19.00885",
        "lng": "-98.99613"
    },
    {
        "country": "MX",
        "name": "Tlalmanalco",
        "lat": "19.20521",
        "lng": "-98.80115"
    },
    {
        "country": "MX",
        "name": "Tlalixtaquilla",
        "lat": "17.57674",
        "lng": "-98.36727"
    },
    {
        "country": "MX",
        "name": "Tlalixtac de Cabrera",
        "lat": "17.07112",
        "lng": "-96.6471"
    },
    {
        "country": "MX",
        "name": "Tlalixcoyan",
        "lat": "18.80222",
        "lng": "-96.06056"
    },
    {
        "country": "MX",
        "name": "San Andr\u00e9s Tlalamac",
        "lat": "18.96694",
        "lng": "-98.80778"
    },
    {
        "country": "MX",
        "name": "Tlahuelompa (San Francisco Tlahuelompa)",
        "lat": "20.65082",
        "lng": "-98.57522"
    },
    {
        "country": "MX",
        "name": "Tlahuelilpan",
        "lat": "20.13076",
        "lng": "-99.23145"
    },
    {
        "country": "MX",
        "name": "Tl\u00e1huac",
        "lat": "19.28689",
        "lng": "-99.00507"
    },
    {
        "country": "MX",
        "name": "Tlacuilotepec",
        "lat": "20.32574",
        "lng": "-98.06867"
    },
    {
        "country": "MX",
        "name": "San Jos\u00e9 Tlacotitl\u00e1n",
        "lat": "18.98583",
        "lng": "-98.80611"
    },
    {
        "country": "MX",
        "name": "Tlacotepec (San Mateo)",
        "lat": "20.06028",
        "lng": "-97.84917"
    },
    {
        "country": "MX",
        "name": "Tlacotepec de Mej\u00eda",
        "lat": "19.18946",
        "lng": "-96.83805"
    },
    {
        "country": "MX",
        "name": "Tlacotepec",
        "lat": "18.81444",
        "lng": "-98.74514"
    },
    {
        "country": "MX",
        "name": "Tlacotepec",
        "lat": "18.68193",
        "lng": "-97.65602"
    },
    {
        "country": "MX",
        "name": "Tlacotepec",
        "lat": "17.78978",
        "lng": "-99.97961"
    },
    {
        "country": "MX",
        "name": "Tlacotalpan",
        "lat": "18.61333",
        "lng": "-95.6589"
    },
    {
        "country": "MX",
        "name": "Tlacolula de Matamoros",
        "lat": "16.95471",
        "lng": "-96.4759"
    },
    {
        "country": "MX",
        "name": "Tlacojalpan",
        "lat": "18.23096",
        "lng": "-95.94682"
    },
    {
        "country": "MX",
        "name": "San Jer\u00f3nimo Tlacochahuaya",
        "lat": "17.00874",
        "lng": "-96.58275"
    },
    {
        "country": "MX",
        "name": "Tlacoachistlahuaca",
        "lat": "16.81045",
        "lng": "-98.30078"
    },
    {
        "country": "MX",
        "name": "Tlachichuca",
        "lat": "19.11485",
        "lng": "-97.41915"
    },
    {
        "country": "MX",
        "name": "Tizim\u00edn",
        "lat": "21.14268",
        "lng": "-88.15101"
    },
    {
        "country": "MX",
        "name": "Tizayuca",
        "lat": "19.83721",
        "lng": "-98.97607"
    },
    {
        "country": "MX",
        "name": "Tixtla de Guerrero",
        "lat": "17.56732",
        "lng": "-99.39799"
    },
    {
        "country": "MX",
        "name": "Tixpehual",
        "lat": "20.97739",
        "lng": "-89.44203"
    },
    {
        "country": "MX",
        "name": "Tixkokob",
        "lat": "21.0022",
        "lng": "-89.39484"
    },
    {
        "country": "MX",
        "name": "Tixcacaltuyub",
        "lat": "20.49316",
        "lng": "-88.91637"
    },
    {
        "country": "MX",
        "name": "Tinum",
        "lat": "20.76779",
        "lng": "-88.39164"
    },
    {
        "country": "MX",
        "name": "Timucuy",
        "lat": "20.81023",
        "lng": "-89.51383"
    },
    {
        "country": "MX",
        "name": "Tilzapotla",
        "lat": "18.48916",
        "lng": "-99.27442"
    },
    {
        "country": "MX",
        "name": "Santiago Tillo",
        "lat": "17.46085",
        "lng": "-97.32019"
    },
    {
        "country": "MX",
        "name": "San Mart\u00edn Tilcajete",
        "lat": "16.86008",
        "lng": "-96.6949"
    },
    {
        "country": "MX",
        "name": "Tilapa",
        "lat": "18.59717",
        "lng": "-98.55156"
    },
    {
        "country": "MX",
        "name": "Tila",
        "lat": "17.30054",
        "lng": "-92.4273"
    },
    {
        "country": "MX",
        "name": "Tikuch",
        "lat": "20.70301",
        "lng": "-88.11272"
    },
    {
        "country": "MX",
        "name": "Tihuatlan",
        "lat": "20.71449",
        "lng": "-97.53335"
    },
    {
        "country": "MX",
        "name": "Tiholop",
        "lat": "20.33234",
        "lng": "-88.68958"
    },
    {
        "country": "MX",
        "name": "Tierra Colorada",
        "lat": "17.16571",
        "lng": "-99.52791"
    },
    {
        "country": "MX",
        "name": "Ticul",
        "lat": "20.39833",
        "lng": "-89.53541"
    },
    {
        "country": "MX",
        "name": "Santiago T\u00edanguistenco",
        "lat": "19.18024",
        "lng": "-99.46644"
    },
    {
        "country": "MX",
        "name": "Tezontepec de Aldama",
        "lat": "20.19073",
        "lng": "-99.27429"
    },
    {
        "country": "MX",
        "name": "Tezontepec",
        "lat": "19.88063",
        "lng": "-98.81972"
    },
    {
        "country": "MX",
        "name": "Tezoatl\u00e1n de Segura y Luna",
        "lat": "17.65388",
        "lng": "-97.81068"
    },
    {
        "country": "MX",
        "name": "Teziutlan",
        "lat": "19.8173",
        "lng": "-97.35992"
    },
    {
        "country": "MX",
        "name": "Texistepec",
        "lat": "17.89476",
        "lng": "-94.81711"
    },
    {
        "country": "MX",
        "name": "Texhuac\u00e1n",
        "lat": "18.62233",
        "lng": "-97.04025"
    },
    {
        "country": "MX",
        "name": "Texcoco",
        "lat": "19.51194",
        "lng": "-98.88293"
    },
    {
        "country": "MX",
        "name": "Texcalyacac",
        "lat": "19.13253",
        "lng": "-99.50163"
    },
    {
        "country": "MX",
        "name": "San Juan Texcalpan",
        "lat": "18.93583",
        "lng": "-98.92889"
    },
    {
        "country": "MX",
        "name": "Texcala",
        "lat": "18.93444",
        "lng": "-98.79472"
    },
    {
        "country": "MX",
        "name": "San Gabriel Tetzoyoc\u00e1n",
        "lat": "18.75727",
        "lng": "-97.70324"
    },
    {
        "country": "MX",
        "name": "Tetiz",
        "lat": "20.96316",
        "lng": "-89.93384"
    },
    {
        "country": "MX",
        "name": "Tetipac",
        "lat": "18.64778",
        "lng": "-99.64778"
    },
    {
        "country": "MX",
        "name": "Tetepango",
        "lat": "20.10168",
        "lng": "-99.15108"
    },
    {
        "country": "MX",
        "name": "Teteltzingo",
        "lat": "19.05141",
        "lng": "-97.14465"
    },
    {
        "country": "MX",
        "name": "Teteles de Avila Castillo",
        "lat": "19.85748",
        "lng": "-97.45703"
    },
    {
        "country": "MX",
        "name": "Tetela de Ocampo",
        "lat": "19.8177",
        "lng": "-97.80691"
    },
    {
        "country": "MX",
        "name": "Tetela del Volc\u00e1n",
        "lat": "18.89306",
        "lng": "-98.72972"
    },
    {
        "country": "MX",
        "name": "Tetecala",
        "lat": "18.73009",
        "lng": "-99.40021"
    },
    {
        "country": "MX",
        "name": "Tesoco",
        "lat": "20.72259",
        "lng": "-88.15456"
    },
    {
        "country": "MX",
        "name": "Terrenate",
        "lat": "19.47666",
        "lng": "-97.9202"
    },
    {
        "country": "MX",
        "name": "Tequixquiac",
        "lat": "19.90944",
        "lng": "-99.14472"
    },
    {
        "country": "MX",
        "name": "Tequisquiapan",
        "lat": "20.5225",
        "lng": "-99.89167"
    },
    {
        "country": "MX",
        "name": "Tequila",
        "lat": "18.72998",
        "lng": "-97.06991"
    },
    {
        "country": "MX",
        "name": "San Mart\u00edn Tequesquipan (Tequesquipan)",
        "lat": "19.05806",
        "lng": "-99.94667"
    },
    {
        "country": "MX",
        "name": "San Juan Tepulco",
        "lat": "19.11709",
        "lng": "-97.98847"
    },
    {
        "country": "MX",
        "name": "Cuautitl\u00e1n Izcalli",
        "lat": "19.64388",
        "lng": "-99.21598"
    },
    {
        "country": "MX",
        "name": "Tepoztl\u00e1n",
        "lat": "18.98622",
        "lng": "-99.10051"
    },
    {
        "country": "MX",
        "name": "Tepotzotl\u00e1n",
        "lat": "19.72116",
        "lng": "-99.22391"
    },
    {
        "country": "MX",
        "name": "Tepeyahualco",
        "lat": "18.81428",
        "lng": "-97.87702"
    },
    {
        "country": "MX",
        "name": "Tepexi de Rodr\u00edguez",
        "lat": "18.58108",
        "lng": "-97.92606"
    },
    {
        "country": "MX",
        "name": "Tepetzintla",
        "lat": "21.1641",
        "lng": "-97.85235"
    },
    {
        "country": "MX",
        "name": "Tepetzintla",
        "lat": "19.9672",
        "lng": "-97.84143"
    },
    {
        "country": "MX",
        "name": "Tepetlaoxtoc",
        "lat": "19.57437",
        "lng": "-98.81835"
    },
    {
        "country": "MX",
        "name": "Tepetlacolco",
        "lat": "18.64104",
        "lng": "-97.69284"
    },
    {
        "country": "MX",
        "name": "Barrio Tepetitl\u00e1n Emilio Portes Gil",
        "lat": "19.65306",
        "lng": "-99.88667"
    },
    {
        "country": "MX",
        "name": "Santa Cecilia Tepetitl\u00e1n",
        "lat": "19.19254",
        "lng": "-97.43395"
    },
    {
        "country": "MX",
        "name": "Tepetitla",
        "lat": "19.26531",
        "lng": "-98.37645"
    },
    {
        "country": "MX",
        "name": "Tepepa",
        "lat": "20.1344",
        "lng": "-98.17131"
    },
    {
        "country": "MX",
        "name": "Tepeojuma",
        "lat": "18.72468",
        "lng": "-98.44633"
    },
    {
        "country": "MX",
        "name": "Tepeji del R\u00edo de Ocampo",
        "lat": "19.90481",
        "lng": "-99.34379"
    },
    {
        "country": "MX",
        "name": "Tepecoacuilco de Trujano",
        "lat": "18.2875",
        "lng": "-99.46423"
    },
    {
        "country": "MX",
        "name": "Tepeapulco",
        "lat": "19.7884",
        "lng": "-98.55266"
    },
    {
        "country": "MX",
        "name": "Tepeaca",
        "lat": "18.96688",
        "lng": "-97.8998"
    },
    {
        "country": "MX",
        "name": "Tepatlaxco de Hidalgo",
        "lat": "19.06747",
        "lng": "-97.96595"
    },
    {
        "country": "MX",
        "name": "Tepatlaxco",
        "lat": "19.06927",
        "lng": "-96.84481"
    },
    {
        "country": "MX",
        "name": "Tepatepec",
        "lat": "20.24568",
        "lng": "-99.08981"
    },
    {
        "country": "MX",
        "name": "Tepango",
        "lat": "20.00314",
        "lng": "-97.79651"
    },
    {
        "country": "MX",
        "name": "Tepanco",
        "lat": "18.55686",
        "lng": "-97.5613"
    },
    {
        "country": "MX",
        "name": "Tepalcingo",
        "lat": "18.59498",
        "lng": "-98.84537"
    },
    {
        "country": "MX",
        "name": "Tepakan",
        "lat": "21.04882",
        "lng": "-89.03873"
    },
    {
        "country": "MX",
        "name": "Teotitl\u00e1n del Valle",
        "lat": "17.02975",
        "lng": "-96.51926"
    },
    {
        "country": "MX",
        "name": "Teopisca",
        "lat": "16.54182",
        "lng": "-92.47405"
    },
    {
        "country": "MX",
        "name": "Teopantl\u00e1n",
        "lat": "18.71219",
        "lng": "-98.26341"
    },
    {
        "country": "MX",
        "name": "Teoloyucan",
        "lat": "19.74423",
        "lng": "-99.18113"
    },
    {
        "country": "MX",
        "name": "Teocelo",
        "lat": "19.3856",
        "lng": "-96.97371"
    },
    {
        "country": "MX",
        "name": "Tenosique",
        "lat": "17.4729",
        "lng": "-91.4236"
    },
    {
        "country": "MX",
        "name": "Tanetze de Zaragoza",
        "lat": "17.37616",
        "lng": "-96.30111"
    },
    {
        "country": "MX",
        "name": "Tenejapa",
        "lat": "16.81878",
        "lng": "-92.50646"
    },
    {
        "country": "MX",
        "name": "Tenango del Aire",
        "lat": "19.15774",
        "lng": "-98.85687"
    },
    {
        "country": "MX",
        "name": "Tenango de Doria",
        "lat": "20.33828",
        "lng": "-98.22805"
    },
    {
        "country": "MX",
        "name": "Tenango de Arista",
        "lat": "19.10446",
        "lng": "-99.5898"
    },
    {
        "country": "MX",
        "name": "San Sebasti\u00e1n Tenango",
        "lat": "18.66282",
        "lng": "-98.17392"
    },
    {
        "country": "MX",
        "name": "Tenango",
        "lat": "16.96667",
        "lng": "-92.41667"
    },
    {
        "country": "MX",
        "name": "Tenancingo",
        "lat": "18.96136",
        "lng": "-99.5903"
    },
    {
        "country": "MX",
        "name": "Tenampulco",
        "lat": "20.17042",
        "lng": "-97.40496"
    },
    {
        "country": "MX",
        "name": "Tenampa",
        "lat": "19.24877",
        "lng": "-96.8839"
    },
    {
        "country": "MX",
        "name": "Tenabo",
        "lat": "20.03981",
        "lng": "-90.22573"
    },
    {
        "country": "MX",
        "name": "Tempoal de S\u00e1nchez",
        "lat": "21.51998",
        "lng": "-98.38829"
    },
    {
        "country": "MX",
        "name": "Temozon",
        "lat": "20.80393",
        "lng": "-88.20155"
    },
    {
        "country": "MX",
        "name": "Temoaya",
        "lat": "19.46747",
        "lng": "-99.59407"
    },
    {
        "country": "MX",
        "name": "Temoac",
        "lat": "18.77222",
        "lng": "-98.7775"
    },
    {
        "country": "MX",
        "name": "Temixco",
        "lat": "18.85254",
        "lng": "-99.22537"
    },
    {
        "country": "MX",
        "name": "Temax",
        "lat": "21.15105",
        "lng": "-88.94039"
    },
    {
        "country": "MX",
        "name": "Temascalcingo de Jos\u00e9 Mar\u00eda Velazco",
        "lat": "19.91635",
        "lng": "-100.00369"
    },
    {
        "country": "MX",
        "name": "Temascalapa",
        "lat": "19.82766",
        "lng": "-98.90171"
    },
    {
        "country": "MX",
        "name": "Temapache",
        "lat": "21.06611",
        "lng": "-97.64207"
    },
    {
        "country": "MX",
        "name": "Temamatla",
        "lat": "19.20306",
        "lng": "-98.86921"
    },
    {
        "country": "MX",
        "name": "Teloloapan",
        "lat": "18.3674",
        "lng": "-99.86776"
    },
    {
        "country": "MX",
        "name": "Telixtac",
        "lat": "18.56031",
        "lng": "-98.77625"
    },
    {
        "country": "MX",
        "name": "Telchac Puerto",
        "lat": "21.34121",
        "lng": "-89.26333"
    },
    {
        "country": "MX",
        "name": "Telchac Pueblo",
        "lat": "21.20312",
        "lng": "-89.26945"
    },
    {
        "country": "MX",
        "name": "Tekit",
        "lat": "20.53465",
        "lng": "-89.33315"
    },
    {
        "country": "MX",
        "name": "Tecax",
        "lat": "20.2052",
        "lng": "-89.28522"
    },
    {
        "country": "MX",
        "name": "Tekanto",
        "lat": "21.00968",
        "lng": "-89.10723"
    },
    {
        "country": "MX",
        "name": "San Felipe Tejal\u00e1pam",
        "lat": "17.11134",
        "lng": "-96.8542"
    },
    {
        "country": "MX",
        "name": "San Juan Teitipac",
        "lat": "16.92799",
        "lng": "-96.60619"
    },
    {
        "country": "MX",
        "name": "Tehuixtla",
        "lat": "18.55944",
        "lng": "-99.27119"
    },
    {
        "country": "MX",
        "name": "Tehuetl\u00e1n",
        "lat": "21.05337",
        "lng": "-98.50853"
    },
    {
        "country": "MX",
        "name": "Tehuac\u00e1n",
        "lat": "18.46422",
        "lng": "-97.39735"
    },
    {
        "country": "MX",
        "name": "Tecpat\u00e1n",
        "lat": "17.13676",
        "lng": "-93.31133"
    },
    {
        "country": "MX",
        "name": "Tecozautla",
        "lat": "20.53359",
        "lng": "-99.63449"
    },
    {
        "country": "MX",
        "name": "San Marcos Tecomaxusco",
        "lat": "18.98152",
        "lng": "-98.76035"
    },
    {
        "country": "MX",
        "name": "Tecolutla",
        "lat": "20.48049",
        "lng": "-97.01309"
    },
    {
        "country": "MX",
        "name": "Villa Tecolutilla",
        "lat": "18.28338",
        "lng": "-93.33398"
    },
    {
        "country": "MX",
        "name": "Tekoh",
        "lat": "20.74361",
        "lng": "-89.47406"
    },
    {
        "country": "MX",
        "name": "Barra de Tecoanapa",
        "lat": "16.50864",
        "lng": "-98.73216"
    },
    {
        "country": "MX",
        "name": "San Pedro Techuchulco",
        "lat": "19.11359",
        "lng": "-99.52425"
    },
    {
        "country": "MX",
        "name": "Tecamachalco",
        "lat": "18.88352",
        "lng": "-97.73344"
    },
    {
        "country": "MX",
        "name": "Tecali",
        "lat": "18.9006",
        "lng": "-97.97064"
    },
    {
        "country": "MX",
        "name": "Tecajec",
        "lat": "18.79806",
        "lng": "-98.815"
    },
    {
        "country": "MX",
        "name": "Teapa",
        "lat": "17.5497",
        "lng": "-92.95211"
    },
    {
        "country": "MX",
        "name": "Teabo",
        "lat": "20.40059",
        "lng": "-89.28316"
    },
    {
        "country": "MX",
        "name": "Taxco de Alarc\u00f3n",
        "lat": "18.55462",
        "lng": "-99.60592"
    },
    {
        "country": "MX",
        "name": "Tatatila",
        "lat": "19.6932",
        "lng": "-97.1116"
    },
    {
        "country": "MX",
        "name": "Tatahuicapan",
        "lat": "18.24621",
        "lng": "-94.76124"
    },
    {
        "country": "MX",
        "name": "Tasquillo",
        "lat": "20.54836",
        "lng": "-99.31352"
    },
    {
        "country": "MX",
        "name": "Tapilula",
        "lat": "17.2495",
        "lng": "-93.0167"
    },
    {
        "country": "MX",
        "name": "Tapachula",
        "lat": "14.90385",
        "lng": "-92.25749"
    },
    {
        "country": "MX",
        "name": "Tantoyuca",
        "lat": "21.35064",
        "lng": "-98.2257"
    },
    {
        "country": "MX",
        "name": "Tanute",
        "lat": "21.65243",
        "lng": "-99.03765"
    },
    {
        "country": "MX",
        "name": "Tanqui\u00e1n de Escobedo",
        "lat": "21.60587",
        "lng": "-98.66275"
    },
    {
        "country": "MX",
        "name": "Tanlaj\u00e1s",
        "lat": "21.66518",
        "lng": "-98.886"
    },
    {
        "country": "MX",
        "name": "Tamulte de las Sabanas",
        "lat": "18.16168",
        "lng": "-92.78354"
    },
    {
        "country": "MX",
        "name": "Tamu\u00edn",
        "lat": "22.00554",
        "lng": "-98.77972"
    },
    {
        "country": "MX",
        "name": "Tampico",
        "lat": "22.27817",
        "lng": "-97.86772"
    },
    {
        "country": "MX",
        "name": "Tampamol\u00f3n Corona",
        "lat": "21.5588",
        "lng": "-98.81874"
    },
    {
        "country": "MX",
        "name": "Tampac\u00e1n",
        "lat": "21.40201",
        "lng": "-98.72819"
    },
    {
        "country": "MX",
        "name": "Tamiahua",
        "lat": "21.27881",
        "lng": "-97.4462"
    },
    {
        "country": "MX",
        "name": "Tamazunchale",
        "lat": "21.25993",
        "lng": "-98.78935"
    },
    {
        "country": "MX",
        "name": "Tamasopo",
        "lat": "21.92426",
        "lng": "-99.39365"
    },
    {
        "country": "MX",
        "name": "Tam\u00e1patz",
        "lat": "21.56654",
        "lng": "-99.07764"
    },
    {
        "country": "MX",
        "name": "Tamal\u00edn",
        "lat": "21.33936",
        "lng": "-97.81188"
    },
    {
        "country": "MX",
        "name": "Tahmek",
        "lat": "20.8736",
        "lng": "-89.25473"
    },
    {
        "country": "MX",
        "name": "San Juan Tahitic",
        "lat": "19.93605",
        "lng": "-97.55082"
    },
    {
        "country": "MX",
        "name": "Tacotalpa",
        "lat": "17.59638",
        "lng": "-92.82596"
    },
    {
        "country": "MX",
        "name": "Sultepec de Pedro Ascencio de Alquisiras",
        "lat": "18.85855",
        "lng": "-99.96588"
    },
    {
        "country": "MX",
        "name": "Sucil\u00e1",
        "lat": "21.1565",
        "lng": "-88.31405"
    },
    {
        "country": "MX",
        "name": "Brisas Barra de Suchiate",
        "lat": "14.53588",
        "lng": "-92.22414"
    },
    {
        "country": "MX",
        "name": "Suchiapa",
        "lat": "16.62555",
        "lng": "-93.10074"
    },
    {
        "country": "MX",
        "name": "San Francisco Soyaniquilpan",
        "lat": "20.01488",
        "lng": "-99.53022"
    },
    {
        "country": "MX",
        "name": "Soyal\u00f3",
        "lat": "16.8913",
        "lng": "-92.92433"
    },
    {
        "country": "MX",
        "name": "Sotuta",
        "lat": "20.59678",
        "lng": "-89.00815"
    },
    {
        "country": "MX",
        "name": "Soto la Marina",
        "lat": "23.76953",
        "lng": "-98.20442"
    },
    {
        "country": "MX",
        "name": "Soteapan",
        "lat": "18.23391",
        "lng": "-94.87296"
    },
    {
        "country": "MX",
        "name": "Soltepec",
        "lat": "19.12111",
        "lng": "-97.70861"
    },
    {
        "country": "MX",
        "name": "Soledad de Doblado",
        "lat": "19.04637",
        "lng": "-96.42142"
    },
    {
        "country": "MX",
        "name": "Soconusco",
        "lat": "17.96315",
        "lng": "-94.88097"
    },
    {
        "country": "MX",
        "name": "Socoltenango",
        "lat": "16.24484",
        "lng": "-92.35038"
    },
    {
        "country": "MX",
        "name": "Sochiapa",
        "lat": "19.19292",
        "lng": "-96.93989"
    },
    {
        "country": "MX",
        "name": "Santiago Apostol",
        "lat": "16.80381",
        "lng": "-96.72046"
    },
    {
        "country": "MX",
        "name": "Sisal",
        "lat": "21.167",
        "lng": "-90.02532"
    },
    {
        "country": "MX",
        "name": "Singuilucan",
        "lat": "19.96874",
        "lng": "-98.51935"
    },
    {
        "country": "MX",
        "name": "Simojovel de Allende",
        "lat": "17.2",
        "lng": "-92.63333"
    },
    {
        "country": "MX",
        "name": "Sierra Papacal",
        "lat": "21.12522",
        "lng": "-89.73018"
    },
    {
        "country": "MX",
        "name": "Sey\u00e9",
        "lat": "20.83568",
        "lng": "-89.37174"
    },
    {
        "country": "MX",
        "name": "Seybaplaya",
        "lat": "19.63994",
        "lng": "-90.68706"
    },
    {
        "country": "MX",
        "name": "Sergio Butr\u00f3n Casas",
        "lat": "18.5139",
        "lng": "-88.56883"
    },
    {
        "country": "MX",
        "name": "San Sebasti\u00e1n del Monte",
        "lat": "17.67778",
        "lng": "-98.02194"
    },
    {
        "country": "MX",
        "name": "Sayula de Alem\u00e1n",
        "lat": "17.88191",
        "lng": "-94.95986"
    },
    {
        "country": "MX",
        "name": "Santa Isabel Xiloxoxtla",
        "lat": "19.26786",
        "lng": "-98.21399"
    },
    {
        "country": "MX",
        "name": "San Vicente Tancuayalab",
        "lat": "21.71886",
        "lng": "-98.58769"
    },
    {
        "country": "MX",
        "name": "San Vicente Lachix\u00edo",
        "lat": "16.70502",
        "lng": "-97.01864"
    },
    {
        "country": "MX",
        "name": "San Vicente Coatl\u00e1n",
        "lat": "16.38852",
        "lng": "-96.8439"
    },
    {
        "country": "MX",
        "name": "Santo Tom\u00e1s Jalieza",
        "lat": "16.84469",
        "lng": "-96.67063"
    },
    {
        "country": "MX",
        "name": "Hueyotlipan",
        "lat": "18.89148",
        "lng": "-97.86575"
    },
    {
        "country": "MX",
        "name": "Santo Tom\u00e1s Chautla",
        "lat": "18.96573",
        "lng": "-98.15288"
    },
    {
        "country": "MX",
        "name": "Santo Tom\u00e1s Atzingo",
        "lat": "19.1727",
        "lng": "-98.77873"
    },
    {
        "country": "MX",
        "name": "Santos Reyes Tepejillo",
        "lat": "17.43782",
        "lng": "-97.93845"
    },
    {
        "country": "MX",
        "name": "Santo Domingo Zanatepec",
        "lat": "16.48307",
        "lng": "-94.34754"
    },
    {
        "country": "MX",
        "name": "Xagac\u00eda",
        "lat": "17.15436",
        "lng": "-96.26753"
    },
    {
        "country": "MX",
        "name": "Santo Domingo Tlatayapam",
        "lat": "17.40778",
        "lng": "-97.34581"
    },
    {
        "country": "MX",
        "name": "Santo Domingo Tepuxtepec",
        "lat": "16.95584",
        "lng": "-96.05823"
    },
    {
        "country": "MX",
        "name": "Santo Domingo Tehuantepec",
        "lat": "16.32463",
        "lng": "-95.24104"
    },
    {
        "country": "MX",
        "name": "Santo Domingo Shomege (Shomege)",
        "lat": "19.84524",
        "lng": "-99.90166"
    },
    {
        "country": "MX",
        "name": "Santo Domingo Huehuetl\u00e1n",
        "lat": "18.7394",
        "lng": "-98.16438"
    },
    {
        "country": "MX",
        "name": "Santo Domingo Atoyatempan",
        "lat": "18.90444",
        "lng": "-98.37306"
    },
    {
        "country": "MX",
        "name": "Albarradas",
        "lat": "17.06752",
        "lng": "-96.20012"
    },
    {
        "country": "MX",
        "name": "Santo Domingo de Guzm\u00e1n",
        "lat": "19.59306",
        "lng": "-99.77972"
    },
    {
        "country": "MX",
        "name": "Santo Domingo",
        "lat": "15.03067",
        "lng": "-92.10361"
    },
    {
        "country": "MX",
        "name": "Santiago Zoochila",
        "lat": "17.22059",
        "lng": "-96.24212"
    },
    {
        "country": "MX",
        "name": "Zautla",
        "lat": "19.71475",
        "lng": "-97.67146"
    },
    {
        "country": "MX",
        "name": "Santiago Yaitepec",
        "lat": "16.22628",
        "lng": "-97.26953"
    },
    {
        "country": "MX",
        "name": "Santiago Tuxtla",
        "lat": "18.46576",
        "lng": "-95.3006"
    },
    {
        "country": "MX",
        "name": "Texcaltitl\u00e1n",
        "lat": "18.93032",
        "lng": "-99.9387"
    },
    {
        "country": "MX",
        "name": "Santiago Texcalcingo",
        "lat": "18.20835",
        "lng": "-96.96887"
    },
    {
        "country": "MX",
        "name": "Tetla",
        "lat": "19.44204",
        "lng": "-98.10325"
    },
    {
        "country": "MX",
        "name": "Santiago Suchilquitongo",
        "lat": "17.25316",
        "lng": "-96.87825"
    },
    {
        "country": "MX",
        "name": "Pinotepa Nacional",
        "lat": "16.34014",
        "lng": "-98.05297"
    },
    {
        "country": "MX",
        "name": "Santiago Nuyo\u00f3",
        "lat": "17.01449",
        "lng": "-97.76659"
    },
    {
        "country": "MX",
        "name": "Santiago Nund\u00edche",
        "lat": "17.33136",
        "lng": "-97.67392"
    },
    {
        "country": "MX",
        "name": "Santiago Nejapilla",
        "lat": "17.41983",
        "lng": "-97.37411"
    },
    {
        "country": "MX",
        "name": "Santiago Miltepec",
        "lat": "17.98461",
        "lng": "-97.69006"
    },
    {
        "country": "MX",
        "name": "Miahuatl\u00e1n",
        "lat": "18.54983",
        "lng": "-97.43953"
    },
    {
        "country": "MX",
        "name": "Santiago Matatl\u00e1n",
        "lat": "16.8647",
        "lng": "-96.38261"
    },
    {
        "country": "MX",
        "name": "Santiago Laxopa",
        "lat": "17.21842",
        "lng": "-96.31099"
    },
    {
        "country": "MX",
        "name": "Santiago Lalopa",
        "lat": "17.41786",
        "lng": "-96.24893"
    },
    {
        "country": "MX",
        "name": "Santiago Juxtlahuaca",
        "lat": "17.33462",
        "lng": "-98.01147"
    },
    {
        "country": "MX",
        "name": "Jamiltepec",
        "lat": "16.28258",
        "lng": "-97.82446"
    },
    {
        "country": "MX",
        "name": "Santiago Huauclilla",
        "lat": "17.45179",
        "lng": "-97.07277"
    },
    {
        "country": "MX",
        "name": "Santiago Huajolotitl\u00e1n",
        "lat": "17.82783",
        "lng": "-97.73266"
    },
    {
        "country": "MX",
        "name": "Santiago de la Pe\u00f1a",
        "lat": "20.94512",
        "lng": "-97.40493"
    },
    {
        "country": "MX",
        "name": "Santiago Comaltepec",
        "lat": "17.56547",
        "lng": "-96.54873"
    },
    {
        "country": "MX",
        "name": "Santiago Cho\u00e1pam",
        "lat": "17.36084",
        "lng": "-95.92219"
    },
    {
        "country": "MX",
        "name": "Santiago Chazumba",
        "lat": "18.19012",
        "lng": "-97.67983"
    },
    {
        "country": "MX",
        "name": "Santiago Ayuquililla",
        "lat": "17.9331",
        "lng": "-97.95769"
    },
    {
        "country": "MX",
        "name": "Santiago Atzitzihuac\u00e1n",
        "lat": "18.82472",
        "lng": "-98.58167"
    },
    {
        "country": "MX",
        "name": "Santiago Astata",
        "lat": "15.98775",
        "lng": "-95.67571"
    },
    {
        "country": "MX",
        "name": "Apoala",
        "lat": "17.64845",
        "lng": "-97.13608"
    },
    {
        "country": "MX",
        "name": "Santiago Alseseca",
        "lat": "18.84511",
        "lng": "-97.70716"
    },
    {
        "country": "MX",
        "name": "Santiago Acutzilapan",
        "lat": "19.7864",
        "lng": "-99.76569"
    },
    {
        "country": "MX",
        "name": "Santiago Acatl\u00e1n",
        "lat": "18.99334",
        "lng": "-97.93375"
    },
    {
        "country": "MX",
        "name": "Santiago Tulantepec",
        "lat": "20.03618",
        "lng": "-98.35563"
    },
    {
        "country": "MX",
        "name": "Santa Rosal\u00eda",
        "lat": "18.08851",
        "lng": "-93.35806"
    },
    {
        "country": "MX",
        "name": "Santa Rita Tlahuapan",
        "lat": "19.33211",
        "lng": "-98.57688"
    },
    {
        "country": "MX",
        "name": "Santander Jim\u00e9nez",
        "lat": "24.21682",
        "lng": "-98.48433"
    },
    {
        "country": "MX",
        "name": "Santa Mar\u00eda Zoquitl\u00e1n",
        "lat": "16.55886",
        "lng": "-96.35325"
    },
    {
        "country": "MX",
        "name": "Santa Mar\u00eda Zacatepec",
        "lat": "16.76369",
        "lng": "-97.99028"
    },
    {
        "country": "MX",
        "name": "Santa Mar\u00eda Yaves\u00eda",
        "lat": "17.23531",
        "lng": "-96.43062"
    },
    {
        "country": "MX",
        "name": "Yalina",
        "lat": "17.23969",
        "lng": "-96.26233"
    },
    {
        "country": "MX",
        "name": "Santa Mar\u00eda Xonacatepec",
        "lat": "19.08944",
        "lng": "-98.10361"
    },
    {
        "country": "MX",
        "name": "Santa Mar\u00eda Xadani",
        "lat": "15.94825",
        "lng": "-96.07364"
    },
    {
        "country": "MX",
        "name": "Santa Mar\u00eda Tonameca",
        "lat": "15.74805",
        "lng": "-96.54704"
    },
    {
        "country": "MX",
        "name": "Tlahuitoltepec",
        "lat": "17.09746",
        "lng": "-96.06279"
    },
    {
        "country": "MX",
        "name": "Santa Mar\u00eda Tepantlali",
        "lat": "16.99663",
        "lng": "-96.00883"
    },
    {
        "country": "MX",
        "name": "Santa Mar\u00eda Teopoxco",
        "lat": "18.16655",
        "lng": "-96.95488"
    },
    {
        "country": "MX",
        "name": "Santa Mar\u00eda Sola",
        "lat": "16.56615",
        "lng": "-97.01297"
    },
    {
        "country": "MX",
        "name": "Santa Mar\u00eda Ray\u00f3n",
        "lat": "19.14808",
        "lng": "-99.57974"
    },
    {
        "country": "MX",
        "name": "Santa Mar\u00eda Petapa",
        "lat": "16.8206",
        "lng": "-95.11913"
    },
    {
        "country": "MX",
        "name": "Nopaltepec",
        "lat": "19.77829",
        "lng": "-98.71046"
    },
    {
        "country": "MX",
        "name": "Santa Mar\u00eda Nduayaco",
        "lat": "17.40996",
        "lng": "-97.49321"
    },
    {
        "country": "MX",
        "name": "Santa Mar\u00eda Nativitas",
        "lat": "19.58113",
        "lng": "-99.60857"
    },
    {
        "country": "MX",
        "name": "Nativitas",
        "lat": "17.6616",
        "lng": "-97.33566"
    },
    {
        "country": "MX",
        "name": "Moyotzingo",
        "lat": "19.24811",
        "lng": "-98.40486"
    },
    {
        "country": "MX",
        "name": "Santa Mar\u00eda Mazatla",
        "lat": "19.51528",
        "lng": "-99.38694"
    },
    {
        "country": "MX",
        "name": "Santa Mar\u00eda Magdalena Cahuac\u00e1n",
        "lat": "19.63161",
        "lng": "-99.41123"
    },
    {
        "country": "MX",
        "name": "Santa Mar\u00eda la Alta",
        "lat": "18.59982",
        "lng": "-97.65809"
    },
    {
        "country": "MX",
        "name": "Santa Mar\u00eda la Asunci\u00f3n",
        "lat": "18.10722",
        "lng": "-96.81917"
    },
    {
        "country": "MX",
        "name": "Santa Mar\u00eda Jicaltepec",
        "lat": "16.37917",
        "lng": "-98.04333"
    },
    {
        "country": "MX",
        "name": "Santa Mar\u00eda Ixtiyuc\u00e1n",
        "lat": "19.18688",
        "lng": "-97.81094"
    },
    {
        "country": "MX",
        "name": "Santa Mar\u00eda Huazolotitl\u00e1n",
        "lat": "16.30359",
        "lng": "-97.91293"
    },
    {
        "country": "MX",
        "name": "Santa Mar\u00eda Huatulco",
        "lat": "15.83267",
        "lng": "-96.32063"
    },
    {
        "country": "MX",
        "name": "Santa Mar\u00eda Ecatepec",
        "lat": "16.28498",
        "lng": "-95.87997"
    },
    {
        "country": "MX",
        "name": "Santa Mar\u00eda del Tule",
        "lat": "17.04712",
        "lng": "-96.63573"
    },
    {
        "country": "MX",
        "name": "Santa Mar\u00eda del Monte",
        "lat": "19.28973",
        "lng": "-99.82355"
    },
    {
        "country": "MX",
        "name": "Santa Mar\u00eda Cortijo",
        "lat": "16.45151",
        "lng": "-98.28549"
    },
    {
        "country": "MX",
        "name": "Coronango",
        "lat": "19.1209",
        "lng": "-98.30594"
    },
    {
        "country": "MX",
        "name": "Santa Mar\u00eda Colotepec",
        "lat": "15.89737",
        "lng": "-96.93951"
    },
    {
        "country": "MX",
        "name": "Santa Mar\u00eda Chimalhuac\u00e1n",
        "lat": "19.42155",
        "lng": "-98.95038"
    },
    {
        "country": "MX",
        "name": "Santa Mar\u00eda Chilapa de D\u00edaz",
        "lat": "17.51667",
        "lng": "-97.68333"
    },
    {
        "country": "MX",
        "name": "Santa Mar\u00eda Chacho\u00e1pam",
        "lat": "17.5257",
        "lng": "-97.28422"
    },
    {
        "country": "MX",
        "name": "Santa Mar\u00eda Camotl\u00e1n",
        "lat": "17.89688",
        "lng": "-97.692"
    },
    {
        "country": "MX",
        "name": "Ayoquezco de Aldama",
        "lat": "16.6837",
        "lng": "-96.84287"
    },
    {
        "country": "MX",
        "name": "Heroica Ciudad de Tlaxiaco",
        "lat": "17.26916",
        "lng": "-97.68053"
    },
    {
        "country": "MX",
        "name": "Santa Mar\u00eda Apazco",
        "lat": "17.63433",
        "lng": "-97.10034"
    },
    {
        "country": "MX",
        "name": "Santa Mar\u00eda Ajoloapan",
        "lat": "19.97694",
        "lng": "-99.04472"
    },
    {
        "country": "MX",
        "name": "Acuexcomac",
        "lat": "19.03742",
        "lng": "-98.38501"
    },
    {
        "country": "MX",
        "name": "Santa Mar\u00eda Ac\u00fa",
        "lat": "20.54644",
        "lng": "-90.16365"
    },
    {
        "country": "MX",
        "name": "Santa Mar\u00eda Huecatitla",
        "lat": "19.72511",
        "lng": "-99.16911"
    },
    {
        "country": "MX",
        "name": "Santa Rita",
        "lat": "16.13167",
        "lng": "-91.975"
    },
    {
        "country": "MX",
        "name": "Santa Isabel Cholula",
        "lat": "18.99667",
        "lng": "-98.37944"
    },
    {
        "country": "MX",
        "name": "Santa In\u00e9s del Monte",
        "lat": "16.92387",
        "lng": "-96.86238"
    },
    {
        "country": "MX",
        "name": "Ahuatempan",
        "lat": "18.41269",
        "lng": "-98.0185"
    },
    {
        "country": "MX",
        "name": "El Carrizal",
        "lat": "16.06438",
        "lng": "-95.39308"
    },
    {
        "country": "MX",
        "name": "Santa Gertrudis",
        "lat": "19.73333",
        "lng": "-99.36667"
    },
    {
        "country": "MX",
        "name": "Santa Gertrudis",
        "lat": "16.7858",
        "lng": "-96.80024"
    },
    {
        "country": "MX",
        "name": "Guillermo Z\u00fa\u00f1iga",
        "lat": "24.01548",
        "lng": "-99.20074"
    },
    {
        "country": "MX",
        "name": "Santa Elena",
        "lat": "20.3289",
        "lng": "-89.64363"
    },
    {
        "country": "MX",
        "name": "Santa Cruz Zenzontepec",
        "lat": "16.53399",
        "lng": "-97.49546"
    },
    {
        "country": "MX",
        "name": "Santa Cruz Xoxocotl\u00e1n",
        "lat": "17.02958",
        "lng": "-96.73518"
    },
    {
        "country": "MX",
        "name": "Santa Cruz Xitla",
        "lat": "16.32321",
        "lng": "-96.67369"
    },
    {
        "country": "MX",
        "name": "Manzana Tercera de Santa Cruz Tepexpan",
        "lat": "19.56917",
        "lng": "-99.70361"
    },
    {
        "country": "MX",
        "name": "Tec\u00e1mac",
        "lat": "19.71288",
        "lng": "-98.96895"
    },
    {
        "country": "MX",
        "name": "Santa Cruz Tayata",
        "lat": "17.35718",
        "lng": "-97.56843"
    },
    {
        "country": "MX",
        "name": "Santa Cruz Nundaco",
        "lat": "17.17109",
        "lng": "-97.72382"
    },
    {
        "country": "MX",
        "name": "Santa Cruz Mixtepec",
        "lat": "16.79283",
        "lng": "-96.88072"
    },
    {
        "country": "MX",
        "name": "Santa Cruz Tlaxcala",
        "lat": "19.35468",
        "lng": "-98.15076"
    },
    {
        "country": "MX",
        "name": "Santa Cruz Cuauhtenco",
        "lat": "19.24907",
        "lng": "-99.72939"
    },
    {
        "country": "MX",
        "name": "Santa Clara",
        "lat": "18.97616",
        "lng": "-98.3014"
    },
    {
        "country": "MX",
        "name": "Santa Clara Huitziltepec",
        "lat": "18.7689",
        "lng": "-97.88117"
    },
    {
        "country": "MX",
        "name": "Santa Catarina Tlaltempan",
        "lat": "18.61541",
        "lng": "-98.0808"
    },
    {
        "country": "MX",
        "name": "Santa Catarina Tayata",
        "lat": "17.34715",
        "lng": "-97.55822"
    },
    {
        "country": "MX",
        "name": "Santa Catarina Quian\u00e9",
        "lat": "16.88255",
        "lng": "-96.74067"
    },
    {
        "country": "MX",
        "name": "Pantelh\u00f3",
        "lat": "17.00563",
        "lng": "-92.47165"
    },
    {
        "country": "MX",
        "name": "Santa Catarina Otzolotepec",
        "lat": "18.57705",
        "lng": "-97.26603"
    },
    {
        "country": "MX",
        "name": "Santa Catarina Minas",
        "lat": "16.77969",
        "lng": "-96.61536"
    },
    {
        "country": "MX",
        "name": "Santa Catarina Mechoac\u00e1n",
        "lat": "16.33591",
        "lng": "-97.83707"
    },
    {
        "country": "MX",
        "name": "Santa Catarina Loxicha",
        "lat": "16.06864",
        "lng": "-96.75391"
    },
    {
        "country": "MX",
        "name": "Santa Catarina Juquila",
        "lat": "16.23819",
        "lng": "-97.29161"
    },
    {
        "country": "MX",
        "name": "Santa Catarina Cuixtla",
        "lat": "16.30616",
        "lng": "-96.64236"
    },
    {
        "country": "MX",
        "name": "Santa Catarina Ayotzingo",
        "lat": "19.20948",
        "lng": "-98.92985"
    },
    {
        "country": "MX",
        "name": "Santa Catarina",
        "lat": "21.65624",
        "lng": "-99.49548"
    },
    {
        "country": "MX",
        "name": "Santa Catarina",
        "lat": "18.96972",
        "lng": "-99.14028"
    },
    {
        "country": "MX",
        "name": "Santa Apolonia Teacalco",
        "lat": "19.24153",
        "lng": "-98.31188"
    },
    {
        "country": "MX",
        "name": "Santa Ana Tlapacoyan",
        "lat": "16.7434",
        "lng": "-96.83688"
    },
    {
        "country": "MX",
        "name": "Nextlalpan",
        "lat": "19.74171",
        "lng": "-99.07496"
    },
    {
        "country": "MX",
        "name": "Santa Ana Jilotzingo",
        "lat": "19.54116",
        "lng": "-99.39477"
    },
    {
        "country": "MX",
        "name": "Santa Anita Huiloac",
        "lat": "19.38841",
        "lng": "-98.14362"
    },
    {
        "country": "MX",
        "name": "Santa Ana Hueytlalpan",
        "lat": "20.17484",
        "lng": "-98.31209"
    },
    {
        "country": "MX",
        "name": "Santa Ana del Valle",
        "lat": "16.99488",
        "lng": "-96.47112"
    },
    {
        "country": "MX",
        "name": "Santa Ana Coatepec",
        "lat": "18.83667",
        "lng": "-98.43472"
    },
    {
        "country": "MX",
        "name": "Santa Ana Chiautempan",
        "lat": "19.30633",
        "lng": "-98.21773"
    },
    {
        "country": "MX",
        "name": "Santa Ana Acozautla",
        "lat": "18.95556",
        "lng": "-98.38306"
    },
    {
        "country": "MX",
        "name": "Santa Ana Ixtlahuatzingo (Santa Ana)",
        "lat": "18.97056",
        "lng": "-99.62361"
    },
    {
        "country": "MX",
        "name": "Santa Ana",
        "lat": "17.05455",
        "lng": "-95.08509"
    },
    {
        "country": "MX",
        "name": "Santa Ana",
        "lat": "16.34139",
        "lng": "-96.71697"
    },
    {
        "country": "MX",
        "name": "San Simonito",
        "lat": "18.99139",
        "lng": "-99.54"
    },
    {
        "country": "MX",
        "name": "San Sim\u00f3n Almolongas",
        "lat": "16.40659",
        "lng": "-96.71927"
    },
    {
        "country": "MX",
        "name": "Zinacatepec",
        "lat": "18.33516",
        "lng": "-97.24621"
    },
    {
        "country": "MX",
        "name": "San Sebasti\u00e1n Villanueva",
        "lat": "19.06085",
        "lng": "-97.71935"
    },
    {
        "country": "MX",
        "name": "Santa Mar\u00eda Tutla",
        "lat": "17.70493",
        "lng": "-97.64016"
    },
    {
        "country": "MX",
        "name": "San Sebastian Teitipac",
        "lat": "16.95192",
        "lng": "-96.61427"
    },
    {
        "country": "MX",
        "name": "San Sebasti\u00e1n Coatl\u00e1n",
        "lat": "16.20212",
        "lng": "-96.82645"
    },
    {
        "country": "MX",
        "name": "San Sebasti\u00e1n Abasolo",
        "lat": "16.99432",
        "lng": "-96.58701"
    },
    {
        "country": "MX",
        "name": "Huixcolotla",
        "lat": "18.92073",
        "lng": "-97.77166"
    },
    {
        "country": "MX",
        "name": "San Salvador el Verde",
        "lat": "19.27002",
        "lng": "-98.51648"
    },
    {
        "country": "MX",
        "name": "San Salvador El Seco",
        "lat": "19.13325",
        "lng": "-97.64167"
    },
    {
        "country": "MX",
        "name": "San Salvador Atenco",
        "lat": "19.5517",
        "lng": "-98.91867"
    },
    {
        "country": "MX",
        "name": "San Salvador",
        "lat": "20.28583",
        "lng": "-99.01457"
    },
    {
        "country": "MX",
        "name": "San Raymundo Jalpam",
        "lat": "16.97164",
        "lng": "-96.75699"
    },
    {
        "country": "MX",
        "name": "San Rafael",
        "lat": "20.18862",
        "lng": "-96.86737"
    },
    {
        "country": "MX",
        "name": "San Pedro y San Pablo Tequistepec",
        "lat": "18.06106",
        "lng": "-97.71816"
    },
    {
        "country": "MX",
        "name": "Villa de Etla",
        "lat": "17.20615",
        "lng": "-96.7989"
    },
    {
        "country": "MX",
        "name": "Ayutla",
        "lat": "17.02756",
        "lng": "-96.07632"
    },
    {
        "country": "MX",
        "name": "San Pedro Y\u00f3lox",
        "lat": "17.58907",
        "lng": "-96.55235"
    },
    {
        "country": "MX",
        "name": "San Pedro Topiltepec",
        "lat": "17.43633",
        "lng": "-97.34403"
    },
    {
        "country": "MX",
        "name": "San Pedro Tlanixco",
        "lat": "19.06259",
        "lng": "-99.65237"
    },
    {
        "country": "MX",
        "name": "San Pedro Tida\u00e1",
        "lat": "17.34122",
        "lng": "-97.37239"
    },
    {
        "country": "MX",
        "name": "San Pedro Tetitl\u00e1n",
        "lat": "18.25972",
        "lng": "-97.32306"
    },
    {
        "country": "MX",
        "name": "San Pedro Taviche",
        "lat": "16.63858",
        "lng": "-96.53687"
    },
    {
        "country": "MX",
        "name": "San Pedro Tapanatepec",
        "lat": "16.37107",
        "lng": "-94.19313"
    },
    {
        "country": "MX",
        "name": "San Pedro Quiatoni",
        "lat": "16.78295",
        "lng": "-96.03085"
    },
    {
        "country": "MX",
        "name": "San Pedro Pochutla",
        "lat": "15.74587",
        "lng": "-96.46601"
    },
    {
        "country": "MX",
        "name": "San Pedro Mixtepec",
        "lat": "16.2706",
        "lng": "-96.28406"
    },
    {
        "country": "MX",
        "name": "San Pedro Mixtepec",
        "lat": "15.98211",
        "lng": "-97.07984"
    },
    {
        "country": "MX",
        "name": "San Pedro M\u00e1rtir Quiechapa",
        "lat": "16.41516",
        "lng": "-96.24451"
    },
    {
        "country": "MX",
        "name": "San Pedro Los Ba\u00f1os",
        "lat": "19.62537",
        "lng": "-99.8217"
    },
    {
        "country": "MX",
        "name": "San Pedro Jicay\u00e1n",
        "lat": "16.45179",
        "lng": "-98.01425"
    },
    {
        "country": "MX",
        "name": "Jaltepetongo",
        "lat": "17.68623",
        "lng": "-97.03569"
    },
    {
        "country": "MX",
        "name": "San Pedro Ixcatl\u00e1n",
        "lat": "18.14575",
        "lng": "-96.50953"
    },
    {
        "country": "MX",
        "name": "San Pedro Huamelula",
        "lat": "16.02697",
        "lng": "-95.66735"
    },
    {
        "country": "MX",
        "name": "San Pedro el Alto",
        "lat": "19.91056",
        "lng": "-99.96361"
    },
    {
        "country": "MX",
        "name": "San Pedro el Alto",
        "lat": "19.58429",
        "lng": "-99.8805"
    },
    {
        "country": "MX",
        "name": "Cajonos",
        "lat": "17.16801",
        "lng": "-96.26174"
    },
    {
        "country": "MX",
        "name": "San Pedro Buenavista",
        "lat": "16.08333",
        "lng": "-93.11667"
    },
    {
        "country": "MX",
        "name": "San Pedro Atoyac",
        "lat": "16.49005",
        "lng": "-97.98585"
    },
    {
        "country": "MX",
        "name": "Ciudad de Atlixco",
        "lat": "18.90372",
        "lng": "-98.43922"
    },
    {
        "country": "MX",
        "name": "San Pedro Ap\u00f3stol",
        "lat": "16.73695",
        "lng": "-96.72474"
    },
    {
        "country": "MX",
        "name": "Yaganiza",
        "lat": "17.14495",
        "lng": "-96.2296"
    },
    {
        "country": "MX",
        "name": "San Pablo Villa de Mitla",
        "lat": "16.92283",
        "lng": "-96.3599"
    },
    {
        "country": "MX",
        "name": "San Pablo Tolim\u00e1n",
        "lat": "20.85703",
        "lng": "-99.89985"
    },
    {
        "country": "MX",
        "name": "San Pablo Tecalco",
        "lat": "19.67309",
        "lng": "-98.95837"
    },
    {
        "country": "MX",
        "name": "San Pablo Macuiltianguis",
        "lat": "17.53348",
        "lng": "-96.55212"
    },
    {
        "country": "MX",
        "name": "San Pablo Huixtepec",
        "lat": "16.81948",
        "lng": "-96.78128"
    },
    {
        "country": "MX",
        "name": "San Pablo Huitzo",
        "lat": "17.27708",
        "lng": "-96.88661"
    },
    {
        "country": "MX",
        "name": "San Pablo Etla",
        "lat": "17.14397",
        "lng": "-96.74812"
    },
    {
        "country": "MX",
        "name": "San Pablo de las Tunas",
        "lat": "18.99556",
        "lng": "-97.70972"
    },
    {
        "country": "MX",
        "name": "San Pablo de las Salinas",
        "lat": "19.66658",
        "lng": "-99.09477"
    },
    {
        "country": "MX",
        "name": "San Pablo Coatl\u00e1n",
        "lat": "16.22429",
        "lng": "-96.78379"
    },
    {
        "country": "MX",
        "name": "Chalchihuit\u00e1n",
        "lat": "16.96445",
        "lng": "-92.61903"
    },
    {
        "country": "MX",
        "name": "San Pablo Autopan",
        "lat": "19.35638",
        "lng": "-99.65724"
    },
    {
        "country": "MX",
        "name": "San Pablo Atlazalpan",
        "lat": "19.21742",
        "lng": "-98.90763"
    },
    {
        "country": "MX",
        "name": "Apetatitl\u00e1n Antonio Carbajal",
        "lat": "19.33622",
        "lng": "-98.17912"
    },
    {
        "country": "MX",
        "name": "San Nicol\u00e1s de los Ranchos",
        "lat": "19.07139",
        "lng": "-98.48601"
    },
    {
        "country": "MX",
        "name": "San Nicolas Buenos Aires",
        "lat": "19.16488",
        "lng": "-97.55131"
    },
    {
        "country": "MX",
        "name": "San Nicol\u00e1s Coatepec",
        "lat": "19.13735",
        "lng": "-99.42948"
    },
    {
        "country": "MX",
        "name": "San Nicol\u00e1s",
        "lat": "24.69377",
        "lng": "-98.83"
    },
    {
        "country": "MX",
        "name": "San Nicol\u00e1s",
        "lat": "20.47689",
        "lng": "-99.93749"
    },
    {
        "country": "MX",
        "name": "San Miguel Zozutla",
        "lat": "18.7543",
        "lng": "-97.65478"
    },
    {
        "country": "MX",
        "name": "San Miguel Zinacantepec",
        "lat": "19.28428",
        "lng": "-99.73394"
    },
    {
        "country": "MX",
        "name": "San Miguel Xoxtla",
        "lat": "19.16763",
        "lng": "-98.30758"
    },
    {
        "country": "MX",
        "name": "Tonalixco",
        "lat": "19.98111",
        "lng": "-97.83944"
    },
    {
        "country": "MX",
        "name": "San Miguel Contla",
        "lat": "19.36111",
        "lng": "-98.1325"
    },
    {
        "country": "MX",
        "name": "San Miguel Tlacamama",
        "lat": "16.41547",
        "lng": "-98.06301"
    },
    {
        "country": "MX",
        "name": "San Miguel Tilquiapam",
        "lat": "16.78218",
        "lng": "-96.58165"
    },
    {
        "country": "MX",
        "name": "San Miguel Tenextatiloyan",
        "lat": "19.70973",
        "lng": "-97.59769"
    },
    {
        "country": "MX",
        "name": "San Miguel Tenango",
        "lat": "16.26659",
        "lng": "-95.59532"
    },
    {
        "country": "MX",
        "name": "Villa Talea de Castro",
        "lat": "17.35983",
        "lng": "-96.24953"
    },
    {
        "country": "MX",
        "name": "San Miguel Quetzaltepec",
        "lat": "16.9738",
        "lng": "-95.76045"
    },
    {
        "country": "MX",
        "name": "San Miguel Panixtlahuaca",
        "lat": "16.24844",
        "lng": "-97.38427"
    },
    {
        "country": "MX",
        "name": "San Miguel Oxtotilpan",
        "lat": "19.15083",
        "lng": "-99.88605"
    },
    {
        "country": "MX",
        "name": "San Miguel Ixitl\u00e1n",
        "lat": "18.00082",
        "lng": "-97.77483"
    },
    {
        "country": "MX",
        "name": "Huautepec",
        "lat": "18.10138",
        "lng": "-96.7959"
    },
    {
        "country": "MX",
        "name": "San Miguel Ejutla",
        "lat": "16.58053",
        "lng": "-96.73897"
    },
    {
        "country": "MX",
        "name": "San Miguel del Puerto",
        "lat": "15.92169",
        "lng": "-96.17499"
    },
    {
        "country": "MX",
        "name": "San Miguel Coatlinch\u00e1n",
        "lat": "19.44999",
        "lng": "-98.87274"
    },
    {
        "country": "MX",
        "name": "San Miguel Coatl\u00e1n",
        "lat": "16.19701",
        "lng": "-96.69458"
    },
    {
        "country": "MX",
        "name": "Chapultepec",
        "lat": "19.20216",
        "lng": "-99.56176"
    },
    {
        "country": "MX",
        "name": "San Miguel Canoa",
        "lat": "19.15194",
        "lng": "-98.10306"
    },
    {
        "country": "MX",
        "name": "San Miguel Balderas",
        "lat": "19.10943",
        "lng": "-99.65165"
    },
    {
        "country": "MX",
        "name": "San Miguel Alo\u00e1pam",
        "lat": "17.41136",
        "lng": "-96.69154"
    },
    {
        "country": "MX",
        "name": "San Miguel Achiutla",
        "lat": "17.309",
        "lng": "-97.48392"
    },
    {
        "country": "MX",
        "name": "San Miguel Tenochtitl\u00e1n",
        "lat": "19.76028",
        "lng": "-99.9225"
    },
    {
        "country": "MX",
        "name": "San Matias Tlalancaleca",
        "lat": "19.32536",
        "lng": "-98.49863"
    },
    {
        "country": "MX",
        "name": "San Mateo Xoloc",
        "lat": "19.7065",
        "lng": "-99.24818"
    },
    {
        "country": "MX",
        "name": "Tlaixpan",
        "lat": "18.91217",
        "lng": "-97.73818"
    },
    {
        "country": "MX",
        "name": "San Mateo Texcalyacac",
        "lat": "19.16667",
        "lng": "-99.46667"
    },
    {
        "country": "MX",
        "name": "San Mateo Pi\u00f1as",
        "lat": "16.00049",
        "lng": "-96.33449"
    },
    {
        "country": "MX",
        "name": "San Mateo Parra",
        "lat": "18.99139",
        "lng": "-97.86167"
    },
    {
        "country": "MX",
        "name": "San Mateo Nej\u00e1pam",
        "lat": "17.65604",
        "lng": "-98.41662"
    },
    {
        "country": "MX",
        "name": "San Mateo Mexicaltzingo",
        "lat": "19.2113",
        "lng": "-99.58469"
    },
    {
        "country": "MX",
        "name": "San Mateo Ixtacalco",
        "lat": "19.6992",
        "lng": "-99.17159"
    },
    {
        "country": "MX",
        "name": "San Mateo Yoloxochitl\u00e1n",
        "lat": "18.14341",
        "lng": "-96.86865"
    },
    {
        "country": "MX",
        "name": "San Mateo del Mar",
        "lat": "16.21054",
        "lng": "-94.98218"
    },
    {
        "country": "MX",
        "name": "San Mateo Cajonos",
        "lat": "17.16147",
        "lng": "-96.20777"
    },
    {
        "country": "MX",
        "name": "San Mateo Atenco",
        "lat": "19.26757",
        "lng": "-99.53214"
    },
    {
        "country": "MX",
        "name": "Xaltocan",
        "lat": "19.42427",
        "lng": "-98.21033"
    },
    {
        "country": "MX",
        "name": "Toxpalan",
        "lat": "18.10125",
        "lng": "-97.05869"
    },
    {
        "country": "MX",
        "name": "Totoltepec",
        "lat": "18.65255",
        "lng": "-98.34706"
    },
    {
        "country": "MX",
        "name": "San Mart\u00edn Tlapala",
        "lat": "18.96667",
        "lng": "-98.45889"
    },
    {
        "country": "MX",
        "name": "San Martin Texmelucan de Labastida",
        "lat": "19.28431",
        "lng": "-98.43885"
    },
    {
        "country": "MX",
        "name": "San Pedro la Joya",
        "lat": "19.06528",
        "lng": "-97.83806"
    },
    {
        "country": "MX",
        "name": "San Mart\u00edn de los Canseco",
        "lat": "16.65655",
        "lng": "-96.72777"
    },
    {
        "country": "MX",
        "name": "San Mart\u00edn de las Pir\u00e1mides",
        "lat": "19.70582",
        "lng": "-98.83554"
    },
    {
        "country": "MX",
        "name": "San Mart\u00edn Chalchicuautla",
        "lat": "21.37033",
        "lng": "-98.65697"
    },
    {
        "country": "MX",
        "name": "San Marcos Tlacoyalco",
        "lat": "18.67388",
        "lng": "-97.60354"
    },
    {
        "country": "MX",
        "name": "Vega de San Marcos",
        "lat": "20.18539",
        "lng": "-96.94877"
    },
    {
        "country": "MX",
        "name": "San Marcos",
        "lat": "20.06667",
        "lng": "-99.33333"
    },
    {
        "country": "MX",
        "name": "San Marcos",
        "lat": "16.79772",
        "lng": "-99.38921"
    },
    {
        "country": "MX",
        "name": "Teolocholco",
        "lat": "19.24333",
        "lng": "-98.19083"
    },
    {
        "country": "MX",
        "name": "San Luis Amatl\u00e1n",
        "lat": "16.38652",
        "lng": "-96.49824"
    },
    {
        "country": "MX",
        "name": "San Luis Acatl\u00e1n",
        "lat": "16.80901",
        "lng": "-98.73331"
    },
    {
        "country": "MX",
        "name": "San Lucas Tecopilco",
        "lat": "19.48626",
        "lng": "-98.25605"
    },
    {
        "country": "MX",
        "name": "San Lucas Quiavini",
        "lat": "16.89555",
        "lng": "-96.46813"
    },
    {
        "country": "MX",
        "name": "San Lucas Ojitl\u00e1n",
        "lat": "18.05767",
        "lng": "-96.39825"
    },
    {
        "country": "MX",
        "name": "San Lorenzo Toxico",
        "lat": "19.50917",
        "lng": "-99.76278"
    },
    {
        "country": "MX",
        "name": "Texmelucan",
        "lat": "16.5851",
        "lng": "-97.19907"
    },
    {
        "country": "MX",
        "name": "San Lorenzo Oyamel",
        "lat": "19.43355",
        "lng": "-99.57761"
    },
    {
        "country": "MX",
        "name": "San Lorenzo Chiautzingo",
        "lat": "19.20432",
        "lng": "-98.46747"
    },
    {
        "country": "MX",
        "name": "Almecatla",
        "lat": "19.14286",
        "lng": "-98.23597"
    },
    {
        "country": "MX",
        "name": "San Lorenzo Cuaunecuiltitla",
        "lat": "18.20664",
        "lng": "-96.91315"
    },
    {
        "country": "MX",
        "name": "San Lorenzo",
        "lat": "16.39483",
        "lng": "-97.87403"
    },
    {
        "country": "MX",
        "name": "San Juan Yatzona",
        "lat": "17.40184",
        "lng": "-96.16878"
    },
    {
        "country": "MX",
        "name": "San Juan Yaee",
        "lat": "17.43",
        "lng": "-96.28355"
    },
    {
        "country": "MX",
        "name": "San Juan Xiutetelco",
        "lat": "19.79563",
        "lng": "-97.32578"
    },
    {
        "country": "MX",
        "name": "San Juan Tizahuap\u00e1n",
        "lat": "20.05073",
        "lng": "-98.6654"
    },
    {
        "country": "MX",
        "name": "Tianguismanalco",
        "lat": "18.97624",
        "lng": "-98.44861"
    },
    {
        "country": "MX",
        "name": "San Juan Tepa",
        "lat": "20.21579",
        "lng": "-99.06592"
    },
    {
        "country": "MX",
        "name": "Teotihuac\u00e1n",
        "lat": "19.68862",
        "lng": "-98.8611"
    },
    {
        "country": "MX",
        "name": "San Juan Tejaluca",
        "lat": "18.89917",
        "lng": "-98.40472"
    },
    {
        "country": "MX",
        "name": "San Juan Quiotepec",
        "lat": "17.60156",
        "lng": "-96.58731"
    },
    {
        "country": "MX",
        "name": "San Juan Ozolotepec",
        "lat": "16.1332",
        "lng": "-96.25925"
    },
    {
        "country": "MX",
        "name": "San Juan Mixtepec",
        "lat": "17.30539",
        "lng": "-97.83158"
    },
    {
        "country": "MX",
        "name": "San Juan Mixtepec",
        "lat": "16.27709",
        "lng": "-96.30057"
    },
    {
        "country": "MX",
        "name": "San Juan de los Cues",
        "lat": "18.04654",
        "lng": "-97.0602"
    },
    {
        "country": "MX",
        "name": "San Ju\u00e1n Lachigalla",
        "lat": "16.58947",
        "lng": "-96.55052"
    },
    {
        "country": "MX",
        "name": "San Juan Juquila Vijanos",
        "lat": "17.35372",
        "lng": "-96.30385"
    },
    {
        "country": "MX",
        "name": "Ixtenco",
        "lat": "19.25146",
        "lng": "-97.89412"
    },
    {
        "country": "MX",
        "name": "San Juan Ixcaquixtla",
        "lat": "18.46067",
        "lng": "-97.83103"
    },
    {
        "country": "MX",
        "name": "San Juan Ihualtepec",
        "lat": "17.74023",
        "lng": "-98.2889"
    },
    {
        "country": "MX",
        "name": "San Juan Guichicovi",
        "lat": "16.96231",
        "lng": "-95.09418"
    },
    {
        "country": "MX",
        "name": "San Juan Guelav\u00eda",
        "lat": "16.95507",
        "lng": "-96.54359"
    },
    {
        "country": "MX",
        "name": "San Juan Evangelista",
        "lat": "17.88615",
        "lng": "-95.13961"
    },
    {
        "country": "MX",
        "name": "San Juan Epatl\u00e1n",
        "lat": "18.64272",
        "lng": "-98.3725"
    },
    {
        "country": "MX",
        "name": "San Juan Diuxi",
        "lat": "17.28597",
        "lng": "-97.37005"
    },
    {
        "country": "MX",
        "name": "San Juan del R\u00edo",
        "lat": "20.38886",
        "lng": "-99.99577"
    },
    {
        "country": "MX",
        "name": "San Juan de los Reyes (Luis Valenzuela)",
        "lat": "18.51778",
        "lng": "-95.44889"
    },
    {
        "country": "MX",
        "name": "San Juan del Estado",
        "lat": "17.2743",
        "lng": "-96.79912"
    },
    {
        "country": "MX",
        "name": "San Juan de las Huertas",
        "lat": "19.24755",
        "lng": "-99.75834"
    },
    {
        "country": "MX",
        "name": "San Juan Cuautla",
        "lat": "18.24416",
        "lng": "-96.95673"
    },
    {
        "country": "MX",
        "name": "San Juan Chilateca",
        "lat": "16.83042",
        "lng": "-96.66915"
    },
    {
        "country": "MX",
        "name": "San Juan Cacahuatepec",
        "lat": "16.61532",
        "lng": "-98.15501"
    },
    {
        "country": "MX",
        "name": "Valle Nacional",
        "lat": "17.77579",
        "lng": "-96.30174"
    },
    {
        "country": "MX",
        "name": "Tuxtepec",
        "lat": "18.0883",
        "lng": "-96.12535"
    },
    {
        "country": "MX",
        "name": "Tlacoatzintepec",
        "lat": "17.85985",
        "lng": "-96.58647"
    },
    {
        "country": "MX",
        "name": "Tlachichilco",
        "lat": "17.6222",
        "lng": "-98.34312"
    },
    {
        "country": "MX",
        "name": "Cuicatlan",
        "lat": "17.80272",
        "lng": "-96.95939"
    },
    {
        "country": "MX",
        "name": "Coixtlahuaca",
        "lat": "17.72021",
        "lng": "-97.3188"
    },
    {
        "country": "MX",
        "name": "Animas Trujano",
        "lat": "16.99086",
        "lng": "-96.71319"
    },
    {
        "country": "MX",
        "name": "San Juan Atzompa",
        "lat": "18.74497",
        "lng": "-98.02451"
    },
    {
        "country": "MX",
        "name": "San Juan Amecac",
        "lat": "18.83469",
        "lng": "-98.65909"
    },
    {
        "country": "MX",
        "name": "San Juan Achiutla",
        "lat": "17.35019",
        "lng": "-97.50804"
    },
    {
        "country": "MX",
        "name": "San Jos\u00e9 Tenango",
        "lat": "18.15084",
        "lng": "-96.71744"
    },
    {
        "country": "MX",
        "name": "Miahuatl\u00e1n",
        "lat": "18.29163",
        "lng": "-97.28789"
    },
    {
        "country": "MX",
        "name": "San Jos\u00e9 Lachiguir\u00ed",
        "lat": "16.37784",
        "lng": "-96.33589"
    },
    {
        "country": "MX",
        "name": "San Jos\u00e9 Estancia Grande",
        "lat": "16.36545",
        "lng": "-98.25092"
    },
    {
        "country": "MX",
        "name": "San Jos\u00e9 Chiltepec",
        "lat": "17.94734",
        "lng": "-96.16957"
    },
    {
        "country": "MX",
        "name": "San Jos\u00e9 Chiapa",
        "lat": "19.24105",
        "lng": "-97.76642"
    },
    {
        "country": "MX",
        "name": "San Jos\u00e9 Ayuquila",
        "lat": "17.94221",
        "lng": "-97.96861"
    },
    {
        "country": "MX",
        "name": "San Jos\u00e9 Acateno",
        "lat": "20.13067",
        "lng": "-97.20997"
    },
    {
        "country": "MX",
        "name": "San Joaqu\u00edn",
        "lat": "20.91562",
        "lng": "-99.5652"
    },
    {
        "country": "MX",
        "name": "San Jer\u00f3nimo Xayacatl\u00e1n",
        "lat": "18.22034",
        "lng": "-97.91288"
    },
    {
        "country": "MX",
        "name": "San Jer\u00f3nimo Tec\u00f3atl",
        "lat": "18.16633",
        "lng": "-96.91256"
    },
    {
        "country": "MX",
        "name": "San Jer\u00f3nimo Taviche",
        "lat": "16.71468",
        "lng": "-96.5936"
    },
    {
        "country": "MX",
        "name": "San Jer\u00f3nimo Sosola",
        "lat": "17.36685",
        "lng": "-97.03291"
    },
    {
        "country": "MX",
        "name": "San Jer\u00f3nimo Silacayoapilla",
        "lat": "17.81021",
        "lng": "-97.84488"
    },
    {
        "country": "MX",
        "name": "San Jer\u00f3nimo Ocotitla",
        "lat": "19.03127",
        "lng": "-97.96359"
    },
    {
        "country": "MX",
        "name": "San Jer\u00f3nimo Coatl\u00e1n",
        "lat": "16.23211",
        "lng": "-96.87047"
    },
    {
        "country": "MX",
        "name": "San Jer\u00f3nimo Axochitl\u00e1n",
        "lat": "18.27833",
        "lng": "-97.26278"
    },
    {
        "country": "MX",
        "name": "San Isidro Apango",
        "lat": "15.80952",
        "lng": "-96.35856"
    },
    {
        "country": "MX",
        "name": "San Isidro",
        "lat": "18.89111",
        "lng": "-97.12583"
    },
    {
        "country": "MX",
        "name": "San Ildefonso Villa Alta",
        "lat": "17.33827",
        "lng": "-96.15232"
    },
    {
        "country": "MX",
        "name": "San Ildefonso Amatl\u00e1n",
        "lat": "16.3339",
        "lng": "-96.49122"
    },
    {
        "country": "MX",
        "name": "San Ildefonso",
        "lat": "19.56111",
        "lng": "-99.78583"
    },
    {
        "country": "MX",
        "name": "San Hip\u00f3lito",
        "lat": "18.94069",
        "lng": "-97.87322"
    },
    {
        "country": "MX",
        "name": "San Gregorio Atzompa",
        "lat": "19.02349",
        "lng": "-98.34822"
    },
    {
        "country": "MX",
        "name": "San Gaspar Tonatico",
        "lat": "18.80671",
        "lng": "-99.66917"
    },
    {
        "country": "MX",
        "name": "San Gabriel Mixtepec",
        "lat": "16.09593",
        "lng": "-97.08237"
    },
    {
        "country": "MX",
        "name": "San Gabriel Chilac",
        "lat": "18.32596",
        "lng": "-97.34697"
    },
    {
        "country": "MX",
        "name": "Casa Blanca",
        "lat": "18.14976",
        "lng": "-97.13729"
    },
    {
        "country": "MX",
        "name": "San Gabriel las Palmas",
        "lat": "18.61417",
        "lng": "-99.34694"
    },
    {
        "country": "MX",
        "name": "San Francisco Zacacalco",
        "lat": "19.92875",
        "lng": "-98.98279"
    },
    {
        "country": "MX",
        "name": "San Francisco Tlalcilalcalpan",
        "lat": "19.29474",
        "lng": "-99.76771"
    },
    {
        "country": "MX",
        "name": "San Francisco Tetlanohcan",
        "lat": "19.2602",
        "lng": "-98.1637"
    },
    {
        "country": "MX",
        "name": "San Francisco Tepexoxica",
        "lat": "19.06043",
        "lng": "-99.54783"
    },
    {
        "country": "MX",
        "name": "San Francisco Telixtlahuaca",
        "lat": "17.29684",
        "lng": "-96.90529"
    },
    {
        "country": "MX",
        "name": "San Francisco Sola",
        "lat": "16.51584",
        "lng": "-96.97488"
    },
    {
        "country": "MX",
        "name": "San Francisco Ozolotepec",
        "lat": "16.10079",
        "lng": "-96.22181"
    },
    {
        "country": "MX",
        "name": "Mixtla",
        "lat": "18.90502",
        "lng": "-97.89554"
    },
    {
        "country": "MX",
        "name": "San Francisco Lachigol\u00f3",
        "lat": "17.01624",
        "lng": "-96.59947"
    },
    {
        "country": "MX",
        "name": "San Francisco Huehuetl\u00e1n",
        "lat": "18.19725",
        "lng": "-96.94805"
    },
    {
        "country": "MX",
        "name": "San Francisco del Mar Viejo",
        "lat": "16.23185",
        "lng": "-94.63297"
    },
    {
        "country": "MX",
        "name": "San Francisco Chind\u00faa",
        "lat": "17.42809",
        "lng": "-97.31266"
    },
    {
        "country": "MX",
        "name": "San Francisco Cajonos",
        "lat": "17.17091",
        "lng": "-96.25024"
    },
    {
        "country": "MX",
        "name": "Atexcatzingo",
        "lat": "19.46882",
        "lng": "-98.14716"
    },
    {
        "country": "MX",
        "name": "San Francisco Acuautla",
        "lat": "19.34564",
        "lng": "-98.86034"
    },
    {
        "country": "MX",
        "name": "San Francisco",
        "lat": "20.55254",
        "lng": "-98.00209"
    },
    {
        "country": "MX",
        "name": "Occidente (San Francisco)",
        "lat": "18.3313",
        "lng": "-93.25238"
    },
    {
        "country": "MX",
        "name": "San Francisco Ozomatl\u00e1n",
        "lat": "17.92537",
        "lng": "-99.33902"
    },
    {
        "country": "MX",
        "name": "San Fernando",
        "lat": "16.87153",
        "lng": "-93.20759"
    },
    {
        "country": "MX",
        "name": "San Felipe Usila",
        "lat": "17.8879",
        "lng": "-96.52474"
    },
    {
        "country": "MX",
        "name": "Teotlaltzingo",
        "lat": "19.23088",
        "lng": "-98.50077"
    },
    {
        "country": "MX",
        "name": "San Felipe Jalapa de D\u00edaz",
        "lat": "18.0712",
        "lng": "-96.53562"
    },
    {
        "country": "MX",
        "name": "Villa Mariano Matamoros",
        "lat": "19.32659",
        "lng": "-98.37827"
    },
    {
        "country": "MX",
        "name": "San Felipe del Progreso",
        "lat": "19.7144",
        "lng": "-99.95197"
    },
    {
        "country": "MX",
        "name": "Cuautempan",
        "lat": "19.9138",
        "lng": "-97.79498"
    },
    {
        "country": "MX",
        "name": "San Esteban Atatlahuca",
        "lat": "17.06716",
        "lng": "-97.67836"
    },
    {
        "country": "MX",
        "name": "San Esteban",
        "lat": "20.54452",
        "lng": "-98.06004"
    },
    {
        "country": "MX",
        "name": "Yauhquemehcan",
        "lat": "19.40697",
        "lng": "-98.1823"
    },
    {
        "country": "MX",
        "name": "San Dionisio Ocotepec",
        "lat": "16.80457",
        "lng": "-96.39334"
    },
    {
        "country": "MX",
        "name": "San Dionisio del Mar",
        "lat": "16.32371",
        "lng": "-94.7583"
    },
    {
        "country": "MX",
        "name": "Xochimanca",
        "lat": "19.49052",
        "lng": "-98.82433"
    },
    {
        "country": "MX",
        "name": "San Diego Huehuecalco",
        "lat": "19.09276",
        "lng": "-98.76336"
    },
    {
        "country": "MX",
        "name": "Sanct\u00f3rum",
        "lat": "19.49333",
        "lng": "-98.47156"
    },
    {
        "country": "MX",
        "name": "Sanctorum",
        "lat": "19.09917",
        "lng": "-98.25417"
    },
    {
        "country": "MX",
        "name": "San Crist\u00f3bal Lachirioag",
        "lat": "17.33582",
        "lng": "-96.16503"
    },