[
    {
        "country": "NE",
        "name": "Birnin Gaour\u00e9",
        "lat": "13.08173",
        "lng": "2.91099"
    },
    {
        "country": "NE",
        "name": "Birni N Konni",
        "lat": "13.79599",
        "lng": "5.25026"
    },
    {
        "country": "NE",
        "name": "Zinder",
        "lat": "13.80716",
        "lng": "8.9881"
    },
    {
        "country": "NE",
        "name": "Tillab\u00e9ri",
        "lat": "14.20711",
        "lng": "1.45418"
    },
    {
        "country": "NE",
        "name": "Tibiri",
        "lat": "13.56271",
        "lng": "7.04848"
    },
    {
        "country": "NE",
        "name": "Tessaoua",
        "lat": "13.75737",
        "lng": "7.9874"
    },
    {
        "country": "NE",
        "name": "T\u00e9ra",
        "lat": "14.00776",
        "lng": "0.75306"
    },
    {
        "country": "NE",
        "name": "Tchintabaraden",
        "lat": "15.8969",
        "lng": "5.7985"
    },
    {
        "country": "NE",
        "name": "Tanout",
        "lat": "14.97089",
        "lng": "8.88786"
    },
    {
        "country": "NE",
        "name": "Tahoua",
        "lat": "14.8888",
        "lng": "5.2692"
    },
    {
        "country": "NE",
        "name": "Say",
        "lat": "13.1007",
        "lng": "2.3689"
    },
    {
        "country": "NE",
        "name": "Ouallam",
        "lat": "14.31641",
        "lng": "2.08597"
    },
    {
        "country": "NE",
        "name": "Niamey",
        "lat": "13.51366",
        "lng": "2.1098"
    },
    {
        "country": "NE",
        "name": "Nguigmi",
        "lat": "14.24953",
        "lng": "13.10921"
    },
    {
        "country": "NE",
        "name": "Mirriah",
        "lat": "13.70727",
        "lng": "9.15013"
    },
    {
        "country": "NE",
        "name": "Mayahi",
        "lat": "13.95532",
        "lng": "7.67122"
    },
    {
        "country": "NE",
        "name": "Matamey",
        "lat": "13.42309",
        "lng": "8.47485"
    },
    {
        "country": "NE",
        "name": "Maradi",
        "lat": "13.5",
        "lng": "7.10174"
    },
    {
        "country": "NE",
        "name": "Ma\u00efn\u00e9 Soroa",
        "lat": "13.21139",
        "lng": "12.0241"
    },
    {
        "country": "NE",
        "name": "Magaria",
        "lat": "12.99826",
        "lng": "8.90991"
    },
    {
        "country": "NE",
        "name": "Madarounfa",
        "lat": "13.30867",
        "lng": "7.15602"
    },
    {
        "country": "NE",
        "name": "Madaoua",
        "lat": "14.073",
        "lng": "5.96"
    },
    {
        "country": "NE",
        "name": "Loga",
        "lat": "13.6132",
        "lng": "3.2358"
    },
    {
        "country": "NE",
        "name": "Kollo",
        "lat": "13.3043",
        "lng": "2.339"
    },
    {
        "country": "NE",
        "name": "Ke\u00efta",
        "lat": "14.7551",
        "lng": "5.7749"
    },
    {
        "country": "NE",
        "name": "Kantch\u00e9",
        "lat": "13.53926",
        "lng": "8.46293"
    },
    {
        "country": "NE",
        "name": "Ill\u00e9la",
        "lat": "14.4605",
        "lng": "5.2437"
    },
    {
        "country": "NE",
        "name": "Guidan Roumdji",
        "lat": "13.6576",
        "lng": "6.69567"
    },
    {
        "country": "NE",
        "name": "Gour\u00e9",
        "lat": "13.9835",
        "lng": "10.27035"
    },
    {
        "country": "NE",
        "name": "Gaya",
        "lat": "11.88435",
        "lng": "3.44919"
    },
    {
        "country": "NE",
        "name": "Filingu\u00e9",
        "lat": "14.3521",
        "lng": "3.3168"
    },
    {
        "country": "NE",
        "name": "Dosso",
        "lat": "13.049",
        "lng": "3.1937"
    },
    {
        "country": "NE",
        "name": "Dogondoutchi",
        "lat": "13.63933",
        "lng": "4.02875"
    },
    {
        "country": "NE",
        "name": "Diffa",
        "lat": "13.31536",
        "lng": "12.61135"
    },
    {
        "country": "NE",
        "name": "Dakoro",
        "lat": "14.51056",
        "lng": "6.765"
    },
    {
        "country": "NE",
        "name": "Bouza",
        "lat": "14.42293",
        "lng": "6.04278"
    },
    {
        "country": "NE",
        "name": "Bilma",
        "lat": "18.68532",
        "lng": "12.91643"
    },
    {
        "country": "NE",
        "name": "Ayorou",
        "lat": "14.73075",
        "lng": "0.91739"
    },
    {
        "country": "NE",
        "name": "Arlit",
        "lat": "18.73694",
        "lng": "7.38528"
    },
    {
        "country": "NE",
        "name": "Alaghsas",
        "lat": "17.0187",
        "lng": "8.0168"
    },
    {
        "country": "NE",
        "name": "Agui\u00e9",
        "lat": "13.50601",
        "lng": "7.77863"
    },
    {
        "country": "NE",
        "name": "Agadez",
        "lat": "16.97333",
        "lng": "7.99111"
    },
    {
        "country": "NE",
        "name": "Abalak",
        "lat": "15.4509",
        "lng": "6.2793"
    },
    {
        "country": "NE",
        "name": "Tchiroz\u00e9rine",
        "lat": "17.22096",
        "lng": "7.7614"
    }
]