[
    {
        "country": "NL",
        "name": "Zwolle",
        "lat": "52.5125",
        "lng": "6.09444"
    },
    {
        "country": "NL",
        "name": "Zwijndrecht",
        "lat": "51.8175",
        "lng": "4.63333"
    },
    {
        "country": "NL",
        "name": "Zwaanshoek",
        "lat": "52.3125",
        "lng": "4.61667"
    },
    {
        "country": "NL",
        "name": "De Westereen",
        "lat": "53.25731",
        "lng": "6.0363"
    },
    {
        "country": "NL",
        "name": "Zwaagdijk-Oost",
        "lat": "52.7075",
        "lng": "5.14028"
    },
    {
        "country": "NL",
        "name": "Zutphen",
        "lat": "52.13833",
        "lng": "6.20139"
    },
    {
        "country": "NL",
        "name": "Zundert",
        "lat": "51.47167",
        "lng": "4.65556"
    },
    {
        "country": "NL",
        "name": "Zuilichem",
        "lat": "51.80917",
        "lng": "5.13611"
    },
    {
        "country": "NL",
        "name": "Zuidwijk",
        "lat": "51.87532",
        "lng": "4.48514"
    },
    {
        "country": "NL",
        "name": "Zuid-Scharwoude",
        "lat": "52.68667",
        "lng": "4.80833"
    },
    {
        "country": "NL",
        "name": "Zuidlaren",
        "lat": "53.09417",
        "lng": "6.68194"
    },
    {
        "country": "NL",
        "name": "Zuidhorn",
        "lat": "53.24667",
        "lng": "6.40278"
    },
    {
        "country": "NL",
        "name": "Zuiderburen",
        "lat": "53.1734",
        "lng": "5.84271"
    },
    {
        "country": "NL",
        "name": "Zuidbroek",
        "lat": "53.16333",
        "lng": "6.86111"
    },
    {
        "country": "NL",
        "name": "Zuid-Beijerland",
        "lat": "51.75083",
        "lng": "4.36806"
    },
    {
        "country": "NL",
        "name": "Zoutkamp",
        "lat": "53.33917",
        "lng": "6.30417"
    },
    {
        "country": "NL",
        "name": "Zoutelande",
        "lat": "51.50167",
        "lng": "3.48472"
    },
    {
        "country": "NL",
        "name": "Zonnemaat",
        "lat": "51.93115",
        "lng": "6.06235"
    },
    {
        "country": "NL",
        "name": "Zonderwijk",
        "lat": "51.41141",
        "lng": "5.39361"
    },
    {
        "country": "NL",
        "name": "Zoeterwoude-Dorp",
        "lat": "52.12",
        "lng": "4.49583"
    },
    {
        "country": "NL",
        "name": "Zoetermeer",
        "lat": "52.0575",
        "lng": "4.49306"
    },
    {
        "country": "NL",
        "name": "Zoelen",
        "lat": "51.9125",
        "lng": "5.40278"
    },
    {
        "country": "NL",
        "name": "Zijtaart",
        "lat": "51.5925",
        "lng": "5.54167"
    },
    {
        "country": "NL",
        "name": "Zevenhuizen",
        "lat": "52.21816",
        "lng": "5.97841"
    },
    {
        "country": "NL",
        "name": "Zevenhoven",
        "lat": "52.18167",
        "lng": "4.77917"
    },
    {
        "country": "NL",
        "name": "Zevenbergschen Hoek",
        "lat": "51.6725",
        "lng": "4.67917"
    },
    {
        "country": "NL",
        "name": "Zevenaar",
        "lat": "51.93",
        "lng": "6.07083"
    },
    {
        "country": "NL",
        "name": "Zetten",
        "lat": "51.92833",
        "lng": "5.71389"
    },
    {
        "country": "NL",
        "name": "Zesgehuchten",
        "lat": "51.41667",
        "lng": "5.55"
    },
    {
        "country": "NL",
        "name": "Zelhem",
        "lat": "52.00667",
        "lng": "6.34861"
    },
    {
        "country": "NL",
        "name": "Zeist",
        "lat": "52.09",
        "lng": "5.23333"
    },
    {
        "country": "NL",
        "name": "Zeilberg",
        "lat": "51.45469",
        "lng": "5.81878"
    },
    {
        "country": "NL",
        "name": "Zegge",
        "lat": "51.55667",
        "lng": "4.51806"
    },
    {
        "country": "NL",
        "name": "Zeewolde",
        "lat": "52.33",
        "lng": "5.54167"
    },
    {
        "country": "NL",
        "name": "Zeelst",
        "lat": "51.42421",
        "lng": "5.41566"
    },
    {
        "country": "NL",
        "name": "Zeeland",
        "lat": "51.6975",
        "lng": "5.67639"
    },
    {
        "country": "NL",
        "name": "Zeddam",
        "lat": "51.90333",
        "lng": "6.25972"
    },
    {
        "country": "NL",
        "name": "Zandvoort",
        "lat": "52.37125",
        "lng": "4.53306"
    },
    {
        "country": "NL",
        "name": "Zandberg",
        "lat": "51.57333",
        "lng": "4.78472"
    },
    {
        "country": "NL",
        "name": "Zaltbommel",
        "lat": "51.81",
        "lng": "5.24444"
    },
    {
        "country": "NL",
        "name": "Zaanstad",
        "lat": "52.45313",
        "lng": "4.81356"
    },
    {
        "country": "NL",
        "name": "Zaandijk",
        "lat": "52.47494",
        "lng": "4.80686"
    },
    {
        "country": "NL",
        "name": "Zaandam",
        "lat": "52.43854",
        "lng": "4.82643"
    },
    {
        "country": "NL",
        "name": "Zaamslag",
        "lat": "51.3125",
        "lng": "3.9125"
    },
    {
        "country": "NL",
        "name": "Yerseke",
        "lat": "51.4925",
        "lng": "4.05"
    },
    {
        "country": "NL",
        "name": "Wouw",
        "lat": "51.52167",
        "lng": "4.39028"
    },
    {
        "country": "NL",
        "name": "Woudsend",
        "lat": "52.94357",
        "lng": "5.62843"
    },
    {
        "country": "NL",
        "name": "Woudrichem",
        "lat": "51.815",
        "lng": "5.00139"
    },
    {
        "country": "NL",
        "name": "Woudenberg",
        "lat": "52.08083",
        "lng": "5.41667"
    },
    {
        "country": "NL",
        "name": "Woubrugge",
        "lat": "52.17",
        "lng": "4.63611"
    },
    {
        "country": "NL",
        "name": "Workum",
        "lat": "52.97969",
        "lng": "5.4471"
    },
    {
        "country": "NL",
        "name": "Wooldrik",
        "lat": "52.21667",
        "lng": "6.91667"
    },
    {
        "country": "NL",
        "name": "Woolde",
        "lat": "52.2721",
        "lng": "6.75891"
    },
    {
        "country": "NL",
        "name": "Wommels",
        "lat": "53.10883",
        "lng": "5.58749"
    },
    {
        "country": "NL",
        "name": "Wolvega",
        "lat": "52.87545",
        "lng": "5.99691"
    },
    {
        "country": "NL",
        "name": "Wolphaartsdijk",
        "lat": "51.53167",
        "lng": "3.81944"
    },
    {
        "country": "NL",
        "name": "Wolfsbos",
        "lat": "52.71734",
        "lng": "6.49881"
    },
    {
        "country": "NL",
        "name": "Wolfheze",
        "lat": "52.00333",
        "lng": "5.79028"
    },
    {
        "country": "NL",
        "name": "Wolder",
        "lat": "50.83752",
        "lng": "5.65938"
    },
    {
        "country": "NL",
        "name": "Woerden",
        "lat": "52.085",
        "lng": "4.88333"
    },
    {
        "country": "NL",
        "name": "Woenselse Heide",
        "lat": "51.48333",
        "lng": "5.46667"
    },
    {
        "country": "NL",
        "name": "Woensdrecht",
        "lat": "51.42897",
        "lng": "4.30355"
    },
    {
        "country": "NL",
        "name": "Witmarsum",
        "lat": "53.10452",
        "lng": "5.46902"
    },
    {
        "country": "NL",
        "name": "Wissenkerke",
        "lat": "51.585",
        "lng": "3.74722"
    },
    {
        "country": "NL",
        "name": "Wisch",
        "lat": "51.92648",
        "lng": "6.41705"
    },
    {
        "country": "NL",
        "name": "Wirdum",
        "lat": "53.14893",
        "lng": "5.80387"
    },
    {
        "country": "NL",
        "name": "Winterswijk",
        "lat": "51.9725",
        "lng": "6.71944"
    },
    {
        "country": "NL",
        "name": "Winsum",
        "lat": "53.33",
        "lng": "6.52083"
    },
    {
        "country": "NL",
        "name": "Winschoten",
        "lat": "53.14417",
        "lng": "7.03472"
    },
    {
        "country": "NL",
        "name": "Winkel",
        "lat": "52.75417",
        "lng": "4.90278"
    },
    {
        "country": "NL",
        "name": "Wilnis",
        "lat": "52.19667",
        "lng": "4.89722"
    },
    {
        "country": "NL",
        "name": "Wilhelminadorp",
        "lat": "51.49742",
        "lng": "5.39223"
    },
    {
        "country": "NL",
        "name": "Wildervank",
        "lat": "53.08083",
        "lng": "6.8625"
    },
    {
        "country": "NL",
        "name": "Wijnjewoude",
        "lat": "53.05814",
        "lng": "6.2047"
    },
    {
        "country": "NL",
        "name": "Wijnandsrade",
        "lat": "50.90583",
        "lng": "5.88333"
    },
    {
        "country": "NL",
        "name": "Wijlre",
        "lat": "50.83333",
        "lng": "5.89583"
    },
    {
        "country": "NL",
        "name": "Wijk bij Duurstede",
        "lat": "51.97417",
        "lng": "5.34167"
    },
    {
        "country": "NL",
        "name": "Wijk aan Zee",
        "lat": "52.4936",
        "lng": "4.59409"
    },
    {
        "country": "NL",
        "name": "Wijhe",
        "lat": "52.38667",
        "lng": "6.13472"
    },
    {
        "country": "NL",
        "name": "Wijdenes",
        "lat": "52.635",
        "lng": "5.15694"
    },
    {
        "country": "NL",
        "name": "Wijchen",
        "lat": "51.80917",
        "lng": "5.725"
    },
    {
        "country": "NL",
        "name": "Wijbosch",
        "lat": "51.61667",
        "lng": "5.46806"
    },
    {
        "country": "NL",
        "name": "Wieringerwerf",
        "lat": "52.85083",
        "lng": "5.02639"
    },
    {
        "country": "NL",
        "name": "Wieringerwaard",
        "lat": "52.83583",
        "lng": "4.86528"
    },
    {
        "country": "NL",
        "name": "Wierden",
        "lat": "52.35917",
        "lng": "6.59306"
    },
    {
        "country": "NL",
        "name": "Westwoud",
        "lat": "52.685",
        "lng": "5.13472"
    },
    {
        "country": "NL",
        "name": "West-Terschelling",
        "lat": "53.35911",
        "lng": "5.21482"
    },
    {
        "country": "NL",
        "name": "West-Souburg",
        "lat": "51.46417",
        "lng": "3.59167"
    },
    {
        "country": "NL",
        "name": "Westmaas",
        "lat": "51.78667",
        "lng": "4.475"
    },
    {
        "country": "NL",
        "name": "Westlaren",
        "lat": "53.0848",
        "lng": "6.66469"
    },
    {
        "country": "NL",
        "name": "Westkapelle",
        "lat": "51.52917",
        "lng": "3.44028"
    },
    {
        "country": "NL",
        "name": "Westerzicht",
        "lat": "51.46252",
        "lng": "3.58687"
    },
    {
        "country": "NL",
        "name": "Westervoort",
        "lat": "51.95583",
        "lng": "5.97222"
    },
    {
        "country": "NL",
        "name": "Westerlee",
        "lat": "53.14583",
        "lng": "6.9875"
    },
    {
        "country": "NL",
        "name": "Westerhoven",
        "lat": "51.3325",
        "lng": "5.39583"
    },
    {
        "country": "NL",
        "name": "Westerhaar-Vriezenveensewijk",
        "lat": "52.45583",
        "lng": "6.62361"
    },
    {
        "country": "NL",
        "name": "Westerbork",
        "lat": "52.85",
        "lng": "6.60833"
    },
    {
        "country": "NL",
        "name": "Westeneng",
        "lat": "52.1275",
        "lng": "5.71528"
    },
    {
        "country": "NL",
        "name": "Westeinde",
        "lat": "53.20853",
        "lng": "5.76812"
    },
    {
        "country": "NL",
        "name": "Westdorpe",
        "lat": "51.2325",
        "lng": "3.82639"
    },
    {
        "country": "NL",
        "name": "Wessem",
        "lat": "51.15954",
        "lng": "5.88146"
    },
    {
        "country": "NL",
        "name": "Wernhout",
        "lat": "51.455",
        "lng": "4.64167"
    },
    {
        "country": "NL",
        "name": "Werkhoven",
        "lat": "52.025",
        "lng": "5.24444"
    },
    {
        "country": "NL",
        "name": "Werkendam",
        "lat": "51.81",
        "lng": "4.89444"
    },
    {
        "country": "NL",
        "name": "Wemeldinge",
        "lat": "51.51833",
        "lng": "3.99722"
    },
    {
        "country": "NL",
        "name": "Wellerlooi",
        "lat": "51.53417",
        "lng": "6.13611"
    },
    {
        "country": "NL",
        "name": "Well",
        "lat": "51.55",
        "lng": "6.08889"
    },
    {
        "country": "NL",
        "name": "Welberg",
        "lat": "51.57667",
        "lng": "4.33056"
    },
    {
        "country": "NL",
        "name": "Wekerom",
        "lat": "52.1125",
        "lng": "5.71389"
    },
    {
        "country": "NL",
        "name": "Weiteveen",
        "lat": "52.6725",
        "lng": "6.9875"
    },
    {
        "country": "NL",
        "name": "Weijpoort",
        "lat": "52.08167",
        "lng": "4.80278"
    },
    {
        "country": "NL",
        "name": "Weesp",
        "lat": "52.3075",
        "lng": "5.04167"
    },
    {
        "country": "NL",
        "name": "Weert",
        "lat": "51.25167",
        "lng": "5.70694"
    },
    {
        "country": "NL",
        "name": "Weerestein",
        "lat": "52.30381",
        "lng": "4.58861"
    },
    {
        "country": "NL",
        "name": "Waubach",
        "lat": "50.91833",
        "lng": "6.05"
    },
    {
        "country": "NL",
        "name": "Waterakkers",
        "lat": "52.5044",
        "lng": "4.65608"
    },
    {
        "country": "NL",
        "name": "Wassenaar",
        "lat": "52.14583",
        "lng": "4.40278"
    },
    {
        "country": "NL",
        "name": "Waspik",
        "lat": "51.68667",
        "lng": "4.94444"
    },
    {
        "country": "NL",
        "name": "Warnsveld",
        "lat": "52.1375",
        "lng": "6.23056"
    },
    {
        "country": "NL",
        "name": "Warmond",
        "lat": "52.19667",
        "lng": "4.50278"
    },
    {
        "country": "NL",
        "name": "Wergea",
        "lat": "53.15145",
        "lng": "5.84404"
    },
    {
        "country": "NL",
        "name": "Warffum",
        "lat": "53.3925",
        "lng": "6.55833"
    },
    {
        "country": "NL",
        "name": "Wapenveld",
        "lat": "52.42917",
        "lng": "6.07361"
    },
    {
        "country": "NL",
        "name": "Wanssum",
        "lat": "51.53583",
        "lng": "6.07639"
    },
    {
        "country": "NL",
        "name": "Wanroij",
        "lat": "51.6575",
        "lng": "5.81806"
    },
    {
        "country": "NL",
        "name": "Wageningen",
        "lat": "51.97",
        "lng": "5.66667"
    },
    {
        "country": "NL",
        "name": "Wagenborgen",
        "lat": "53.25583",
        "lng": "6.93333"
    },
    {
        "country": "NL",
        "name": "Wagenberg",
        "lat": "51.665",
        "lng": "4.74861"
    },
    {
        "country": "NL",
        "name": "Waddinxveen",
        "lat": "52.045",
        "lng": "4.65139"
    },
    {
        "country": "NL",
        "name": "Waarland",
        "lat": "52.72667",
        "lng": "4.83194"
    },
    {
        "country": "NL",
        "name": "Waarder",
        "lat": "52.06083",
        "lng": "4.82083"
    },
    {
        "country": "NL",
        "name": "Waardenburg",
        "lat": "51.8325",
        "lng": "5.25694"
    },
    {
        "country": "NL",
        "name": "Waarde",
        "lat": "51.4175",
        "lng": "4.06806"
    },
    {
        "country": "NL",
        "name": "Waalwijk",
        "lat": "51.6825",
        "lng": "5.07083"
    },
    {
        "country": "NL",
        "name": "Waalre",
        "lat": "51.38667",
        "lng": "5.44444"
    },
    {
        "country": "NL",
        "name": "Vuren",
        "lat": "51.825",
        "lng": "5.04583"
    },
    {
        "country": "NL",
        "name": "Vught",
        "lat": "51.65333",
        "lng": "5.2875"
    },
    {
        "country": "NL",
        "name": "Vroomshoop",
        "lat": "52.46083",
        "lng": "6.56528"
    },
    {
        "country": "NL",
        "name": "Vriezenveen",
        "lat": "52.40833",
        "lng": "6.62222"
    },
    {
        "country": "NL",
        "name": "Vries",
        "lat": "53.07417",
        "lng": "6.57778"
    },
    {
        "country": "NL",
        "name": "Vrieheide",
        "lat": "50.92192",
        "lng": "5.96701"
    },
    {
        "country": "NL",
        "name": "Vreewijk",
        "lat": "51.88428",
        "lng": "4.51967"
    },
    {
        "country": "NL",
        "name": "Vreeswijk",
        "lat": "52.01088",
        "lng": "5.09285"
    },
    {
        "country": "NL",
        "name": "Vredenburg",
        "lat": "51.95355",
        "lng": "5.90284"
    },
    {
        "country": "NL",
        "name": "Vorstenbosch",
        "lat": "51.6525",
        "lng": "5.55"
    },
    {
        "country": "NL",
        "name": "Vorden",
        "lat": "52.105",
        "lng": "6.30972"
    },
    {
        "country": "NL",
        "name": "Voorthuizen",
        "lat": "52.18667",
        "lng": "5.60556"
    },
    {
        "country": "NL",
        "name": "Voorst",
        "lat": "52.17",
        "lng": "6.14167"
    },
    {
        "country": "NL",
        "name": "Voorschoten",
        "lat": "52.1275",
        "lng": "4.44861"
    },
    {
        "country": "NL",
        "name": "Voorhout",
        "lat": "52.22167",
        "lng": "4.48472"
    },
    {
        "country": "NL",
        "name": "Voorburg",
        "lat": "52.07417",
        "lng": "4.35972"
    },
    {
        "country": "NL",
        "name": "Vollenhove",
        "lat": "52.68083",
        "lng": "5.95417"
    },
    {
        "country": "NL",
        "name": "Volkel",
        "lat": "51.6425",
        "lng": "5.65417"
    },
    {
        "country": "NL",
        "name": "Volendam",
        "lat": "52.495",
        "lng": "5.07083"
    },
    {
        "country": "NL",
        "name": "Voldijn",
        "lat": "51.40052",
        "lng": "5.47196"
    },
    {
        "country": "NL",
        "name": "Vogelwijk",
        "lat": "52.07631",
        "lng": "4.2479"
    },
    {
        "country": "NL",
        "name": "Vogelenzang",
        "lat": "52.31917",
        "lng": "4.57778"
    },
    {
        "country": "NL",
        "name": "Voerendaal",
        "lat": "50.88327",
        "lng": "5.92978"
    },
    {
        "country": "NL",
        "name": "Vlokhoven",
        "lat": "51.46667",
        "lng": "5.48333"
    },
    {
        "country": "NL",
        "name": "Vlodrop",
        "lat": "51.13333",
        "lng": "6.07639"
    },
    {
        "country": "NL",
        "name": "Vlissingen",
        "lat": "51.4425",
        "lng": "3.57361"
    },
    {
        "country": "NL",
        "name": "Vlietwijk",
        "lat": "52.12436",
        "lng": "4.45736"
    },
    {
        "country": "NL",
        "name": "Vlierden",
        "lat": "51.445",
        "lng": "5.75833"
    },
    {
        "country": "NL",
        "name": "Vliedberg",
        "lat": "51.68961",
        "lng": "5.19031"
    },
    {
        "country": "NL",
        "name": "Vleuten",
        "lat": "52.10583",
        "lng": "5.01528"
    },
    {
        "country": "NL",
        "name": "Vledder",
        "lat": "52.85583",
        "lng": "6.20833"
    },
    {
        "country": "NL",
        "name": "Vlagtwedde",
        "lat": "53.0275",
        "lng": "7.10833"
    },
    {
        "country": "NL",
        "name": "Vlaardingen",
        "lat": "51.9125",
        "lng": "4.34167"
    },
    {
        "country": "NL",
        "name": "Vinkeveen",
        "lat": "52.21507",
        "lng": "4.93372"
    },
    {
        "country": "NL",
        "name": "Vijlen",
        "lat": "50.78833",
        "lng": "5.96528"
    },
    {
        "country": "NL",
        "name": "Vijfhuizen",
        "lat": "52.35083",
        "lng": "4.67778"
    },
    {
        "country": "NL",
        "name": "Vierpolders",
        "lat": "51.87917",
        "lng": "4.17917"
    },
    {
        "country": "NL",
        "name": "Vianen",
        "lat": "51.9925",
        "lng": "5.09167"
    },
    {
        "country": "NL",
        "name": "Venray",
        "lat": "51.525",
        "lng": "5.975"
    },
    {
        "country": "NL",
        "name": "Venlo",
        "lat": "51.37",
        "lng": "6.16806"
    },
    {
        "country": "NL",
        "name": "Venhorst",
        "lat": "51.60833",
        "lng": "5.7375"
    },
    {
        "country": "NL",
        "name": "Ven",
        "lat": "51.64",
        "lng": "5.55"
    },
    {
        "country": "NL",
        "name": "Veltum",
        "lat": "51.51954",
        "lng": "5.96032"
    },
    {
        "country": "NL",
        "name": "Velsen-Zuid",
        "lat": "52.46",
        "lng": "4.65"
    },
    {
        "country": "NL",
        "name": "Velp",
        "lat": "51.995",
        "lng": "5.97361"
    },
    {
        "country": "NL",
        "name": "Veldhuizen",
        "lat": "52.07537",
        "lng": "5.01234"
    },
    {
        "country": "NL",
        "name": "Veldhoven",
        "lat": "51.41833",
        "lng": "5.40278"
    },
    {
        "country": "NL",
        "name": "Veghel",
        "lat": "51.61667",
        "lng": "5.54861"
    },
    {
        "country": "NL",
        "name": "Feanw\u00e2lden",
        "lat": "53.23558",
        "lng": "5.98832"
    },
    {
        "country": "NL",
        "name": "Veenoord",
        "lat": "52.71087",
        "lng": "6.84869"
    },
    {
        "country": "NL",
        "name": "Veenendaal",
        "lat": "52.02863",
        "lng": "5.55891"
    },
    {
        "country": "NL",
        "name": "Veendam",
        "lat": "53.10667",
        "lng": "6.87917"
    },
    {
        "country": "NL",
        "name": "Veen",
        "lat": "51.7775",
        "lng": "5.10833"
    },
    {
        "country": "NL",
        "name": "Varsseveld",
        "lat": "51.94333",
        "lng": "6.45833"
    },
    {
        "country": "NL",
        "name": "Valthermond",
        "lat": "52.88167",
        "lng": "6.9625"
    },
    {
        "country": "NL",
        "name": "Valthe",
        "lat": "52.84583",
        "lng": "6.89444"
    },
    {
        "country": "NL",
        "name": "Valkenswaard",
        "lat": "51.35083",
        "lng": "5.45972"
    },
    {
        "country": "NL",
        "name": "Valkenburg",
        "lat": "52.18",
        "lng": "4.43194"
    },
    {
        "country": "NL",
        "name": "Valkenburg",
        "lat": "50.86523",
        "lng": "5.83205"
    },
    {
        "country": "NL",
        "name": "Valendries",
        "lat": "51.80658",
        "lng": "5.73445"
    },
    {
        "country": "NL",
        "name": "Valburg",
        "lat": "51.91167",
        "lng": "5.79028"
    },
    {
        "country": "NL",
        "name": "Vaassen",
        "lat": "52.28583",
        "lng": "5.96667"
    },
    {
        "country": "NL",
        "name": "Vaartbroek",
        "lat": "51.47954",
        "lng": "5.49806"
    },
    {
        "country": "NL",
        "name": "Vaals",
        "lat": "50.77083",
        "lng": "6.01806"
    },
    {
        "country": "NL",
        "name": "Utrecht",
        "lat": "52.09083",
        "lng": "5.12222"
    },
    {
        "country": "NL",
        "name": "Usquert",
        "lat": "53.4025",
        "lng": "6.61111"
    },
    {
        "country": "NL",
        "name": "Urmond",
        "lat": "50.99083",
        "lng": "5.77222"
    },
    {
        "country": "NL",
        "name": "Urk",
        "lat": "52.6625",
        "lng": "5.60139"
    },
    {
        "country": "NL",
        "name": "Ureterp",
        "lat": "53.09244",
        "lng": "6.16718"
    },
    {
        "country": "NL",
        "name": "Ulvenhout",
        "lat": "51.54907",
        "lng": "4.79931"
    },
    {
        "country": "NL",
        "name": "Ulrum",
        "lat": "53.35917",
        "lng": "6.33333"
    },
    {
        "country": "NL",
        "name": "Ulestraten",
        "lat": "50.90583",
        "lng": "5.78194"
    },
    {
        "country": "NL",
        "name": "Uithuizermeeden",
        "lat": "53.41417",
        "lng": "6.72361"
    },
    {
        "country": "NL",
        "name": "Uithuizen",
        "lat": "53.4075",
        "lng": "6.67083"
    },
    {
        "country": "NL",
        "name": "Uithoorn",
        "lat": "52.2375",
        "lng": "4.82639"
    },
    {
        "country": "NL",
        "name": "Uitgeest",
        "lat": "52.52917",
        "lng": "4.70972"
    },
    {
        "country": "NL",
        "name": "Ugchelen",
        "lat": "52.18464",
        "lng": "5.93177"
    },
    {
        "country": "NL",
        "name": "Uffelte",
        "lat": "52.79",
        "lng": "6.28056"
    },
    {
        "country": "NL",
        "name": "Udenhout",
        "lat": "51.60917",
        "lng": "5.14306"
    },
    {
        "country": "NL",
        "name": "Uden",
        "lat": "51.66083",
        "lng": "5.61944"
    },
    {
        "country": "NL",
        "name": "Uddel",
        "lat": "52.25917",
        "lng": "5.78056"
    },
    {
        "country": "NL",
        "name": "Ubachsberg",
        "lat": "50.85333",
        "lng": "5.94861"
    },
    {
        "country": "NL",
        "name": "Tzummarum",
        "lat": "53.23733",
        "lng": "5.54612"
    },
    {
        "country": "NL",
        "name": "'t Zand",
        "lat": "52.83667",
        "lng": "4.75556"
    },
    {
        "country": "NL",
        "name": "Tynaarlo",
        "lat": "53.0775",
        "lng": "6.61667"
    },
    {
        "country": "NL",
        "name": "Twisk",
        "lat": "52.74083",
        "lng": "5.05278"
    },
    {
        "country": "NL",
        "name": "Twijzelerheide",
        "lat": "53.24015",
        "lng": "6.04591"
    },
    {
        "country": "NL",
        "name": "Twijzel",
        "lat": "53.23152",
        "lng": "6.08952"
    },
    {
        "country": "NL",
        "name": "Twello",
        "lat": "52.23667",
        "lng": "6.10278"
    },
    {
        "country": "NL",
        "name": "Twekkelerveld",
        "lat": "52.23064",
        "lng": "6.86004"
    },
    {
        "country": "NL",
        "name": "Tweede Exlo\u00ebrmond",
        "lat": "52.90917",
        "lng": "6.93333"
    },
    {
        "country": "NL",
        "name": "Tuk",
        "lat": "52.79667",
        "lng": "6.09444"
    },
    {
        "country": "NL",
        "name": "Tuindorp",
        "lat": "51.93032",
        "lng": "4.3784"
    },
    {
        "country": "NL",
        "name": "Tuikwerd",
        "lat": "53.31667",
        "lng": "6.9"
    },
    {
        "country": "NL",
        "name": "Tubbergen",
        "lat": "52.4075",
        "lng": "6.78472"
    },
    {
        "country": "NL",
        "name": "Tricht",
        "lat": "51.89083",
        "lng": "5.26806"
    },
    {
        "country": "NL",
        "name": "Tongelre",
        "lat": "51.44889",
        "lng": "5.51978"
    },
    {
        "country": "NL",
        "name": "Tolkamer",
        "lat": "51.855",
        "lng": "6.10278"
    },
    {
        "country": "NL",
        "name": "Tivoli",
        "lat": "51.42069",
        "lng": "5.50818"
    },
    {
        "country": "NL",
        "name": "Tinga",
        "lat": "53.02064",
        "lng": "5.64575"
    },
    {
        "country": "NL",
        "name": "Tilburg",
        "lat": "51.55551",
        "lng": "5.0913"
    },
    {
        "country": "NL",
        "name": "Tijnje",
        "lat": "53.03058",
        "lng": "5.99193"
    },
    {
        "country": "NL",
        "name": "Tytsjerk",
        "lat": "53.21343",
        "lng": "5.90961"
    },
    {
        "country": "NL",
        "name": "Tienray",
        "lat": "51.495",
        "lng": "6.09306"
    },
    {
        "country": "NL",
        "name": "Tiel",
        "lat": "51.88667",
        "lng": "5.42917"
    },
    {
        "country": "NL",
        "name": "Thorn",
        "lat": "51.16167",
        "lng": "5.84167"
    },
    {
        "country": "NL",
        "name": "Tholen",
        "lat": "51.53167",
        "lng": "4.22083"
    },
    {
        "country": "NL",
        "name": "'t Hofke",
        "lat": "51.44943",
        "lng": "5.51926"
    },
    {
        "country": "NL",
        "name": "Theereheide",
        "lat": "51.63843",
        "lng": "5.33729"
    },
    {
        "country": "NL",
        "name": "Teteringen",
        "lat": "51.60917",
        "lng": "4.82083"
    },
    {
        "country": "NL",
        "name": "Terwolde",
        "lat": "52.28333",
        "lng": "6.1"
    },
    {
        "country": "NL",
        "name": "Terwinselen",
        "lat": "50.86659",
        "lng": "6.02471"
    },
    {
        "country": "NL",
        "name": "Terschuur",
        "lat": "52.165",
        "lng": "5.51667"
    },
    {
        "country": "NL",
        "name": "Terneuzen",
        "lat": "51.33583",
        "lng": "3.82778"
    },
    {
        "country": "NL",
        "name": "Ternaard",
        "lat": "53.38203",
        "lng": "5.96523"
    },
    {
        "country": "NL",
        "name": "Terheijden",
        "lat": "51.64333",
        "lng": "4.75417"
    },
    {
        "country": "NL",
        "name": "Terbregge",
        "lat": "51.95328",
        "lng": "4.51537"
    },
    {
        "country": "NL",
        "name": "Terborg",
        "lat": "51.92",
        "lng": "6.35417"
    },
    {
        "country": "NL",
        "name": "Ter Apel",
        "lat": "52.87667",
        "lng": "7.05972"
    },
    {
        "country": "NL",
        "name": "Ten Boer",
        "lat": "53.27583",
        "lng": "6.69444"
    },
    {
        "country": "NL",
        "name": "Tegelen",
        "lat": "51.34417",
        "lng": "6.13611"
    },
    {
        "country": "NL",
        "name": "Surhuisterveen",
        "lat": "53.18477",
        "lng": "6.17031"
    },
    {
        "country": "NL",
        "name": "Strijp",
        "lat": "52.03083",
        "lng": "4.30139"
    },
    {
        "country": "NL",
        "name": "Strijen",
        "lat": "51.74521",
        "lng": "4.55083"
    },
    {
        "country": "NL",
        "name": "Stramproy",
        "lat": "51.19417",
        "lng": "5.71944"
    },
    {
        "country": "NL",
        "name": "Stompetoren",
        "lat": "52.61333",
        "lng": "4.82083"
    },
    {
        "country": "NL",
        "name": "Stolwijk",
        "lat": "51.9725",
        "lng": "4.77361"
    },
    {
        "country": "NL",
        "name": "Stiens",
        "lat": "53.26234",
        "lng": "5.75769"
    },
    {
        "country": "NL",
        "name": "Stepekolk",
        "lat": "51.455",
        "lng": "5.61251"
    },
    {
        "country": "NL",
        "name": "Stein",
        "lat": "52.00333",
        "lng": "4.78194"
    },
    {
        "country": "NL",
        "name": "Stein",
        "lat": "50.96917",
        "lng": "5.76667"
    },
    {
        "country": "NL",
        "name": "Stegeslag",
        "lat": "51.94151",
        "lng": "6.06194"
    },
    {
        "country": "NL",
        "name": "Steenwijkerwold",
        "lat": "52.80417",
        "lng": "6.06389"
    },
    {
        "country": "NL",
        "name": "Steenwijk",
        "lat": "52.7875",
        "lng": "6.12083"
    },
    {
        "country": "NL",
        "name": "Steensel",
        "lat": "51.37667",
        "lng": "5.35278"
    },
    {
        "country": "NL",
        "name": "Steenderen",
        "lat": "52.06417",
        "lng": "6.1875"
    },
    {
        "country": "NL",
        "name": "Steenbergen",
        "lat": "51.58417",
        "lng": "4.31944"
    },
    {
        "country": "NL",
        "name": "Stavenisse",
        "lat": "51.5875",
        "lng": "4.0125"
    },
    {
        "country": "NL",
        "name": "Statenkwartier",
        "lat": "52.09311",
        "lng": "4.27577"
    },
    {
        "country": "NL",
        "name": "Staphorst",
        "lat": "52.645",
        "lng": "6.21111"
    },
    {
        "country": "NL",
        "name": "Standdaarbuiten",
        "lat": "51.61333",
        "lng": "4.51389"
    },
    {
        "country": "NL",
        "name": "Stampersgat",
        "lat": "51.61333",
        "lng": "4.44444"
    },
    {
        "country": "NL",
        "name": "Stadskanaal",
        "lat": "52.98947",
        "lng": "6.9504"
    },
    {
        "country": "NL",
        "name": "Stadsfenne",
        "lat": "53.03987",
        "lng": "5.67844"
    },
    {
        "country": "NL",
        "name": "Stadbroek",
        "lat": "51.00187",
        "lng": "5.87656"
    },
    {
        "country": "NL",
        "name": "Sprundel",
        "lat": "51.5375",
        "lng": "4.59722"
    },
    {
        "country": "NL",
        "name": "Spoorwijk",
        "lat": "52.05347",
        "lng": "4.31339"
    },
    {
        "country": "NL",
        "name": "Spijkenisse",
        "lat": "51.845",
        "lng": "4.32917"
    },
    {
        "country": "NL",
        "name": "Spijk",
        "lat": "53.39",
        "lng": "6.8375"
    },
    {
        "country": "NL",
        "name": "Spierdijk",
        "lat": "52.65083",
        "lng": "4.94306"
    },
    {
        "country": "NL",
        "name": "Spekholzerheide",
        "lat": "50.85559",
        "lng": "6.02471"
    },
    {
        "country": "NL",
        "name": "Spaubeek",
        "lat": "50.94",
        "lng": "5.84306"
    },
    {
        "country": "NL",
        "name": "Spangen",
        "lat": "51.91688",
        "lng": "4.43539"
    },
    {
        "country": "NL",
        "name": "Spakenburg",
        "lat": "52.25",
        "lng": "5.36667"
    },
    {
        "country": "NL",
        "name": "Son",
        "lat": "51.51136",
        "lng": "5.49282"
    },
    {
        "country": "NL",
        "name": "Someren-Eind",
        "lat": "51.3575",
        "lng": "5.73333"
    },
    {
        "country": "NL",
        "name": "Someren",
        "lat": "51.385",
        "lng": "5.71111"
    },
    {
        "country": "NL",
        "name": "Soestdijk",
        "lat": "52.19083",
        "lng": "5.28472"
    },
    {
        "country": "NL",
        "name": "Soest",
        "lat": "52.17333",
        "lng": "5.29167"
    },
    {
        "country": "NL",
        "name": "Soerendonk",
        "lat": "51.30083",
        "lng": "5.575"
    },
    {
        "country": "NL",
        "name": "Sneek",
        "lat": "53.03297",
        "lng": "5.6589"
    },
    {
        "country": "NL",
        "name": "Sluiskil",
        "lat": "51.27833",
        "lng": "3.83611"
    },
    {
        "country": "NL",
        "name": "Sluis",
        "lat": "51.30833",
        "lng": "3.38611"
    },
    {
        "country": "NL",
        "name": "Slootdorp",
        "lat": "52.8425",
        "lng": "4.97222"
    },
    {
        "country": "NL",
        "name": "Slochteren",
        "lat": "53.22078",
        "lng": "6.80547"
    },
    {
        "country": "NL",
        "name": "Slikkerveer",
        "lat": "51.88531",
        "lng": "4.60494"
    },
    {
        "country": "NL",
        "name": "Sliedrecht",
        "lat": "51.82083",
        "lng": "4.77639"
    },
    {
        "country": "NL",
        "name": "Sleen",
        "lat": "52.77167",
        "lng": "6.80278"
    },
    {
        "country": "NL",
        "name": "Sittard",
        "lat": "50.99833",
        "lng": "5.86944"
    },
    {
        "country": "NL",
        "name": "Sint Willebrord",
        "lat": "51.54833",
        "lng": "4.58889"
    },
    {
        "country": "NL",
        "name": "Sint Philipsland",
        "lat": "51.61667",
        "lng": "4.16528"
    },
    {
        "country": "NL",
        "name": "Sint Pancras",
        "lat": "52.66",
        "lng": "4.78333"
    },
    {
        "country": "NL",
        "name": "Sint-Oedenrode",
        "lat": "51.5675",
        "lng": "5.45972"
    },
    {
        "country": "NL",
        "name": "Sint Odili\u00ebnberg",
        "lat": "51.14333",
        "lng": "6"
    },
    {
        "country": "NL",
        "name": "Sint Nicolaasga",
        "lat": "52.92293",
        "lng": "5.74242"
    },
    {
        "country": "NL",
        "name": "Sint-Michielsgestel",
        "lat": "51.64167",
        "lng": "5.35278"
    },
    {
        "country": "NL",
        "name": "Sint Laurens",
        "lat": "51.5275",
        "lng": "3.60278"
    },
    {
        "country": "NL",
        "name": "Sint Joost",
        "lat": "51.1175",
        "lng": "5.89861"
    },
    {
        "country": "NL",
        "name": "Sintjohannesga",
        "lat": "52.93157",
        "lng": "5.85588"
    },
    {
        "country": "NL",
        "name": "Sint Jansklooster",
        "lat": "52.6775",
        "lng": "6.00556"
    },
    {
        "country": "NL",
        "name": "Sint Jacobiparochie",
        "lat": "53.27291",
        "lng": "5.60354"
    },
    {
        "country": "NL",
        "name": "Sint Anthonis",
        "lat": "51.62667",
        "lng": "5.88194"
    },
    {
        "country": "NL",
        "name": "Sint Annaparochie",
        "lat": "53.2762",
        "lng": "5.65727"
    },
    {
        "country": "NL",
        "name": "Simpelveld",
        "lat": "50.83417",
        "lng": "5.98194"
    },
    {
        "country": "NL",
        "name": "Silvolde",
        "lat": "51.90917",
        "lng": "6.3875"
    },
    {
        "country": "NL",
        "name": "Siddeburen",
        "lat": "53.25",
        "lng": "6.86806"
    },
    {
        "country": "NL",
        "name": "Sibbe",
        "lat": "50.84417",
        "lng": "5.82639"
    },
    {
        "country": "NL",
        "name": "'s-Hertogenbosch",
        "lat": "51.69917",
        "lng": "5.30417"
    },
    {
        "country": "NL",
        "name": "'s-Heerenberg",
        "lat": "51.8767",
        "lng": "6.25877"
    },
    {
        "country": "NL",
        "name": "'s-Gravenzande",
        "lat": "52.00167",
        "lng": "4.16528"
    },
    {
        "country": "NL",
        "name": "'s Gravenmoer",
        "lat": "51.65594",
        "lng": "4.94076"
    },
    {
        "country": "NL",
        "name": "The Hague",
        "lat": "52.07667",
        "lng": "4.29861"
    },
    {
        "country": "NL",
        "name": "Sexbierum",
        "lat": "53.21823",
        "lng": "5.48402"
    },
    {
        "country": "NL",
        "name": "Sevenum",
        "lat": "51.4125",
        "lng": "6.0375"
    },
    {
        "country": "NL",
        "name": "Serooskerke",
        "lat": "51.54833",
        "lng": "3.59444"
    },
    {
        "country": "NL",
        "name": "Selwerd",
        "lat": "53.2352",
        "lng": "6.5545"
    },
    {
        "country": "NL",
        "name": "Sellingen",
        "lat": "52.94583",
        "lng": "7.15139"
    },
    {
        "country": "NL",
        "name": "Schutsboom",
        "lat": "51.46152",
        "lng": "5.6226"
    },
    {
        "country": "NL",
        "name": "Schoonrewoerd",
        "lat": "51.92083",
        "lng": "5.11667"
    },
    {
        "country": "NL",
        "name": "Schoonoord",
        "lat": "52.84583",
        "lng": "6.75556"
    },
    {
        "country": "NL",
        "name": "Schoonhoven",
        "lat": "51.9475",
        "lng": "4.84861"
    },
    {
        "country": "NL",
        "name": "Schoonebeek",
        "lat": "52.6625",
        "lng": "6.88472"
    },
    {
        "country": "NL",
        "name": "Schoondijke",
        "lat": "51.35417",
        "lng": "3.55556"
    },
    {
        "country": "NL",
        "name": "Schipluiden",
        "lat": "51.97583",
        "lng": "4.31389"
    },
    {
        "country": "NL",
        "name": "Schinveld",
        "lat": "50.96917",
        "lng": "5.97917"
    },
    {
        "country": "NL",
        "name": "Schinnen",
        "lat": "50.94333",
        "lng": "5.88889"
    },
    {
        "country": "NL",
        "name": "Schimmert",
        "lat": "50.90667",
        "lng": "5.82361"
    },
    {
        "country": "NL",
        "name": "Schildwolde",
        "lat": "53.23327",
        "lng": "6.81566"
    },
    {
        "country": "NL",
        "name": "Schilberg",
        "lat": "51.09917",
        "lng": "5.88611"
    },
    {
        "country": "NL",
        "name": "Schijndel",
        "lat": "51.6225",
        "lng": "5.43194"
    },
    {
        "country": "NL",
        "name": "Schiermonnikoog",
        "lat": "53.48025",
        "lng": "6.15209"
    },
    {
        "country": "NL",
        "name": "Schiedam",
        "lat": "51.91917",
        "lng": "4.38889"
    },
    {
        "country": "NL",
        "name": "Schiebroek",
        "lat": "51.95838",
        "lng": "4.47124"
    },
    {
        "country": "NL",
        "name": "Scheveningen",
        "lat": "52.10461",
        "lng": "4.27557"
    },
    {
        "country": "NL",
        "name": "Scherpenzeel",
        "lat": "52.08",
        "lng": "5.48889"
    },
    {
        "country": "NL",
        "name": "Scherpenisse",
        "lat": "51.54667",
        "lng": "4.10556"
    },
    {
        "country": "NL",
        "name": "Schermerhorn",
        "lat": "52.60083",
        "lng": "4.89167"
    },
    {
        "country": "NL",
        "name": "Schelluinen",
        "lat": "51.84333",
        "lng": "4.92639"
    },
    {
        "country": "NL",
        "name": "Scheemda",
        "lat": "53.17333",
        "lng": "6.97222"
    },
    {
        "country": "NL",
        "name": "Scharnegoutum",
        "lat": "53.06051",
        "lng": "5.67822"
    },
    {
        "country": "NL",
        "name": "Scharn",
        "lat": "50.85",
        "lng": "5.73333"
    },
    {
        "country": "NL",
        "name": "Scharendijke",
        "lat": "51.73583",
        "lng": "3.84306"
    },
    {
        "country": "NL",
        "name": "Schalkhaar",
        "lat": "52.26833",
        "lng": "6.19444"
    },
    {
        "country": "NL",
        "name": "Schaijk",
        "lat": "51.74583",
        "lng": "5.63194"
    },
    {
        "country": "NL",
        "name": "Schagerbrug",
        "lat": "52.8025",
        "lng": "4.75833"
    },
    {
        "country": "NL",
        "name": "Schagen",
        "lat": "52.7875",
        "lng": "4.79861"
    },
    {
        "country": "NL",
        "name": "Sas van Gent",
        "lat": "51.2275",
        "lng": "3.79861"
    },
    {
        "country": "NL",
        "name": "Sassenheim",
        "lat": "52.225",
        "lng": "4.52222"
    },
    {
        "country": "NL",
        "name": "Sappemeer",
        "lat": "53.16417",
        "lng": "6.79028"
    },
    {
        "country": "NL",
        "name": "Ruurlo",
        "lat": "52.08833",
        "lng": "6.45"
    },
    {
        "country": "NL",
        "name": "Ruinerwold",
        "lat": "52.72333",
        "lng": "6.24861"
    },
    {
        "country": "NL",
        "name": "Ruinen",
        "lat": "52.7625",
        "lng": "6.35417"
    },
    {
        "country": "NL",
        "name": "Rugge",
        "lat": "51.89921",
        "lng": "4.15231"
    },
    {
        "country": "NL",
        "name": "Rucphen",
        "lat": "51.53167",
        "lng": "4.55833"
    },
    {
        "country": "NL",
        "name": "Rozendaal",
        "lat": "52.00583",
        "lng": "5.9625"
    },
    {
        "country": "NL",
        "name": "Rozenburg",
        "lat": "51.90417",
        "lng": "4.24861"
    },
    {
        "country": "NL",
        "name": "Rottevalle",
        "lat": "53.14523",
        "lng": "6.10411"
    },
    {
        "country": "NL",
        "name": "Rotterdam",
        "lat": "51.9225",
        "lng": "4.47917"
    },
    {
        "country": "NL",
        "name": "Rothem",
        "lat": "50.87667",
        "lng": "5.73889"
    },
    {
        "country": "NL",
        "name": "Rossum",
        "lat": "52.35167",
        "lng": "6.92222"
    },
    {
        "country": "NL",
        "name": "Rossum",
        "lat": "51.80083",
        "lng": "5.33333"
    },
    {
        "country": "NL",
        "name": "Roosteren",
        "lat": "51.08333",
        "lng": "5.81806"
    },
    {
        "country": "NL",
        "name": "Roosendaal",
        "lat": "51.53083",
        "lng": "4.46528"
    },
    {
        "country": "NL",
        "name": "Rolde",
        "lat": "52.98417",
        "lng": "6.64861"
    },
    {
        "country": "NL",
        "name": "Roermond",
        "lat": "51.19417",
        "lng": "5.9875"
    },
    {
        "country": "NL",
        "name": "Roelofarendsveen",
        "lat": "52.20333",
        "lng": "4.63333"
    },
    {
        "country": "NL",
        "name": "Roden",
        "lat": "53.1375",
        "lng": "6.42083"
    },
    {
        "country": "NL",
        "name": "Rockanje",
        "lat": "51.87167",
        "lng": "4.07083"
    },
    {
        "country": "NL",
        "name": "Rijswijk",
        "lat": "52.03634",
        "lng": "4.32501"
    },
    {
        "country": "NL",
        "name": "Rijswijk",
        "lat": "51.7975",
        "lng": "5.025"
    },
    {
        "country": "NL",
        "name": "Rijsoord",
        "lat": "51.85083",
        "lng": "4.59583"
    },
    {
        "country": "NL",
        "name": "Rijsbergen",
        "lat": "51.5175",
        "lng": "4.69722"
    },
    {
        "country": "NL",
        "name": "Rijpwetering",
        "lat": "52.1925",
        "lng": "4.58333"
    },
    {
        "country": "NL",
        "name": "Rijnsburg",
        "lat": "52.19",
        "lng": "4.44167"
    },
    {
        "country": "NL",
        "name": "Rijnsaterwoude",
        "lat": "52.19583",
        "lng": "4.67083"
    },
    {
        "country": "NL",
        "name": "Rijen",
        "lat": "51.59083",
        "lng": "4.91944"
    },
    {
        "country": "NL",
        "name": "Riethoven",
        "lat": "51.35417",
        "lng": "5.3875"
    },
    {
        "country": "NL",
        "name": "Ridderkerk",
        "lat": "51.8725",
        "lng": "4.60278"
    },
    {
        "country": "NL",
        "name": "Rhoon",
        "lat": "51.8575",
        "lng": "4.42222"
    },
    {
        "country": "NL",
        "name": "Rhenen",
        "lat": "51.95917",
        "lng": "5.56806"
    },
    {
        "country": "NL",
        "name": "Rheden",
        "lat": "52.005",
        "lng": "6.02917"
    },
    {
        "country": "NL",
        "name": "Reuver",
        "lat": "51.28417",
        "lng": "6.07778"
    },
    {
        "country": "NL",
        "name": "Reusel",
        "lat": "51.3625",
        "lng": "5.16528"
    },
    {
        "country": "NL",
        "name": "Renswoude",
        "lat": "52.07333",
        "lng": "5.54028"
    },
    {
        "country": "NL",
        "name": "Renkum",
        "lat": "51.97667",
        "lng": "5.73333"
    },
    {
        "country": "NL",
        "name": "Renesse",
        "lat": "51.7325",
        "lng": "3.775"
    },
    {
        "country": "NL",
        "name": "Reeuwijk",
        "lat": "52.04667",
        "lng": "4.725"
    },
    {
        "country": "NL",
        "name": "Reek",
        "lat": "51.74583",
        "lng": "5.68194"
    },
    {
        "country": "NL",
        "name": "Ravenstein",
        "lat": "51.79667",
        "lng": "5.65"
    },
    {
        "country": "NL",
        "name": "Raamsdonksveer",
        "lat": "51.69667",
        "lng": "4.87361"
    },
    {
        "country": "NL",
        "name": "Raamsdonk",
        "lat": "51.6875",
        "lng": "4.90833"
    },
    {
        "country": "NL",
        "name": "Raam",
        "lat": "51.65967",
        "lng": "5.63637"
    },
    {
        "country": "NL",
        "name": "Raalte",
        "lat": "52.38583",
        "lng": "6.275"
    },
    {
        "country": "NL",
        "name": "Quirijnstok",
        "lat": "51.5843",
        "lng": "5.0981"
    },
    {
        "country": "NL",
        "name": "Putten",
        "lat": "52.25917",
        "lng": "5.60694"
    },
    {
        "country": "NL",
        "name": "Putte",
        "lat": "51.36",
        "lng": "4.39583"
    },
    {
        "country": "NL",
        "name": "Puth",
        "lat": "50.95417",
        "lng": "5.87361"
    },
    {
        "country": "NL",
        "name": "Purmerend",
        "lat": "52.505",
        "lng": "4.95972"
    },
    {
        "country": "NL",
        "name": "Puiflijk",
        "lat": "51.87833",
        "lng": "5.59028"
    },
    {
        "country": "NL",
        "name": "Prinsenbeek",
        "lat": "51.59833",
        "lng": "4.7125"
    },
    {
        "country": "NL",
        "name": "Princenhage",
        "lat": "51.57632",
        "lng": "4.73906"
    },
    {
        "country": "NL",
        "name": "Pottenberg",
        "lat": "50.85135",
        "lng": "5.65668"
    },
    {
        "country": "NL",
        "name": "Posterholt",
        "lat": "51.12333",
        "lng": "6.03472"
    },
    {
        "country": "NL",
        "name": "Poortvliet",
        "lat": "51.54417",
        "lng": "4.14306"
    },
    {
        "country": "NL",
        "name": "Poeldijk",
        "lat": "52.02417",
        "lng": "4.21944"
    },
    {
        "country": "NL",
        "name": "Pijnacker",
        "lat": "52.01954",
        "lng": "4.42946"
    },
    {
        "country": "NL",
        "name": "Piershil",
        "lat": "51.79333",
        "lng": "4.31389"
    },
    {
        "country": "NL",
        "name": "Pierik",
        "lat": "52.50141",
        "lng": "6.1117"
    },
    {
        "country": "NL",
        "name": "Petten",
        "lat": "52.76667",
        "lng": "4.66111"
    },
    {
        "country": "NL",
        "name": "Pernis",
        "lat": "51.88833",
        "lng": "4.38889"
    },
    {
        "country": "NL",
        "name": "Pendrecht",
        "lat": "51.87152",
        "lng": "4.46901"
    },
    {
        "country": "NL",
        "name": "Peize",
        "lat": "53.14667",
        "lng": "6.49722"
    },
    {
        "country": "NL",
        "name": "Peij",
        "lat": "51.09417",
        "lng": "5.89583"
    },
    {
        "country": "NL",
        "name": "Pathmos",
        "lat": "52.21397",
        "lng": "6.87555"
    },
    {
        "country": "NL",
        "name": "Paterswolde",
        "lat": "53.145",
        "lng": "6.56528"
    },
    {
        "country": "NL",
        "name": "Passart",
        "lat": "50.92389",
        "lng": "5.94674"
    },
    {
        "country": "NL",
        "name": "Papenveer",
        "lat": "52.185",
        "lng": "4.725"
    },
    {
        "country": "NL",
        "name": "Papendrecht",
        "lat": "51.83167",
        "lng": "4.6875"
    },
    {
        "country": "NL",
        "name": "Panningen",
        "lat": "51.32667",
        "lng": "5.97917"
    },
    {
        "country": "NL",
        "name": "Pannerden",
        "lat": "51.89083",
        "lng": "6.03889"
    },
    {
        "country": "NL",
        "name": "Palenstein",
        "lat": "52.05579",
        "lng": "4.50869"
    },
    {
        "country": "NL",
        "name": "Overveen",
        "lat": "52.39167",
        "lng": "4.61389"
    },
    {
        "country": "NL",
        "name": "Overschie",
        "lat": "51.93863",
        "lng": "4.42766"
    },
    {
        "country": "NL",
        "name": "Overloon",
        "lat": "51.57167",
        "lng": "5.94722"
    },
    {
        "country": "NL",
        "name": "Overhoven",
        "lat": "51.00869",
        "lng": "5.86628"
    },
    {
        "country": "NL",
        "name": "Overberg",
        "lat": "52.04",
        "lng": "5.49444"
    },
    {
        "country": "NL",
        "name": "Overasselt",
        "lat": "51.76",
        "lng": "5.78889"
    },
    {
        "country": "NL",
        "name": "Oud-Vossemeer",
        "lat": "51.57083",
        "lng": "4.19861"
    },
    {
        "country": "NL",
        "name": "Oud-Loosdrecht",
        "lat": "52.20667",
        "lng": "5.08056"
    },
    {
        "country": "NL",
        "name": "Oudkarspel",
        "lat": "52.71583",
        "lng": "4.80556"
    },
    {
        "country": "NL",
        "name": "Oud Gastel",
        "lat": "51.58667",
        "lng": "4.45972"
    },
    {
        "country": "NL",
        "name": "Oude Wetering",
        "lat": "52.21417",
        "lng": "4.64444"
    },
    {
        "country": "NL",
        "name": "Oudewater",
        "lat": "52.025",
        "lng": "4.86806"
    },
    {
        "country": "NL",
        "name": "Oudeschoot",
        "lat": "52.93343",
        "lng": "5.95579"
    },
    {
        "country": "NL",
        "name": "Oudeschild",
        "lat": "53.03917",
        "lng": "4.84722"
    },
    {
        "country": "NL",
        "name": "Ouderkerk aan den IJssel",
        "lat": "51.93417",
        "lng": "4.63611"
    },
    {
        "country": "NL",
        "name": "Ouderkerk aan de Amstel",
        "lat": "52.29504",
        "lng": "4.90746"
    },
    {
        "country": "NL",
        "name": "Oude Pekela",
        "lat": "53.10417",
        "lng": "7.00972"
    },
    {
        "country": "NL",
        "name": "Oudemirdum",
        "lat": "52.85019",
        "lng": "5.53544"
    },
    {
        "country": "NL",
        "name": "Oudehaske",
        "lat": "52.95709",
        "lng": "5.87095"
    },
    {
        "country": "NL",
        "name": "Oudega",
        "lat": "53.12504",
        "lng": "5.99888"
    },
    {
        "country": "NL",
        "name": "Ouddorp",
        "lat": "51.81167",
        "lng": "3.93472"
    },
    {
        "country": "NL",
        "name": "Oud-Caberg",
        "lat": "50.86539",
        "lng": "5.66444"
    },
    {
        "country": "NL",
        "name": "Oud-Beijerland",
        "lat": "51.82417",
        "lng": "4.4125"
    },
    {
        "country": "NL",
        "name": "Ottersum",
        "lat": "51.70333",
        "lng": "5.98333"
    },
    {
        "country": "NL",
        "name": "Otterlo",
        "lat": "52.1",
        "lng": "5.77222"
    },
    {
        "country": "NL",
        "name": "Othene",
        "lat": "51.33083",
        "lng": "3.85972"
    },
    {
        "country": "NL",
        "name": "Ossendrecht",
        "lat": "51.39417",
        "lng": "4.32639"
    },
    {
        "country": "NL",
        "name": "Oss",
        "lat": "51.765",
        "lng": "5.51806"
    },
    {
        "country": "NL",
        "name": "Ospel",
        "lat": "51.2975",
        "lng": "5.78472"
    },
    {
        "country": "NL",
        "name": "Orthen",
        "lat": "51.70613",
        "lng": "5.30468"
    },
    {
        "country": "NL",
        "name": "Orden",
        "lat": "52.20113",
        "lng": "5.93417"
    },
    {
        "country": "NL",
        "name": "Oranjewoud",
        "lat": "52.94579",
        "lng": "5.95038"
    },
    {
        "country": "NL",
        "name": "Opperdoes",
        "lat": "52.75915",
        "lng": "5.07534"
    },
    {
        "country": "NL",
        "name": "Oppenhuizen",
        "lat": "53.01194",
        "lng": "5.69495"
    },
    {
        "country": "NL",
        "name": "Opmeer",
        "lat": "52.70667",
        "lng": "4.94444"
    },
    {
        "country": "NL",
        "name": "Opijnen",
        "lat": "51.82917",
        "lng": "5.29861"
    },
    {
        "country": "NL",
        "name": "Ophoven",
        "lat": "50.99036",
        "lng": "5.85868"
    },
    {
        "country": "NL",
        "name": "Opheusden",
        "lat": "51.93167",
        "lng": "5.63194"
    },
    {
        "country": "NL",
        "name": "Ophemert",
        "lat": "51.845",
        "lng": "5.3875"
    },
    {
        "country": "NL",
        "name": "Opeinde",
        "lat": "53.1341",
        "lng": "6.05656"
    },
    {
        "country": "NL",
        "name": "Ooyerhoek",
        "lat": "52.12838",
        "lng": "6.22307"
    },
    {
        "country": "NL",
        "name": "Ootmarsum",
        "lat": "52.40833",
        "lng": "6.90139"
    },
    {
        "country": "NL",
        "name": "Oostvoorne",
        "lat": "51.9125",
        "lng": "4.09861"
    },
    {
        "country": "NL",
        "name": "Oost-Vlieland",
        "lat": "53.29703",
        "lng": "5.07431"
    },
    {
        "country": "NL",
        "name": "Oostrum",
        "lat": "51.52917",
        "lng": "6.01667"
    },
    {
        "country": "NL",
        "name": "Oostkapelle",
        "lat": "51.56667",
        "lng": "3.55139"
    },
    {
        "country": "NL",
        "name": "Oosthuizen",
        "lat": "52.5725",
        "lng": "4.99583"
    },
    {
        "country": "NL",
        "name": "Oosterzij",
        "lat": "52.585",
        "lng": "4.70556"
    },
    {
        "country": "NL",
        "name": "Oosterwolde",
        "lat": "52.99164",
        "lng": "6.29096"
    },
    {
        "country": "NL",
        "name": "Oosterpark",
        "lat": "53.2237",
        "lng": "6.5853"
    },
    {
        "country": "NL",
        "name": "Eastermar",
        "lat": "53.17466",
        "lng": "6.05999"
    },
    {
        "country": "NL",
        "name": "Oostermeenthe",
        "lat": "52.79319",
        "lng": "6.13138"
    },
    {
        "country": "NL",
        "name": "Oosterland",
        "lat": "51.65",
        "lng": "4.03611"
    },
    {
        "country": "NL",
        "name": "Oosterhout",
        "lat": "51.88",
        "lng": "5.82639"
    },
    {
        "country": "NL",
        "name": "Oosterhout",
        "lat": "51.645",
        "lng": "4.85972"
    },
    {
        "country": "NL",
        "name": "Oosterhoogebrug",
        "lat": "53.22892",
        "lng": "6.60141"
    },
    {
        "country": "NL",
        "name": "Oosterholt",
        "lat": "52.55917",
        "lng": "5.95556"
    },
    {
        "country": "NL",
        "name": "Oosterhesselen",
        "lat": "52.75417",
        "lng": "6.72222"
    },
    {
        "country": "NL",
        "name": "Oosterblokker",
        "lat": "52.66917",
        "lng": "5.11806"
    },
    {
        "country": "NL",
        "name": "Oosterbeek",
        "lat": "51.98583",
        "lng": "5.84583"
    },
    {
        "country": "NL",
        "name": "Oostendorp",
        "lat": "52.44722",
        "lng": "5.85443"
    },
    {
        "country": "NL",
        "name": "Oostelbeers",
        "lat": "51.47171",
        "lng": "5.26897"
    },
    {
        "country": "NL",
        "name": "Oosteinde",
        "lat": "52.27917",
        "lng": "4.79583"
    },
    {
        "country": "NL",
        "name": "Oosteind",
        "lat": "51.64418",
        "lng": "4.89784"
    },
    {
        "country": "NL",
        "name": "Oostdorp",
        "lat": "52.14994",
        "lng": "4.39319"
    },
    {
        "country": "NL",
        "name": "Oostburg",
        "lat": "51.32583",
        "lng": "3.4875"
    },
    {
        "country": "NL",
        "name": "Ooy",
        "lat": "51.91917",
        "lng": "6.05833"
    },
    {
        "country": "NL",
        "name": "Ooij",
        "lat": "51.85465",
        "lng": "5.93915"
    },
    {
        "country": "NL",
        "name": "Oog in Al",
        "lat": "52.08636",
        "lng": "5.0847"
    },
    {
        "country": "NL",
        "name": "Onstwedde",
        "lat": "53.035",
        "lng": "7.04028"
    },
    {
        "country": "NL",
        "name": "Onderdijk",
        "lat": "52.74333",
        "lng": "5.1375"
    },
    {
        "country": "NL",
        "name": "Ommoord",
        "lat": "51.95951",
        "lng": "4.54533"
    },
    {
        "country": "NL",
        "name": "Ommelanderwijk",
        "lat": "53.08917",
        "lng": "6.90556"
    },
    {
        "country": "NL",
        "name": "Olst",
        "lat": "52.3375",
        "lng": "6.10972"
    },
    {
        "country": "NL",
        "name": "Oldenzaal",
        "lat": "52.31333",
        "lng": "6.92917"
    },
    {
        "country": "NL",
        "name": "Oldemarkt",
        "lat": "52.82083",
        "lng": "5.975"
    },
    {
        "country": "NL",
        "name": "Oldehove",
        "lat": "53.30333",
        "lng": "6.39583"
    },
    {
        "country": "NL",
        "name": "Oldebroek",
        "lat": "52.445",
        "lng": "5.90139"
    },
    {
        "country": "NL",
        "name": "Aldeboarn",
        "lat": "53.05",
        "lng": "5.9"
    },
    {
        "country": "NL",
        "name": "Oldeberkoop",
        "lat": "52.93788",
        "lng": "6.13089"
    },
    {
        "country": "NL",
        "name": "Oisterwijk",
        "lat": "51.57917",
        "lng": "5.18889"
    },
    {
        "country": "NL",
        "name": "Oirschot",
        "lat": "51.505",
        "lng": "5.31389"
    },
    {
        "country": "NL",
        "name": "Oirsbeek",
        "lat": "50.95083",
        "lng": "5.90833"
    },
    {
        "country": "NL",
        "name": "Oirlo",
        "lat": "51.51167",
        "lng": "6.0375"
    },
    {
        "country": "NL",
        "name": "Offenbeek",
        "lat": "51.28225",
        "lng": "6.095"
    },
    {
        "country": "NL",
        "name": "Oerle",
        "lat": "51.42255",
        "lng": "5.37163"
    },
    {
        "country": "NL",
        "name": "Oentsjerk",
        "lat": "53.25",
        "lng": "5.9"
    },
    {
        "country": "NL",
        "name": "Oegstgeest",
        "lat": "52.18",
        "lng": "4.46944"
    },
    {
        "country": "NL",
        "name": "Odoorn",
        "lat": "52.84917",
        "lng": "6.85139"
    },
    {
        "country": "NL",
        "name": "Odiliapeel",
        "lat": "51.64333",
        "lng": "5.70556"
    },
    {
        "country": "NL",
        "name": "Odijk",
        "lat": "52.0525",
        "lng": "5.23611"
    },
    {
        "country": "NL",
        "name": "Ochten",
        "lat": "51.91",
        "lng": "5.56944"
    },
    {
        "country": "NL",
        "name": "Obergum",
        "lat": "53.33333",
        "lng": "6.51667"
    },
    {
        "country": "NL",
        "name": "Obdam",
        "lat": "52.67583",
        "lng": "4.90694"
    },
    {
        "country": "NL",
        "name": "Obbicht",
        "lat": "51.02833",
        "lng": "5.78056"
    },
    {
        "country": "NL",
        "name": "Nuth",
        "lat": "50.9175",
        "lng": "5.88611"
    },
    {
        "country": "NL",
        "name": "Nunspeet",
        "lat": "52.37917",
        "lng": "5.78611"
    },
    {
        "country": "NL",
        "name": "Numansdorp",
        "lat": "51.73167",
        "lng": "4.4375"
    },
    {
        "country": "NL",
        "name": "Nuenen",
        "lat": "51.47",
        "lng": "5.55278"
    },
    {
        "country": "NL",
        "name": "Norg",
        "lat": "53.06667",
        "lng": "6.45833"
    },
    {
        "country": "NL",
        "name": "Noordwolde",
        "lat": "52.88964",
        "lng": "6.14153"
    },
    {
        "country": "NL",
        "name": "Noordwijkerhout",
        "lat": "52.26167",
        "lng": "4.49306"
    },
    {
        "country": "NL",
        "name": "Noordwijk-Binnen",
        "lat": "52.234",
        "lng": "4.44474"
    },
    {
        "country": "NL",
        "name": "Noord-Scharwoude",
        "lat": "52.69833",
        "lng": "4.81111"
    },
    {
        "country": "NL",
        "name": "Noordhorn",
        "lat": "53.26167",
        "lng": "6.39583"
    },
    {
        "country": "NL",
        "name": "Noord-Hofland",
        "lat": "52.14059",
        "lng": "4.45864"
    },
    {
        "country": "NL",
        "name": "Noordhoek",
        "lat": "51.6425",
        "lng": "4.53194"
    },
    {
        "country": "NL",
        "name": "Noordgeest",
        "lat": "51.50917",
        "lng": "4.27917"
    },
    {
        "country": "NL",
        "name": "Noordeloos",
        "lat": "51.90333",
        "lng": "4.94167"
    },
    {
        "country": "NL",
        "name": "Noordeinde",
        "lat": "52.01667",
        "lng": "4.48333"
    },
    {
        "country": "NL",
        "name": "Noordbroek",
        "lat": "53.195",
        "lng": "6.87361"
    },
    {
        "country": "NL",
        "name": "Noardburgum",
        "lat": "53.22135",
        "lng": "6.00523"
    },
    {
        "country": "NL",
        "name": "Noordbarge",
        "lat": "52.77237",
        "lng": "6.88713"
    },
    {
        "country": "NL",
        "name": "Nistelrode",
        "lat": "51.70417",
        "lng": "5.5625"
    },
    {
        "country": "NL",
        "name": "Nispen",
        "lat": "51.48331",
        "lng": "4.46131"
    },
    {
        "country": "NL",
        "name": "Nijrees",
        "lat": "52.335",
        "lng": "6.66389"
    },
    {
        "country": "NL",
        "name": "Nijnsel",
        "lat": "51.55083",
        "lng": "5.48333"
    },
    {
        "country": "NL",
        "name": "Nijmegen",
        "lat": "51.8425",
        "lng": "5.85278"
    },
    {
        "country": "NL",
        "name": "Nijkerkerveen",
        "lat": "52.195",
        "lng": "5.46667"
    },
    {
        "country": "NL",
        "name": "Nijkerk",
        "lat": "52.22",
        "lng": "5.48611"
    },
    {
        "country": "NL",
        "name": "Nijenheim",
        "lat": "52.08689",
        "lng": "5.21852"
    },
    {
        "country": "NL",
        "name": "Nieuw-Vossemeer",
        "lat": "51.59",
        "lng": "4.21806"
    },
    {
        "country": "NL",
        "name": "Nieuwveen",
        "lat": "52.19667",
        "lng": "4.75694"
    },
    {
        "country": "NL",
        "name": "Nieuw-Roden",
        "lat": "53.13167",
        "lng": "6.39722"
    },
    {
        "country": "NL",
        "name": "Nieuwpoort",
        "lat": "51.93583",
        "lng": "4.86806"
    },
    {
        "country": "NL",
        "name": "Nieuwoord",
        "lat": "52.46667",
        "lng": "6.55"
    },
    {
        "country": "NL",
        "name": "Nieuwolda",
        "lat": "53.24417",
        "lng": "6.975"
    },
    {
        "country": "NL",
        "name": "Nieuw-Lotbroek",
        "lat": "50.91283",
        "lng": "5.92798"
    },
    {
        "country": "NL",
        "name": "Nieuw-Loosdrecht",
        "lat": "52.19917",
        "lng": "5.13889"
    },
    {
        "country": "NL",
        "name": "Nieuw-Lekkerland",
        "lat": "51.88915",
        "lng": "4.68653"
    },
    {
        "country": "NL",
        "name": "Nieuw- en Sint Joosland",
        "lat": "51.48333",
        "lng": "3.65694"
    },
    {
        "country": "NL",
        "name": "Nieuwkuijk",
        "lat": "51.69",
        "lng": "5.18194"
    },
    {
        "country": "NL",
        "name": "Nieuwkoop",
        "lat": "52.15083",
        "lng": "4.77639"
    },
    {
        "country": "NL",
        "name": "Nieuwerkerk",
        "lat": "51.65083",
        "lng": "4.00139"
    },
    {
        "country": "NL",
        "name": "Nieuwe Pekela",
        "lat": "53.07917",
        "lng": "6.96528"
    },
    {
        "country": "NL",
        "name": "Nieuwe-Niedorp",
        "lat": "52.74",
        "lng": "4.89861"
    },
    {
        "country": "NL",
        "name": "Nieuwenhoorn",
        "lat": "51.85417",
        "lng": "4.14306"
    },
    {
        "country": "NL",
        "name": "Nieuwehorne",
        "lat": "52.95113",
        "lng": "6.06342"
    },
    {
        "country": "NL",
        "name": "Nieuwegein",
        "lat": "52.02917",
        "lng": "5.08056"
    },
    {
        "country": "NL",
        "name": "Nieuwdorp",
        "lat": "50.96216",
        "lng": "5.77297"
    },
    {
        "country": "NL",
        "name": "Nieuw-Dordrecht",
        "lat": "52.74833",
        "lng": "6.96806"
    },
    {
        "country": "NL",
        "name": "Nieuw-Buinen",
        "lat": "52.9625",
        "lng": "6.95"
    },
    {
        "country": "NL",
        "name": "Nieuw-Beijerland",
        "lat": "51.8125",
        "lng": "4.34306"
    },
    {
        "country": "NL",
        "name": "Niekerk",
        "lat": "53.225",
        "lng": "6.35278"
    },
    {
        "country": "NL",
        "name": "Nes",
        "lat": "53.44502",
        "lng": "5.774"
    },
    {
        "country": "NL",
        "name": "Nes",
        "lat": "53.05207",
        "lng": "5.85223"
    },
    {
        "country": "NL",
        "name": "Neerkant",
        "lat": "51.36833",
        "lng": "5.86667"
    },
    {
        "country": "NL",
        "name": "Neerbeek",
        "lat": "50.95",
        "lng": "5.81528"
    },
    {
        "country": "NL",
        "name": "Andel",
        "lat": "51.78333",
        "lng": "5.05833"
    },
    {
        "country": "NL",
        "name": "Neede",
        "lat": "52.13417",
        "lng": "6.61389"
    },
    {
        "country": "NL",
        "name": "Nederwoud",
        "lat": "52.10083",
        "lng": "5.57083"
    },
    {
        "country": "NL",
        "name": "Nederweert",
        "lat": "51.28583",
        "lng": "5.74861"
    },
    {
        "country": "NL",
        "name": "Nederhemert-Noord",
        "lat": "51.76322",
        "lng": "5.17305"
    },
    {
        "country": "NL",
        "name": "Nederhemert",
        "lat": "51.76518",
        "lng": "5.16817"
    },
    {
        "country": "NL",
        "name": "Neder-Hardinxveld",
        "lat": "51.82879",
        "lng": "4.85489"
    },
    {
        "country": "NL",
        "name": "Naastenbest",
        "lat": "51.50484",
        "lng": "5.38579"
    },
    {
        "country": "NL",
        "name": "Naarden",
        "lat": "52.29583",
        "lng": "5.1625"
    },
    {
        "country": "NL",
        "name": "Naaldwijk",
        "lat": "51.99417",
        "lng": "4.20972"
    },
    {
        "country": "NL",
        "name": "Munstergeleen",
        "lat": "50.975",
        "lng": "5.86389"
    },
    {
        "country": "NL",
        "name": "Muiderberg",
        "lat": "52.32583",
        "lng": "5.12083"
    },
    {
        "country": "NL",
        "name": "Mook",
        "lat": "51.7525",
        "lng": "5.88194"
    },
    {
        "country": "NL",
        "name": "Montfort",
        "lat": "51.12583",
        "lng": "5.94861"
    },
    {
        "country": "NL",
        "name": "Montfoort",
        "lat": "52.04583",
        "lng": "4.95278"
    },
    {
        "country": "NL",
        "name": "Monster",
        "lat": "52.02583",
        "lng": "4.175"
    },
    {
        "country": "NL",
        "name": "Monnickendam",
        "lat": "52.45833",
        "lng": "5.0375"
    },
    {
        "country": "NL",
        "name": "Molenhoek",
        "lat": "51.71113",
        "lng": "5.36809"
    },
    {
        "country": "NL",
        "name": "Moesel",
        "lat": "51.23828",
        "lng": "5.71778"
    },
    {
        "country": "NL",
        "name": "Moerdijk",
        "lat": "51.70167",
        "lng": "4.62639"
    },
    {
        "country": "NL",
        "name": "Minnertsga",
        "lat": "53.25104",
        "lng": "5.59513"
    },
    {
        "country": "NL",
        "name": "Milsbeek",
        "lat": "51.725",
        "lng": "5.94861"
    },
    {
        "country": "NL",
        "name": "Milheeze",
        "lat": "51.50167",
        "lng": "5.77917"
    },
    {
        "country": "NL",
        "name": "Mijnsheerenland",
        "lat": "51.79667",
        "lng": "4.4875"
    },
    {
        "country": "NL",
        "name": "Mijdrecht",
        "lat": "52.20667",
        "lng": "4.8625"
    },
    {
        "country": "NL",
        "name": "Mierlo",
        "lat": "51.44",
        "lng": "5.61944"
    },
    {
        "country": "NL",
        "name": "Midwoud",
        "lat": "52.71667",
        "lng": "5.075"
    },
    {
        "country": "NL",
        "name": "Midwolda",
        "lat": "53.195",
        "lng": "7.01389"
    },
    {
        "country": "NL",
        "name": "Middenmeer",
        "lat": "52.80667",
        "lng": "4.99861"
    },
    {
        "country": "NL",
        "name": "Middenbeemster",
        "lat": "52.54917",
        "lng": "4.9125"
    },
    {
        "country": "NL",
        "name": "Middelstum",
        "lat": "53.34667",
        "lng": "6.64167"
    },
    {
        "country": "NL",
        "name": "Middelsluis",
        "lat": "51.7425",
        "lng": "4.44167"
    },
    {
        "country": "NL",
        "name": "Middelrode",
        "lat": "51.66417",
        "lng": "5.41944"
    },
    {
        "country": "NL",
        "name": "Middelharnis",
        "lat": "51.7575",
        "lng": "4.16528"
    },
    {
        "country": "NL",
        "name": "Middelburg",
        "lat": "51.5",
        "lng": "3.61389"
    },
    {
        "country": "NL",
        "name": "Middelbeers",
        "lat": "51.46667",
        "lng": "5.25"
    },
    {
        "country": "NL",
        "name": "Meteren",
        "lat": "51.865",
        "lng": "5.28333"
    },
    {
        "country": "NL",
        "name": "Merum",
        "lat": "51.17333",
        "lng": "5.95972"
    },
    {
        "country": "NL",
        "name": "Merselo",
        "lat": "51.53",
        "lng": "5.92778"
    },
    {
        "country": "NL",
        "name": "Merkelbeek",
        "lat": "50.95389",
        "lng": "5.94069"
    },
    {
        "country": "NL",
        "name": "Merenwijk",
        "lat": "52.17655",
        "lng": "4.50885"
    },
    {
        "country": "NL",
        "name": "Meppel",
        "lat": "52.69583",
        "lng": "6.19444"
    },
    {
        "country": "NL",
        "name": "Menaam",
        "lat": "53.21797",
        "lng": "5.66124"
    },
    {
        "country": "NL",
        "name": "Melle",
        "lat": "51.66244",
        "lng": "5.63367"
    },
    {
        "country": "NL",
        "name": "Meliskerke",
        "lat": "51.51417",
        "lng": "3.50972"
    },
    {
        "country": "NL",
        "name": "Melick",
        "lat": "51.15917",
        "lng": "6.01667"
    },
    {
        "country": "NL",
        "name": "Melderslo",
        "lat": "51.46167",
        "lng": "6.08611"
    },
    {
        "country": "NL",
        "name": "Mekkelholt",
        "lat": "52.23645",
        "lng": "6.89058"
    },
    {
        "country": "NL",
        "name": "Meijel",
        "lat": "51.34417",
        "lng": "5.88472"
    },
    {
        "country": "NL",
        "name": "Megen",
        "lat": "51.82167",
        "lng": "5.5625"
    },
    {
        "country": "NL",
        "name": "Meezenbroek",
        "lat": "50.8968",
        "lng": "5.99051"
    },
    {
        "country": "NL",
        "name": "Meerveldhoven",
        "lat": "51.41705",
        "lng": "5.41618"
    },
    {
        "country": "NL",
        "name": "Meerssen",
        "lat": "50.8875",
        "lng": "5.75"
    },
    {
        "country": "NL",
        "name": "Meerlo",
        "lat": "51.51333",
        "lng": "6.08472"
    },
    {
        "country": "NL",
        "name": "Meeden",
        "lat": "53.14",
        "lng": "6.92639"
    },
    {
        "country": "NL",
        "name": "Medemblik",
        "lat": "52.77167",
        "lng": "5.10556"
    },
    {
        "country": "NL",
        "name": "Mechelen",
        "lat": "50.79583",
        "lng": "5.92639"
    },
    {
        "country": "NL",
        "name": "Maurik",
        "lat": "51.96083",
        "lng": "5.42222"
    },
    {
        "country": "NL",
        "name": "Marum",
        "lat": "53.14417",
        "lng": "6.2625"
    },
    {
        "country": "NL",
        "name": "Marsum",
        "lat": "53.2105",
        "lng": "5.72637"
    },
    {
        "country": "NL",
        "name": "Marrum",
        "lat": "53.32277",
        "lng": "5.80198"
    },
    {
        "country": "NL",
        "name": "Markelo",
        "lat": "52.235",
        "lng": "6.49861"
    },
    {
        "country": "NL",
        "name": "Mariarade",
        "lat": "50.92906",
        "lng": "5.92738"
    },
    {
        "country": "NL",
        "name": "Mariahout",
        "lat": "51.54083",
        "lng": "5.57222"
    },
    {
        "country": "NL",
        "name": "Margraten",
        "lat": "50.82083",
        "lng": "5.82083"
    },
    {
        "country": "NL",
        "name": "Mantgum",
        "lat": "53.12865",
        "lng": "5.71924"
    },
    {
        "country": "NL",
        "name": "Malta",
        "lat": "51.65",
        "lng": "3.93333"
    },
    {
        "country": "NL",
        "name": "Malburgen West",
        "lat": "51.96811",
        "lng": "5.89743"
    },
    {
        "country": "NL",
        "name": "Malberg",
        "lat": "50.86244",
        "lng": "5.65419"
    },
    {
        "country": "NL",
        "name": "Makkum",
        "lat": "53.09513",
        "lng": "5.67946"
    },
    {
        "country": "NL",
        "name": "Makkum",
        "lat": "53.05458",
        "lng": "5.40231"
    },
    {
        "country": "NL",
        "name": "Magele",
        "lat": "52.46917",
        "lng": "6.52083"
    },
    {
        "country": "NL",
        "name": "Made",
        "lat": "51.67667",
        "lng": "4.79306"
    },
    {
        "country": "NL",
        "name": "Maastricht",
        "lat": "50.84833",
        "lng": "5.68889"
    },
    {
        "country": "NL",
        "name": "Maassluis",
        "lat": "51.92333",
        "lng": "4.25"
    },
    {
        "country": "NL",
        "name": "Maasland",
        "lat": "51.93417",
        "lng": "4.27222"
    },
    {
        "country": "NL",
        "name": "Maaskantje",
        "lat": "51.65833",
        "lng": "5.37083"
    },
    {
        "country": "NL",
        "name": "Maasdijk",
        "lat": "51.95917",
        "lng": "4.21389"
    },
    {
        "country": "NL",
        "name": "Maasbree",
        "lat": "51.3575",
        "lng": "6.04861"
    },
    {
        "country": "NL",
        "name": "Maasbracht",
        "lat": "51.13929",
        "lng": "5.88627"
    },
    {
        "country": "NL",
        "name": "Maartensdijk",
        "lat": "52.155",
        "lng": "5.175"
    },
    {
        "country": "NL",
        "name": "Maarssen",
        "lat": "52.13917",
        "lng": "5.04167"
    },
    {
        "country": "NL",
        "name": "Maarn",
        "lat": "52.06417",
        "lng": "5.37083"
    },
    {
        "country": "NL",
        "name": "Maarheeze",
        "lat": "51.31167",
        "lng": "5.61667"
    },
    {
        "country": "NL",
        "name": "Luyksgestel",
        "lat": "51.28917",
        "lng": "5.32361"
    },
    {
        "country": "NL",
        "name": "Lutjebroek",
        "lat": "52.6975",
        "lng": "5.20417"
    },
    {
        "country": "NL",
        "name": "Lunteren",
        "lat": "52.085",
        "lng": "5.62222"
    },
    {
        "country": "NL",
        "name": "Loven",
        "lat": "51.5648",
        "lng": "5.09748"
    },
    {
        "country": "NL",
        "name": "Lottum",
        "lat": "51.46167",
        "lng": "6.16111"
    },
    {
        "country": "NL",
        "name": "Losser",
        "lat": "52.26083",
        "lng": "7.00417"
    },
    {
        "country": "NL",
        "name": "Loppersum",
        "lat": "53.33167",
        "lng": "6.74722"
    },
    {
        "country": "NL",
        "name": "Lopik",
        "lat": "51.9725",
        "lng": "4.94861"
    },
    {
        "country": "NL",
        "name": "Loosbroek",
        "lat": "51.67833",
        "lng": "5.50694"
    },
    {
        "country": "NL",
        "name": "Loon op Zand",
        "lat": "51.6275",
        "lng": "5.075"
    },
    {
        "country": "NL",
        "name": "Lombardijen",
        "lat": "51.8738",
        "lng": "4.52192"
    },
    {
        "country": "NL",
        "name": "Loenen",
        "lat": "52.1175",
        "lng": "6.01944"
    },
    {
        "country": "NL",
        "name": "Lochem",
        "lat": "52.15917",
        "lng": "6.41111"
    },
    {
        "country": "NL",
        "name": "Lobith",
        "lat": "51.8625",
        "lng": "6.11806"
    },
    {
        "country": "NL",
        "name": "Lith",
        "lat": "51.80583",
        "lng": "5.43889"
    },
    {
        "country": "NL",
        "name": "Lisserbroek",
        "lat": "52.25667",
        "lng": "4.57222"
    },
    {
        "country": "NL",
        "name": "Lisse",
        "lat": "52.26",
        "lng": "4.55694"
    },
    {
        "country": "NL",
        "name": "Linschoten",
        "lat": "52.0625",
        "lng": "4.91528"
    },
    {
        "country": "NL",
        "name": "Linne",
        "lat": "51.155",
        "lng": "5.93889"
    },
    {
        "country": "NL",
        "name": "Lindenholt",
        "lat": "51.8327",
        "lng": "5.7934"
    },
    {
        "country": "NL",
        "name": "Lindenheuvel",
        "lat": "50.98509",
        "lng": "5.81667"
    },
    {
        "country": "NL",
        "name": "Limmel",
        "lat": "50.86718",
        "lng": "5.70719"
    },
    {
        "country": "NL",
        "name": "Limbricht",
        "lat": "51.01167",
        "lng": "5.8375"
    },
    {
        "country": "NL",
        "name": "Lievendaal",
        "lat": "51.44219",
        "lng": "5.43405"
    },
    {
        "country": "NL",
        "name": "Liesveld",
        "lat": "51.9325",
        "lng": "4.83194"
    },
    {
        "country": "NL",
        "name": "Liessel",
        "lat": "51.41333",
        "lng": "5.82083"
    },
    {
        "country": "NL",
        "name": "Lieshout",
        "lat": "51.52036",
        "lng": "5.59479"
    },
    {
        "country": "NL",
        "name": "Lierop",
        "lat": "51.41917",
        "lng": "5.67917"
    },
    {
        "country": "NL",
        "name": "Lienden",
        "lat": "51.94833",
        "lng": "5.51806"
    },
    {
        "country": "NL",
        "name": "Liempde",
        "lat": "51.56917",
        "lng": "5.37222"
    },
    {
        "country": "NL",
        "name": "Lichtenvoorde",
        "lat": "51.98667",
        "lng": "6.56667"
    },
    {
        "country": "NL",
        "name": "Lichtenberg",
        "lat": "50.9022",
        "lng": "6.02523"
    },
    {
        "country": "NL",
        "name": "Leuth",
        "lat": "51.83917",
        "lng": "5.99167"
    },
    {
        "country": "NL",
        "name": "Leusden",
        "lat": "52.1325",
        "lng": "5.43194"
    },
    {
        "country": "NL",
        "name": "Leunen",
        "lat": "51.51",
        "lng": "5.97917"
    },
    {
        "country": "NL",
        "name": "Leuken",
        "lat": "51.25288",
        "lng": "5.7346"
    },
    {
        "country": "NL",
        "name": "Lepelstraat",
        "lat": "51.54833",
        "lng": "4.27639"
    },
    {
        "country": "NL",
        "name": "Lent",
        "lat": "51.86167",
        "lng": "5.86667"
    },
    {
        "country": "NL",
        "name": "Lemmer",
        "lat": "52.84618",
        "lng": "5.70912"
    },
    {
        "country": "NL",
        "name": "Lelystad",
        "lat": "52.50833",
        "lng": "5.475"
    },
    {
        "country": "NL",
        "name": "Leimuiden",
        "lat": "52.22417",
        "lng": "4.66944"
    },
    {
        "country": "NL",
        "name": "Leiderdorp",
        "lat": "52.15833",
        "lng": "4.52917"
    },
    {
        "country": "NL",
        "name": "Leiden",
        "lat": "52.15833",
        "lng": "4.49306"
    },
    {
        "country": "NL",
        "name": "Leeuwen",
        "lat": "51.21032",
        "lng": "5.99862"
    },
    {
        "country": "NL",
        "name": "Leeuwarden",
        "lat": "53.20139",
        "lng": "5.80859"
    },
    {
        "country": "NL",
        "name": "Leesten",
        "lat": "52.1279",
        "lng": "6.23217"
    },
    {
        "country": "NL",
        "name": "Leest",
        "lat": "51.60983",
        "lng": "5.54312"
    },
    {
        "country": "NL",
        "name": "Leersum",
        "lat": "52.01167",
        "lng": "5.42778"
    },
    {
        "country": "NL",
        "name": "Leerdam",
        "lat": "51.89333",
        "lng": "5.09167"
    },
    {
        "country": "NL",
        "name": "Leens",
        "lat": "53.36",
        "lng": "6.37917"
    },
    {
        "country": "NL",
        "name": "Leende",
        "lat": "51.35083",
        "lng": "5.55417"
    },
    {
        "country": "NL",
        "name": "Leek",
        "lat": "53.1625",
        "lng": "6.37639"
    },
    {
        "country": "NL",
        "name": "Lauradorp",
        "lat": "50.91229",
        "lng": "6.04591"
    },
    {
        "country": "NL",
        "name": "Laren",
        "lat": "52.25667",
        "lng": "5.22778"
    },
    {
        "country": "NL",
        "name": "Laren",
        "lat": "52.19417",
        "lng": "6.36528"
    },
    {
        "country": "NL",
        "name": "Langweer",
        "lat": "52.95836",
        "lng": "5.72173"
    },
    {
        "country": "NL",
        "name": "Langenoord",
        "lat": "52.18768",
        "lng": "5.38034"
    },
    {
        "country": "NL",
        "name": "Langenboom",
        "lat": "51.70417",
        "lng": "5.73056"
    },
    {
        "country": "NL",
        "name": "Langeheit",
        "lat": "52.492",
        "lng": "4.75849"
    },
    {
        "country": "NL",
        "name": "Landsmeer",
        "lat": "52.43083",
        "lng": "4.91528"
    },
    {
        "country": "NL",
        "name": "Lammerenburg",
        "lat": "51.46667",
        "lng": "3.55833"
    },
    {
        "country": "NL",
        "name": "Lage Mierde",
        "lat": "51.40583",
        "lng": "5.14722"
    },
    {
        "country": "NL",
        "name": "Kwintsheul",
        "lat": "52.01333",
        "lng": "4.25556"
    },
    {
        "country": "NL",
        "name": "Kunrade",
        "lat": "50.87769",
        "lng": "5.93107"
    },
    {
        "country": "NL",
        "name": "Kudelstaart",
        "lat": "52.23417",
        "lng": "4.75139"
    },
    {
        "country": "NL",
        "name": "Kruisland",
        "lat": "51.56917",
        "lng": "4.40972"
    },
    {
        "country": "NL",
        "name": "Kruisberg",
        "lat": "50.94234",
        "lng": "5.96519"
    },
    {
        "country": "NL",
        "name": "Krooswijk",
        "lat": "51.64665",
        "lng": "4.59203"
    },
    {
        "country": "NL",
        "name": "Krimpen aan den IJssel",
        "lat": "51.91667",
        "lng": "4.60278"
    },
    {
        "country": "NL",
        "name": "Krakeel",
        "lat": "52.72339",
        "lng": "6.51146"
    },
    {
        "country": "NL",
        "name": "Koudum",
        "lat": "52.91551",
        "lng": "5.44834"
    },
    {
        "country": "NL",
        "name": "Koudekerke",
        "lat": "51.48167",
        "lng": "3.55417"
    },
    {
        "country": "NL",
        "name": "Korvel",
        "lat": "51.54954",
        "lng": "5.07079"
    },
    {
        "country": "NL",
        "name": "Kortenhoef",
        "lat": "52.23917",
        "lng": "5.10694"
    },
    {
        "country": "NL",
        "name": "Korrewegwijk",
        "lat": "53.23235",
        "lng": "6.56804"
    },
    {
        "country": "NL",
        "name": "Kootwijkerbroek",
        "lat": "52.15083",
        "lng": "5.66944"
    },
    {
        "country": "NL",
        "name": "Kootstertille",
        "lat": "53.21261",
        "lng": "6.09209"
    },
    {
        "country": "NL",
        "name": "Koningslust",
        "lat": "51.3575",
        "lng": "5.99306"
    },
    {
        "country": "NL",
        "name": "Koningsbosch",
        "lat": "51.05167",
        "lng": "5.95833"
    },
    {
        "country": "NL",
        "name": "Kollumerzwaag",
        "lat": "53.26224",
        "lng": "6.07544"
    },
    {
        "country": "NL",
        "name": "Kollum",
        "lat": "53.27695",
        "lng": "6.15293"
    },
    {
        "country": "NL",
        "name": "Koewacht",
        "lat": "51.22833",
        "lng": "3.97361"
    },
    {
        "country": "NL",
        "name": "Koekange",
        "lat": "52.69917",
        "lng": "6.31667"
    },
    {
        "country": "NL",
        "name": "Klundert",
        "lat": "51.665",
        "lng": "4.53472"
    },
    {
        "country": "NL",
        "name": "Kloetinge",
        "lat": "51.49833",
        "lng": "3.91528"
    },
    {
        "country": "NL",
        "name": "Klimmen",
        "lat": "50.87583",
        "lng": "5.88056"
    },
    {
        "country": "NL",
        "name": "Klein-Zundert",
        "lat": "51.48083",
        "lng": "4.65417"
    },
    {
        "country": "NL",
        "name": "Klein Driene",
        "lat": "52.26935",
        "lng": "6.81613"
    },
    {
        "country": "NL",
        "name": "Klazienaveen",
        "lat": "52.72417",
        "lng": "6.99028"
    },
    {
        "country": "NL",
        "name": "Klarenbeek",
        "lat": "51.50964",
        "lng": "3.61132"
    },
    {
        "country": "NL",
        "name": "Klaaswaal",
        "lat": "51.77",
        "lng": "4.44583"
    },
    {
        "country": "NL",
        "name": "Kijkduin",
        "lat": "52.06765",
        "lng": "4.22188"
    },
    {
        "country": "NL",
        "name": "Kesteren",
        "lat": "51.935",
        "lng": "5.56944"
    },
    {
        "country": "NL",
        "name": "Kessel",
        "lat": "51.29167",
        "lng": "6.05417"
    },
    {
        "country": "NL",
        "name": "Kerschoten",
        "lat": "52.23333",
        "lng": "5.96667"
    },
    {
        "country": "NL",
        "name": "Kerkrade",
        "lat": "50.86583",
        "lng": "6.0625"
    },
    {
        "country": "NL",
        "name": "Kerkelanden",
        "lat": "52.21755",
        "lng": "5.13575"
    },
    {
        "country": "NL",
        "name": "Kerkehout",
        "lat": "52.11018",
        "lng": "4.37957"
    },
    {
        "country": "NL",
        "name": "Kerkdriel",
        "lat": "51.77167",
        "lng": "5.33472"
    },
    {
        "country": "NL",
        "name": "Marken",
        "lat": "52.45833",
        "lng": "5.10278"
    },
    {
        "country": "NL",
        "name": "Kerensheide",
        "lat": "50.9721",
        "lng": "5.77666"
    },
    {
        "country": "NL",
        "name": "Kerckebosch",
        "lat": "52.07844",
        "lng": "5.26584"
    },
    {
        "country": "NL",
        "name": "Keijenborg",
        "lat": "52.02917",
        "lng": "6.29444"
    },
    {
        "country": "NL",
        "name": "Keent",
        "lat": "51.24218",
        "lng": "5.70079"
    },
    {
        "country": "NL",
        "name": "Kedichem",
        "lat": "51.86",
        "lng": "5.05"
    },
    {
        "country": "NL",
        "name": "Katwijk aan Zee",
        "lat": "52.20333",
        "lng": "4.39861"
    },
    {
        "country": "NL",
        "name": "Katwijk aan den Rijn",
        "lat": "52.19417",
        "lng": "4.42222"
    },
    {
        "country": "NL",
        "name": "Katendrecht",
        "lat": "51.90074",
        "lng": "4.48254"
    },
    {
        "country": "NL",
        "name": "Kamperland",
        "lat": "51.57167",
        "lng": "3.70417"
    },
    {
        "country": "NL",
        "name": "Kampen",
        "lat": "52.555",
        "lng": "5.91111"
    },
    {
        "country": "NL",
        "name": "Kalsdonk",
        "lat": "51.53973",
        "lng": "4.47111"
    },
    {
        "country": "NL",
        "name": "Kakert",
        "lat": "50.90414",
        "lng": "6.00463"
    },
    {
        "country": "NL",
        "name": "Kadoelen",
        "lat": "52.4175",
        "lng": "4.90561"
    },
    {
        "country": "NL",
        "name": "Kaalheide",
        "lat": "50.86505",
        "lng": "6.03643"
    },
    {
        "country": "NL",
        "name": "Joure",
        "lat": "52.9657",
        "lng": "5.80301"
    },
    {
        "country": "NL",
        "name": "Jagershoef",
        "lat": "51.4733",
        "lng": "5.4672"
    },
    {
        "country": "NL",
        "name": "Jirnsum",
        "lat": "53.07753",
        "lng": "5.79254"
    },
    {
        "country": "NL",
        "name": "Ingen",
        "lat": "51.95917",
        "lng": "5.48472"
    },
    {
        "country": "NL",
        "name": "Ilpendam",
        "lat": "52.46333",
        "lng": "4.95"
    },
    {
        "country": "NL",
        "name": "IJzendijke",
        "lat": "51.32167",
        "lng": "3.61667"
    },
    {
        "country": "NL",
        "name": "Ysselsteyn",
        "lat": "51.49",
        "lng": "5.89722"
    },
    {
        "country": "NL",
        "name": "IJsselstein",
        "lat": "52.02",
        "lng": "5.04306"
    },
    {
        "country": "NL",
        "name": "IJlst",
        "lat": "53.01009",
        "lng": "5.62312"
    },
    {
        "country": "NL",
        "name": "Husken",
        "lat": "50.89567",
        "lng": "5.95648"
    },
    {
        "country": "NL",
        "name": "Hummelo",
        "lat": "52.00417",
        "lng": "6.23333"
    },
    {
        "country": "NL",
        "name": "Hulst",
        "lat": "51.28",
        "lng": "4.05278"
    },
    {
        "country": "NL",
        "name": "Hulsberg",
        "lat": "50.88917",
        "lng": "5.85556"
    },
    {
        "country": "NL",
        "name": "Huizen",
        "lat": "52.29917",
        "lng": "5.24167"
    },
    {
        "country": "NL",
        "name": "Huizum",
        "lat": "53.1917",
        "lng": "5.81119"
    },
    {
        "country": "NL",
        "name": "Huijbergen",
        "lat": "51.4325",
        "lng": "4.37639"
    },
    {
        "country": "NL",
        "name": "Houthem",
        "lat": "50.8725",
        "lng": "5.79306"
    },
    {
        "country": "NL",
        "name": "Houten",
        "lat": "52.02833",
        "lng": "5.16806"
    },
    {
        "country": "NL",
        "name": "Horssen",
        "lat": "51.85583",
        "lng": "5.60972"
    },
    {
        "country": "NL",
        "name": "Hopel",
        "lat": "50.89245",
        "lng": "6.05046"
    },
    {
        "country": "NL",
        "name": "Hoorn",
        "lat": "52.6425",
        "lng": "5.05972"
    },
    {
        "country": "NL",
        "name": "Hoogwoud",
        "lat": "52.71583",
        "lng": "4.93889"
    },