[
    {
        "country": "SO",
        "name": "Yeed",
        "lat": "4.55",
        "lng": "43.03333"
    },
    {
        "country": "SO",
        "name": "Xuddur",
        "lat": "4.12129",
        "lng": "43.88945"
    },
    {
        "country": "SO",
        "name": "Xarardheere",
        "lat": "4.6544",
        "lng": "47.8575"
    },
    {
        "country": "SO",
        "name": "Wanlaweyn",
        "lat": "2.6185",
        "lng": "44.8938"
    },
    {
        "country": "SO",
        "name": "Waajid",
        "lat": "3.80958",
        "lng": "43.24627"
    },
    {
        "country": "SO",
        "name": "Tayeeglow",
        "lat": "4.01897",
        "lng": "44.51111"
    },
    {
        "country": "SO",
        "name": "Saacow",
        "lat": "1.62794",
        "lng": "42.44067"
    },
    {
        "country": "SO",
        "name": "Qoryooley",
        "lat": "1.78784",
        "lng": "44.52999"
    },
    {
        "country": "SO",
        "name": "Qandala",
        "lat": "11.47197",
        "lng": "49.87282"
    },
    {
        "country": "SO",
        "name": "Oodweyne",
        "lat": "9.4092",
        "lng": "45.06397"
    },
    {
        "country": "SO",
        "name": "Mogadishu",
        "lat": "2.03711",
        "lng": "45.34375"
    },
    {
        "country": "SO",
        "name": "Marka",
        "lat": "1.71594",
        "lng": "44.77166"
    },
    {
        "country": "SO",
        "name": "Mahaddayweyne",
        "lat": "2.9726",
        "lng": "45.5347"
    },
    {
        "country": "SO",
        "name": "Luuq",
        "lat": "3.80315",
        "lng": "42.54417"
    },
    {
        "country": "SO",
        "name": "Lughaye",
        "lat": "10.68573",
        "lng": "43.94397"
    },
    {
        "country": "SO",
        "name": "Las Khorey",
        "lat": "11.1595",
        "lng": "48.1967"
    },
    {
        "country": "SO",
        "name": "Kismayo",
        "lat": "-0.35817",
        "lng": "42.54536"
    },
    {
        "country": "SO",
        "name": "Jilib",
        "lat": "0.48829",
        "lng": "42.78535"
    },
    {
        "country": "SO",
        "name": "Jawhar",
        "lat": "2.78087",
        "lng": "45.50048"
    },
    {
        "country": "SO",
        "name": "Jamaame",
        "lat": "0.06968",
        "lng": "42.74497"
    },
    {
        "country": "SO",
        "name": "Jalalaqsi",
        "lat": "3.3766",
        "lng": "45.5996"
    },
    {
        "country": "SO",
        "name": "Iskushuban",
        "lat": "10.2837",
        "lng": "50.23"
    },
    {
        "country": "SO",
        "name": "Hobyo",
        "lat": "5.3505",
        "lng": "48.5268"
    },
    {
        "country": "SO",
        "name": "Hargeysa",
        "lat": "9.56",
        "lng": "44.065"
    },
    {
        "country": "SO",
        "name": "Garoowe",
        "lat": "8.40207",
        "lng": "48.48284"
    },
    {
        "country": "SO",
        "name": "Garbahaarrey",
        "lat": "3.32892",
        "lng": "42.22091"
    },
    {
        "country": "SO",
        "name": "Gaalkacyo",
        "lat": "6.76972",
        "lng": "47.43083"
    },
    {
        "country": "SO",
        "name": "Eyl",
        "lat": "7.9803",
        "lng": "49.8164"
    },
    {
        "country": "SO",
        "name": "Dujuuma",
        "lat": "1.25311",
        "lng": "42.57377"
    },
    {
        "country": "SO",
        "name": "Dhuusamarreeb",
        "lat": "5.53597",
        "lng": "46.38666"
    },
    {
        "country": "SO",
        "name": "Ceerigaabo",
        "lat": "10.61616",
        "lng": "47.36795"
    },
    {
        "country": "SO",
        "name": "Ceeldheer",
        "lat": "3.84878",
        "lng": "47.18064"
    },
    {
        "country": "SO",
        "name": "Ceelbuur",
        "lat": "4.68501",
        "lng": "46.6176"
    },
    {
        "country": "SO",
        "name": "Ceek",
        "lat": "8.99907",
        "lng": "45.35824"
    },
    {
        "country": "SO",
        "name": "Caluula",
        "lat": "11.96611",
        "lng": "50.75694"
    },
    {
        "country": "SO",
        "name": "Cadale",
        "lat": "2.7603",
        "lng": "46.3222"
    },
    {
        "country": "SO",
        "name": "Adado",
        "lat": "6.13603",
        "lng": "46.62761"
    },
    {
        "country": "SO",
        "name": "Buurhakaba",
        "lat": "2.80257",
        "lng": "44.07805"
    },
    {
        "country": "SO",
        "name": "Buur Gaabo",
        "lat": "-1.21917",
        "lng": "41.83725"
    },
    {
        "country": "SO",
        "name": "Buulobarde",
        "lat": "3.85375",
        "lng": "45.56744"
    },
    {
        "country": "SO",
        "name": "Burao",
        "lat": "9.52213",
        "lng": "45.53363"
    },
    {
        "country": "SO",
        "name": "Bu\u2019aale",
        "lat": "1.08333",
        "lng": "42.58333"
    },
    {
        "country": "SO",
        "name": "Bosaso",
        "lat": "11.28421",
        "lng": "49.18158"
    },
    {
        "country": "SO",
        "name": "Bereeda",
        "lat": "11.87037",
        "lng": "51.05795"
    },
    {
        "country": "SO",
        "name": "Berbera",
        "lat": "10.43959",
        "lng": "45.01432"
    },
    {
        "country": "SO",
        "name": "Beledweyne",
        "lat": "4.73583",
        "lng": "45.20361"
    },
    {
        "country": "SO",
        "name": "Baidoa",
        "lat": "3.11383",
        "lng": "43.6498"
    },
    {
        "country": "SO",
        "name": "Bargaal",
        "lat": "11.28636",
        "lng": "51.0773"
    },
    {
        "country": "SO",
        "name": "Bandarbeyla",
        "lat": "9.4942",
        "lng": "50.8122"
    },
    {
        "country": "SO",
        "name": "Baardheere",
        "lat": "2.34464",
        "lng": "42.27644"
    },
    {
        "country": "SO",
        "name": "Afgooye",
        "lat": "2.1381",
        "lng": "45.1212"
    },
    {
        "country": "SO",
        "name": "Laascaanood",
        "lat": "8.47738",
        "lng": "47.35971"
    },
    {
        "country": "SO",
        "name": "Baki",
        "lat": "9.89206",
        "lng": "43.38531"
    },
    {
        "country": "SO",
        "name": "Baligubadle",
        "lat": "9",
        "lng": "44.00028"
    }
]