[
    {
        "country": "TD",
        "name": "Iriba",
        "lat": "15.11667",
        "lng": "22.25"
    },
    {
        "country": "TD",
        "name": "Goz B\u00e9\u00efda",
        "lat": "13.94563",
        "lng": "20.5468"
    },
    {
        "country": "TD",
        "name": "Goz Be\u00efda",
        "lat": "12.22484",
        "lng": "21.41034"
    },
    {
        "country": "TD",
        "name": "Fada",
        "lat": "17.18535",
        "lng": "21.58114"
    },
    {
        "country": "TD",
        "name": "Biltine",
        "lat": "14.52791",
        "lng": "20.92749"
    },
    {
        "country": "TD",
        "name": "Am Timan",
        "lat": "11.0297",
        "lng": "20.2827"
    },
    {
        "country": "TD",
        "name": "Adr\u00e9",
        "lat": "13.46648",
        "lng": "22.19875"
    },
    {
        "country": "TD",
        "name": "Ab\u00e9ch\u00e9",
        "lat": "13.82916",
        "lng": "20.8324"
    },
    {
        "country": "TD",
        "name": "Sarh",
        "lat": "9.1429",
        "lng": "18.3923"
    },
    {
        "country": "TD",
        "name": "Pala",
        "lat": "9.3642",
        "lng": "14.9046"
    },
    {
        "country": "TD",
        "name": "Oum Hadjer",
        "lat": "13.2954",
        "lng": "19.6966"
    },
    {
        "country": "TD",
        "name": "Ngama",
        "lat": "11.78333",
        "lng": "17.16667"
    },
    {
        "country": "TD",
        "name": "N'Djamena",
        "lat": "12.10672",
        "lng": "15.0444"
    },
    {
        "country": "TD",
        "name": "Moussoro",
        "lat": "13.64143",
        "lng": "16.48941"
    },
    {
        "country": "TD",
        "name": "Moundou",
        "lat": "8.56667",
        "lng": "16.08333"
    },
    {
        "country": "TD",
        "name": "Mongo",
        "lat": "12.18441",
        "lng": "18.69303"
    },
    {
        "country": "TD",
        "name": "Mo\u00efssala",
        "lat": "8.3404",
        "lng": "17.7663"
    },
    {
        "country": "TD",
        "name": "Melfi",
        "lat": "11.0598",
        "lng": "17.9355"
    },
    {
        "country": "TD",
        "name": "Mboursou L\u00e9r\u00e9",
        "lat": "9.7639",
        "lng": "14.1539"
    },
    {
        "country": "TD",
        "name": "Massenya",
        "lat": "11.4039",
        "lng": "16.1705"
    },
    {
        "country": "TD",
        "name": "Massakory",
        "lat": "12.996",
        "lng": "15.72927"
    },
    {
        "country": "TD",
        "name": "Massaguet",
        "lat": "12.47554",
        "lng": "15.43647"
    },
    {
        "country": "TD",
        "name": "Mao",
        "lat": "14.12116",
        "lng": "15.3103"
    },
    {
        "country": "TD",
        "name": "La\u00ef",
        "lat": "9.3972",
        "lng": "16.30066"
    },
    {
        "country": "TD",
        "name": "Kyab\u00e9",
        "lat": "9.45149",
        "lng": "18.94493"
    },
    {
        "country": "TD",
        "name": "Koumra",
        "lat": "8.91256",
        "lng": "17.55392"
    },
    {
        "country": "TD",
        "name": "Kelo",
        "lat": "9.30859",
        "lng": "15.80658"
    },
    {
        "country": "TD",
        "name": "Guelendeng",
        "lat": "10.91762",
        "lng": "15.55011"
    },
    {
        "country": "TD",
        "name": "Gounou Gaya",
        "lat": "9.6294",
        "lng": "15.5132"
    },
    {
        "country": "TD",
        "name": "Goundi",
        "lat": "9.36267",
        "lng": "17.36597"
    },
    {
        "country": "TD",
        "name": "Faya-Largeau",
        "lat": "17.9257",
        "lng": "19.10428"
    },
    {
        "country": "TD",
        "name": "Dourbali",
        "lat": "11.80909",
        "lng": "15.86323"
    },
    {
        "country": "TD",
        "name": "Doba",
        "lat": "8.65",
        "lng": "16.85"
    },
    {
        "country": "TD",
        "name": "Bousso",
        "lat": "10.48473",
        "lng": "16.71076"
    },
    {
        "country": "TD",
        "name": "Bongor",
        "lat": "10.28056",
        "lng": "15.37222"
    },
    {
        "country": "TD",
        "name": "Bol",
        "lat": "13.45861",
        "lng": "14.71472"
    },
    {
        "country": "TD",
        "name": "Bokoro",
        "lat": "12.37813",
        "lng": "17.05876"
    },
    {
        "country": "TD",
        "name": "Bitkine",
        "lat": "11.9801",
        "lng": "18.2138"
    },
    {
        "country": "TD",
        "name": "B\u00e9r\u00e9",
        "lat": "9.3202",
        "lng": "16.1552"
    },
    {
        "country": "TD",
        "name": "Benoy",
        "lat": "8.98327",
        "lng": "16.31991"
    },
    {
        "country": "TD",
        "name": "Be\u00efnamar",
        "lat": "8.6698",
        "lng": "15.3813"
    },
    {
        "country": "TD",
        "name": "B\u00e9boto",
        "lat": "8.26681",
        "lng": "16.93898"
    },
    {
        "country": "TD",
        "name": "B\u00e9b\u00e9dja",
        "lat": "8.6761",
        "lng": "16.566"
    },
    {
        "country": "TD",
        "name": "Barda\u00ef",
        "lat": "21.35494",
        "lng": "17.00121"
    },
    {
        "country": "TD",
        "name": "Ati",
        "lat": "13.2154",
        "lng": "18.3353"
    },
    {
        "country": "TD",
        "name": "Aozou",
        "lat": "21.8375",
        "lng": "17.4275"
    },
    {
        "country": "TD",
        "name": "Am Djarass",
        "lat": "16.06589",
        "lng": "22.84308"
    }
]