[
    {
        "country": "TL",
        "name": "Viqueque",
        "lat": "-8.8575",
        "lng": "126.36472"
    },
    {
        "country": "TL",
        "name": "Suai",
        "lat": "-9.31286",
        "lng": "125.25648"
    },
    {
        "country": "TL",
        "name": "Pante Makasar",
        "lat": "-9.2",
        "lng": "124.38333"
    },
    {
        "country": "TL",
        "name": "Metinaro",
        "lat": "-8.53007",
        "lng": "125.74163"
    },
    {
        "country": "TL",
        "name": "Maubara",
        "lat": "-8.61194",
        "lng": "125.20611"
    },
    {
        "country": "TL",
        "name": "Manatuto",
        "lat": "-8.51139",
        "lng": "126.01306"
    },
    {
        "country": "TL",
        "name": "Maliana",
        "lat": "-8.99167",
        "lng": "125.21972"
    },
    {
        "country": "TL",
        "name": "Liquica",
        "lat": "-8.5875",
        "lng": "125.34194"
    },
    {
        "country": "TL",
        "name": "Dili",
        "lat": "-8.55861",
        "lng": "125.57361"
    },
    {
        "country": "TL",
        "name": "Baucau",
        "lat": "-8.47111",
        "lng": "126.45833"
    },
    {
        "country": "TL",
        "name": "Ainaro",
        "lat": "-8.99241",
        "lng": "125.50816"
    },
    {
        "country": "TL",
        "name": "Aileu",
        "lat": "-8.72806",
        "lng": "125.56639"
    },
    {
        "country": "TL",
        "name": "Same",
        "lat": "-9.00581",
        "lng": "125.64617"
    },
    {
        "country": "TL",
        "name": "Lospalos",
        "lat": "-8.51861",
        "lng": "127.0025"
    },
    {
        "country": "TL",
        "name": "Gleno",
        "lat": "-8.72389",
        "lng": "125.43611"
    },
    {
        "country": "TL",
        "name": "Venilale",
        "lat": "-8.64306",
        "lng": "126.37833"
    }
]