[
    {
        "country": "TR",
        "name": "Demre",
        "lat": "36.24444",
        "lng": "29.985"
    },
    {
        "country": "TR",
        "name": "Zeytinliova",
        "lat": "38.99118",
        "lng": "27.67635"
    },
    {
        "country": "TR",
        "name": "Zeytindag",
        "lat": "38.96722",
        "lng": "27.07222"
    },
    {
        "country": "TR",
        "name": "Zara",
        "lat": "39.89778",
        "lng": "37.75833"
    },
    {
        "country": "TR",
        "name": "Yunak",
        "lat": "38.81418",
        "lng": "31.73223"
    },
    {
        "country": "TR",
        "name": "Yumurtalik",
        "lat": "36.76863",
        "lng": "35.78938"
    },
    {
        "country": "TR",
        "name": "Y\u00fcksekova",
        "lat": "37.57362",
        "lng": "44.28716"
    },
    {
        "country": "TR",
        "name": "Salat",
        "lat": "37.84172",
        "lng": "40.8865"
    },
    {
        "country": "TR",
        "name": "Kozak",
        "lat": "39.25124",
        "lng": "27.09021"
    },
    {
        "country": "TR",
        "name": "Y\u00fccebag",
        "lat": "38.39367",
        "lng": "41.26713"
    },
    {
        "country": "TR",
        "name": "Yozgat",
        "lat": "39.82",
        "lng": "34.80444"
    },
    {
        "country": "TR",
        "name": "Yoncali",
        "lat": "39.00913",
        "lng": "38.2532"
    },
    {
        "country": "TR",
        "name": "Yolboyu",
        "lat": "37.89764",
        "lng": "40.00086"
    },
    {
        "country": "TR",
        "name": "Yolbasi",
        "lat": "37.38717",
        "lng": "41.31778"
    },
    {
        "country": "TR",
        "name": "Yolagzi",
        "lat": "37.52554",
        "lng": "41.3534"
    },
    {
        "country": "TR",
        "name": "Yildizeli",
        "lat": "39.86639",
        "lng": "36.59889"
    },
    {
        "country": "TR",
        "name": "Yigityolu",
        "lat": "35.99563",
        "lng": "36.26004"
    },
    {
        "country": "TR",
        "name": "Yigitler",
        "lat": "39.8675",
        "lng": "26.61111"
    },
    {
        "country": "TR",
        "name": "Yesilyurt",
        "lat": "38.33972",
        "lng": "28.66444"
    },
    {
        "country": "TR",
        "name": "Yesilyurt",
        "lat": "38.29602",
        "lng": "38.24526"
    },
    {
        "country": "TR",
        "name": "Yesilyurt",
        "lat": "37.19324",
        "lng": "28.27537"
    },
    {
        "country": "TR",
        "name": "Yesilyazi",
        "lat": "39.33473",
        "lng": "39.08122"
    },
    {
        "country": "TR",
        "name": "Yesilova",
        "lat": "38.4095",
        "lng": "33.83804"
    },
    {
        "country": "TR",
        "name": "Yesilova",
        "lat": "37.50806",
        "lng": "29.75472"
    },
    {
        "country": "TR",
        "name": "Yesilli",
        "lat": "37.33813",
        "lng": "40.81739"
    },
    {
        "country": "TR",
        "name": "Erzin",
        "lat": "36.95348",
        "lng": "36.19839"
    },
    {
        "country": "TR",
        "name": "Yesilhisar",
        "lat": "38.34972",
        "lng": "35.08667"
    },
    {
        "country": "TR",
        "name": "Misli",
        "lat": "38.23119",
        "lng": "34.77671"
    },
    {
        "country": "TR",
        "name": "Yesildere",
        "lat": "37.15668",
        "lng": "33.51447"
    },
    {
        "country": "TR",
        "name": "Yesilalan",
        "lat": "37.46066",
        "lng": "40.78441"
    },
    {
        "country": "TR",
        "name": "Yerk\u00f6y",
        "lat": "39.63806",
        "lng": "34.46722"
    },
    {
        "country": "TR",
        "name": "Yerkesik",
        "lat": "37.13625",
        "lng": "28.28403"
    },
    {
        "country": "TR",
        "name": "Yenisarbademli",
        "lat": "37.70778",
        "lng": "31.38639"
    },
    {
        "country": "TR",
        "name": "Yenisakran",
        "lat": "38.88639",
        "lng": "27.06694"
    },
    {
        "country": "TR",
        "name": "Yenipinar",
        "lat": "37.84291",
        "lng": "41.30137"
    },
    {
        "country": "TR",
        "name": "Yenipazar",
        "lat": "39.46361",
        "lng": "35.08306"
    },
    {
        "country": "TR",
        "name": "Yenipazar",
        "lat": "37.82332",
        "lng": "28.19573"
    },
    {
        "country": "TR",
        "name": "Yenimehmetli",
        "lat": "39.42",
        "lng": "32.16889"
    },
    {
        "country": "TR",
        "name": "Yenik\u00f6y",
        "lat": "39.77874",
        "lng": "28.00299"
    },
    {
        "country": "TR",
        "name": "Yenik\u00f6y",
        "lat": "37.88042",
        "lng": "41.05004"
    },
    {
        "country": "TR",
        "name": "Yenicekale",
        "lat": "37.59874",
        "lng": "36.63264"
    },
    {
        "country": "TR",
        "name": "Yenik\u00f6y",
        "lat": "37.27074",
        "lng": "42.42472"
    },
    {
        "country": "TR",
        "name": "Didim",
        "lat": "37.38496",
        "lng": "27.25643"
    },
    {
        "country": "TR",
        "name": "Yenifo\u00e7a",
        "lat": "38.73333",
        "lng": "26.83333"
    },
    {
        "country": "TR",
        "name": "Yenifakili",
        "lat": "39.21142",
        "lng": "35.00036"
    },
    {
        "country": "TR",
        "name": "Altpinar",
        "lat": "39.20417",
        "lng": "32.74778"
    },
    {
        "country": "TR",
        "name": "Yeniceoba",
        "lat": "38.86972",
        "lng": "32.78833"
    },
    {
        "country": "TR",
        "name": "Yenice",
        "lat": "39.93083",
        "lng": "27.25806"
    },
    {
        "country": "TR",
        "name": "Yenice",
        "lat": "39.76089",
        "lng": "28.90729"
    },
    {
        "country": "TR",
        "name": "Yenice",
        "lat": "37.82837",
        "lng": "28.57115"
    },
    {
        "country": "TR",
        "name": "Yenice",
        "lat": "36.97744",
        "lng": "35.05197"
    },
    {
        "country": "TR",
        "name": "Yenibasak",
        "lat": "38.80414",
        "lng": "40.99222"
    },
    {
        "country": "TR",
        "name": "Resadiye",
        "lat": "38.48879",
        "lng": "42.53501"
    },
    {
        "country": "TR",
        "name": "Yeditepe",
        "lat": "35.96753",
        "lng": "36.01452"
    },
    {
        "country": "TR",
        "name": "Yedisu",
        "lat": "39.43277",
        "lng": "40.53368"
    },
    {
        "country": "TR",
        "name": "Yazyurdu",
        "lat": "38.79926",
        "lng": "36.9319"
    },
    {
        "country": "TR",
        "name": "Yazihan",
        "lat": "38.59292",
        "lng": "38.17327"
    },
    {
        "country": "TR",
        "name": "Yayvantepe",
        "lat": "37.30131",
        "lng": "41.52061"
    },
    {
        "country": "TR",
        "name": "Yayli",
        "lat": "37.20293",
        "lng": "40.75375"
    },
    {
        "country": "TR",
        "name": "Yaylak",
        "lat": "37.38268",
        "lng": "38.33892"
    },
    {
        "country": "TR",
        "name": "Yayladere",
        "lat": "39.22614",
        "lng": "40.0695"
    },
    {
        "country": "TR",
        "name": "Yayladagi",
        "lat": "35.9025",
        "lng": "36.06272"
    },
    {
        "country": "TR",
        "name": "Yayla",
        "lat": "38.63092",
        "lng": "40.52793"
    },
    {
        "country": "TR",
        "name": "Yaygin",
        "lat": "38.89748",
        "lng": "41.30613"
    },
    {
        "country": "TR",
        "name": "Yavuzeli",
        "lat": "37.31772",
        "lng": "37.56824"
    },
    {
        "country": "TR",
        "name": "Yavu",
        "lat": "39.79202",
        "lng": "36.20603"
    },
    {
        "country": "TR",
        "name": "Yatagan",
        "lat": "37.34025",
        "lng": "28.14279"
    },
    {
        "country": "TR",
        "name": "Yarpuzlu",
        "lat": "38.05414",
        "lng": "38.5213"
    },
    {
        "country": "TR",
        "name": "Yarpuz",
        "lat": "37.04824",
        "lng": "36.43066"
    },
    {
        "country": "TR",
        "name": "Yarma",
        "lat": "37.81149",
        "lng": "32.88278"
    },
    {
        "country": "TR",
        "name": "Yardimci",
        "lat": "37.02091",
        "lng": "39.00533"
    },
    {
        "country": "TR",
        "name": "Yarbasan",
        "lat": "38.98889",
        "lng": "28.80806"
    },
    {
        "country": "TR",
        "name": "Yaprakbasi",
        "lat": "37.65409",
        "lng": "40.54635"
    },
    {
        "country": "TR",
        "name": "Yanarsu",
        "lat": "38.03641",
        "lng": "41.55227"
    },
    {
        "country": "TR",
        "name": "Yama\u00e7",
        "lat": "38.77623",
        "lng": "40.43894"
    },
    {
        "country": "TR",
        "name": "Yalva\u00e7",
        "lat": "38.29556",
        "lng": "31.17778"
    },
    {
        "country": "TR",
        "name": "Yalinca",
        "lat": "37.85657",
        "lng": "43.5223"
    },
    {
        "country": "TR",
        "name": "Yalikavak",
        "lat": "37.10528",
        "lng": "27.29722"
    },
    {
        "country": "TR",
        "name": "Yalih\u00fcy\u00fck",
        "lat": "37.30077",
        "lng": "32.08548"
    },
    {
        "country": "TR",
        "name": "Yalang\u00f6z",
        "lat": "36.5768",
        "lng": "36.50766"
    },
    {
        "country": "TR",
        "name": "Yakapinar",
        "lat": "36.97342",
        "lng": "35.62043"
    },
    {
        "country": "TR",
        "name": "Yakacik",
        "lat": "36.756",
        "lng": "36.21432"
    },
    {
        "country": "TR",
        "name": "Yahyali",
        "lat": "38.10228",
        "lng": "35.35704"
    },
    {
        "country": "TR",
        "name": "Yahsihan",
        "lat": "39.85028",
        "lng": "33.45294"
    },
    {
        "country": "TR",
        "name": "Yagcilar",
        "lat": "39.41712",
        "lng": "28.38109"
    },
    {
        "country": "TR",
        "name": "Viransehir",
        "lat": "37.22349",
        "lng": "39.75519"
    },
    {
        "country": "TR",
        "name": "Varto",
        "lat": "39.17375",
        "lng": "41.45402"
    },
    {
        "country": "TR",
        "name": "Van",
        "lat": "38.49457",
        "lng": "43.38323"
    },
    {
        "country": "TR",
        "name": "Uzunkuyu",
        "lat": "38.27858",
        "lng": "26.54315"
    },
    {
        "country": "TR",
        "name": "Uzunge\u00e7it",
        "lat": "37.49052",
        "lng": "42.99036"
    },
    {
        "country": "TR",
        "name": "Cimin",
        "lat": "39.70947",
        "lng": "39.70015"
    },
    {
        "country": "TR",
        "name": "\u00dcz\u00fcml\u00fc",
        "lat": "37.54057",
        "lng": "31.6038"
    },
    {
        "country": "TR",
        "name": "Yesil\u00fcz\u00fcml\u00fc",
        "lat": "36.73361",
        "lng": "29.23333"
    },
    {
        "country": "TR",
        "name": "Usak",
        "lat": "38.67351",
        "lng": "29.4058"
    },
    {
        "country": "TR",
        "name": "Urla",
        "lat": "38.32292",
        "lng": "26.76403"
    },
    {
        "country": "TR",
        "name": "\u00dcrg\u00fcp",
        "lat": "38.6296",
        "lng": "34.91199"
    },
    {
        "country": "TR",
        "name": "Sanliurfa",
        "lat": "37.16708",
        "lng": "38.79392"
    },
    {
        "country": "TR",
        "name": "Umurlu",
        "lat": "37.85003",
        "lng": "27.96275"
    },
    {
        "country": "TR",
        "name": "Umraniye",
        "lat": "39.175",
        "lng": "31.23444"
    },
    {
        "country": "TR",
        "name": "Uluyatir",
        "lat": "36.96333",
        "lng": "37.69361"
    },
    {
        "country": "TR",
        "name": "Ulukisla",
        "lat": "37.54776",
        "lng": "34.48528"
    },
    {
        "country": "TR",
        "name": "Uludere",
        "lat": "37.44074",
        "lng": "42.85236"
    },
    {
        "country": "TR",
        "name": "Arsuz",
        "lat": "36.41305",
        "lng": "35.89033"
    },
    {
        "country": "TR",
        "name": "Uluborlu",
        "lat": "38.07825",
        "lng": "30.45019"
    },
    {
        "country": "TR",
        "name": "Ulubey",
        "lat": "38.41987",
        "lng": "29.29129"
    },
    {
        "country": "TR",
        "name": "Ulas",
        "lat": "39.44492",
        "lng": "37.039"
    },
    {
        "country": "TR",
        "name": "Ula",
        "lat": "37.10491",
        "lng": "28.41667"
    },
    {
        "country": "TR",
        "name": "Kerh",
        "lat": "37.8257",
        "lng": "40.54402"
    },
    {
        "country": "TR",
        "name": "\u00dc\u00e7pinar",
        "lat": "37.13413",
        "lng": "32.26146"
    },
    {
        "country": "TR",
        "name": "Reshidi",
        "lat": "37.49471",
        "lng": "40.96806"
    },
    {
        "country": "TR",
        "name": "\u00dc\u00e7dam",
        "lat": "39.56308",
        "lng": "40.1757"
    },
    {
        "country": "TR",
        "name": "Tuzluk\u00e7u",
        "lat": "38.47778",
        "lng": "31.62639"
    },
    {
        "country": "TR",
        "name": "Melefan",
        "lat": "38.18022",
        "lng": "41.5687"
    },
    {
        "country": "TR",
        "name": "Tutak",
        "lat": "39.53854",
        "lng": "42.76587"
    },
    {
        "country": "TR",
        "name": "Tut",
        "lat": "37.79529",
        "lng": "37.9161"
    },
    {
        "country": "TR",
        "name": "Turun\u00e7ova",
        "lat": "36.36889",
        "lng": "30.1375"
    },
    {
        "country": "TR",
        "name": "T\u00fcrkoglu",
        "lat": "37.38649",
        "lng": "36.84262"
    },
    {
        "country": "TR",
        "name": "Turgutlu",
        "lat": "38.49533",
        "lng": "27.6997"
    },
    {
        "country": "TR",
        "name": "Turgut",
        "lat": "38.62694",
        "lng": "31.81083"
    },
    {
        "country": "TR",
        "name": "Turgut",
        "lat": "37.375",
        "lng": "28.03111"
    },
    {
        "country": "TR",
        "name": "Tunceli",
        "lat": "39.09921",
        "lng": "39.54351"
    },
    {
        "country": "TR",
        "name": "S\u00fctl\u00fcce",
        "lat": "39.16228",
        "lng": "39.544"
    },
    {
        "country": "TR",
        "name": "Tufanbeyli",
        "lat": "38.26333",
        "lng": "36.22056"
    },
    {
        "country": "TR",
        "name": "Torbali",
        "lat": "38.1519",
        "lng": "27.36223"
    },
    {
        "country": "TR",
        "name": "Toptepe",
        "lat": "37.26113",
        "lng": "41.24948"
    },
    {
        "country": "TR",
        "name": "Toprakkale",
        "lat": "37.06855",
        "lng": "36.14661"
    },
    {
        "country": "TR",
        "name": "Topakli",
        "lat": "39.00555",
        "lng": "34.82644"
    },
    {
        "country": "TR",
        "name": "Pinarbasi",
        "lat": "36.7034",
        "lng": "34.3627"
    },
    {
        "country": "TR",
        "name": "Tomarza",
        "lat": "38.44722",
        "lng": "35.79917"
    },
    {
        "country": "TR",
        "name": "Toklar",
        "lat": "38.41806",
        "lng": "36.015"
    },
    {
        "country": "TR",
        "name": "Tire",
        "lat": "38.08877",
        "lng": "27.73508"
    },
    {
        "country": "TR",
        "name": "Tercan",
        "lat": "39.77709",
        "lng": "40.37783"
    },
    {
        "country": "TR",
        "name": "Telminar",
        "lat": "37.11129",
        "lng": "41.38359"
    },
    {
        "country": "TR",
        "name": "Tepehan",
        "lat": "38.11788",
        "lng": "38.72622"
    },
    {
        "country": "TR",
        "name": "Tepecik\u00f6ren",
        "lat": "37.36135",
        "lng": "35.62627"
    },
    {
        "country": "TR",
        "name": "Tepecik",
        "lat": "37.82358",
        "lng": "27.87496"
    },
    {
        "country": "TR",
        "name": "Tepebasi",
        "lat": "36.66628",
        "lng": "32.72214"
    },
    {
        "country": "TR",
        "name": "Tepealti",
        "lat": "37.09595",
        "lng": "41.36834"
    },
    {
        "country": "TR",
        "name": "Tepe",
        "lat": "37.78943",
        "lng": "40.77161"
    },
    {
        "country": "TR",
        "name": "Temelli",
        "lat": "39.7275",
        "lng": "32.35528"
    },
    {
        "country": "TR",
        "name": "Tekman",
        "lat": "39.64111",
        "lng": "41.50542"
    },
    {
        "country": "TR",
        "name": "Tekirova",
        "lat": "36.5017",
        "lng": "30.52723"
    },
    {
        "country": "TR",
        "name": "Tefenni",
        "lat": "37.30968",
        "lng": "29.77538"
    },
    {
        "country": "TR",
        "name": "Tecirli",
        "lat": "37.16183",
        "lng": "36.10978"
    },
    {
        "country": "TR",
        "name": "Tavsanli",
        "lat": "39.54237",
        "lng": "29.49866"
    },
    {
        "country": "TR",
        "name": "Tavas",
        "lat": "37.57351",
        "lng": "29.07058"
    },
    {
        "country": "TR",
        "name": "Tatvan",
        "lat": "38.49221",
        "lng": "42.28269"
    },
    {
        "country": "TR",
        "name": "Tasucu",
        "lat": "36.3214",
        "lng": "33.88165"
    },
    {
        "country": "TR",
        "name": "Taspinar",
        "lat": "38.17963",
        "lng": "34.02499"
    },
    {
        "country": "TR",
        "name": "Tasli\u00e7ay",
        "lat": "39.62966",
        "lng": "43.36878"
    },
    {
        "country": "TR",
        "name": "Tasli",
        "lat": "37.98699",
        "lng": "42.1351"
    },
    {
        "country": "TR",
        "name": "Taskent",
        "lat": "36.9243",
        "lng": "32.49131"
    },
    {
        "country": "TR",
        "name": "Tasdelen",
        "lat": "38.8381",
        "lng": "38.50457"
    },
    {
        "country": "TR",
        "name": "Bakirdagi",
        "lat": "38.21597",
        "lng": "35.79021"
    },
    {
        "country": "TR",
        "name": "Tasagil",
        "lat": "36.9224",
        "lng": "31.23608"
    },
    {
        "country": "TR",
        "name": "Tarsus",
        "lat": "36.91766",
        "lng": "34.89277"
    },
    {
        "country": "TR",
        "name": "Taraksu",
        "lat": "38.15416",
        "lng": "39.14837"
    },
    {
        "country": "TR",
        "name": "Taraksu",
        "lat": "38.01667",
        "lng": "39.08333"
    },
    {
        "country": "TR",
        "name": "Tanyeri",
        "lat": "39.61137",
        "lng": "39.83151"
    },
    {
        "country": "TR",
        "name": "Tanir",
        "lat": "38.41944",
        "lng": "36.91222"
    },
    {
        "country": "TR",
        "name": "Talas",
        "lat": "38.6908",
        "lng": "35.5538"
    },
    {
        "country": "TR",
        "name": "Tahtak\u00f6pr\u00fc",
        "lat": "39.95",
        "lng": "29.65"
    },
    {
        "country": "TR",
        "name": "Tahir",
        "lat": "39.85586",
        "lng": "42.42834"
    },
    {
        "country": "TR",
        "name": "Suvarli",
        "lat": "37.53867",
        "lng": "37.6321"
    },
    {
        "country": "TR",
        "name": "Senocak",
        "lat": "37.65035",
        "lng": "40.69441"
    },
    {
        "country": "TR",
        "name": "Pavlu Cebel",
        "lat": "37.49737",
        "lng": "30.97727"
    },
    {
        "country": "TR",
        "name": "Susurluk",
        "lat": "39.91361",
        "lng": "28.15778"
    },
    {
        "country": "TR",
        "name": "Suru\u00e7",
        "lat": "36.97612",
        "lng": "38.42533"
    },
    {
        "country": "TR",
        "name": "Avine",
        "lat": "37.57373",
        "lng": "40.73252"
    },
    {
        "country": "TR",
        "name": "S\u00fcrg\u00fc",
        "lat": "38.00548",
        "lng": "37.9635"
    },
    {
        "country": "TR",
        "name": "Sulusaray",
        "lat": "39.99389",
        "lng": "36.08404"
    },
    {
        "country": "TR",
        "name": "S\u00fcl\u00fckl\u00fc",
        "lat": "38.88111",
        "lng": "32.3425"
    },
    {
        "country": "TR",
        "name": "Sulu\u00e7em",
        "lat": "39.69386",
        "lng": "43.81472"
    },
    {
        "country": "TR",
        "name": "Sultanhisar",
        "lat": "37.88989",
        "lng": "28.15436"
    },
    {
        "country": "TR",
        "name": "Sultanhani",
        "lat": "38.2471",
        "lng": "33.54961"
    },
    {
        "country": "TR",
        "name": "Sultandagi",
        "lat": "38.53111",
        "lng": "31.22806"
    },
    {
        "country": "TR",
        "name": "S\u00fcleymanli",
        "lat": "37.87264",
        "lng": "36.81714"
    },
    {
        "country": "TR",
        "name": "Sulak",
        "lat": "37.41342",
        "lng": "41.96114"
    },
    {
        "country": "TR",
        "name": "Sulak",
        "lat": "37.29458",
        "lng": "42.13637"
    },
    {
        "country": "TR",
        "name": "Suhut",
        "lat": "38.53111",
        "lng": "30.54583"
    },
    {
        "country": "TR",
        "name": "Sorgun",
        "lat": "39.81012",
        "lng": "35.18596"
    },
    {
        "country": "TR",
        "name": "Soma",
        "lat": "39.18554",
        "lng": "27.60945"
    },
    {
        "country": "TR",
        "name": "Solhan",
        "lat": "38.96525",
        "lng": "41.05443"
    },
    {
        "country": "TR",
        "name": "S\u00f6ke",
        "lat": "37.7482",
        "lng": "27.40614"
    },
    {
        "country": "TR",
        "name": "S\u00f6g\u00fctl\u00fc",
        "lat": "38.80019",
        "lng": "40.66971"
    },
    {
        "country": "TR",
        "name": "Kindirip",
        "lat": "37.44706",
        "lng": "41.21976"
    },
    {
        "country": "TR",
        "name": "S\u00f6g\u00fct",
        "lat": "40.0143",
        "lng": "30.18486"
    },
    {
        "country": "TR",
        "name": "Sivrihisar",
        "lat": "39.45037",
        "lng": "31.53409"
    },
    {
        "country": "TR",
        "name": "Sivrice",
        "lat": "38.44223",
        "lng": "39.30938"
    },
    {
        "country": "TR",
        "name": "Sivrice",
        "lat": "37.27675",
        "lng": "41.33569"
    },
    {
        "country": "TR",
        "name": "Siverek",
        "lat": "37.75503",
        "lng": "39.31667"
    },
    {
        "country": "TR",
        "name": "Sivasli",
        "lat": "38.49944",
        "lng": "29.68361"
    },
    {
        "country": "TR",
        "name": "Sivas",
        "lat": "39.74833",
        "lng": "37.01611"
    },
    {
        "country": "TR",
        "name": "Sirvan",
        "lat": "38.06251",
        "lng": "42.02517"
    },
    {
        "country": "TR",
        "name": "Tililan",
        "lat": "37.37428",
        "lng": "42.03386"
    },
    {
        "country": "TR",
        "name": "Sirnak",
        "lat": "37.51393",
        "lng": "42.45432"
    },
    {
        "country": "TR",
        "name": "Sindirgi",
        "lat": "39.24128",
        "lng": "28.17842"
    },
    {
        "country": "TR",
        "name": "Yenice",
        "lat": "39.27528",
        "lng": "32.68028"
    },
    {
        "country": "TR",
        "name": "Sincik",
        "lat": "38.03645",
        "lng": "38.61257"
    },
    {
        "country": "TR",
        "name": "Sincan",
        "lat": "39.47167",
        "lng": "37.87083"
    },
    {
        "country": "TR",
        "name": "Sinanpasa",
        "lat": "38.74444",
        "lng": "30.24278"
    },
    {
        "country": "TR",
        "name": "Sinank\u00f6y",
        "lat": "37.86166",
        "lng": "40.99283"
    },
    {
        "country": "TR",
        "name": "Simav",
        "lat": "39.0882",
        "lng": "28.97767"
    },
    {
        "country": "TR",
        "name": "Silvan",
        "lat": "38.13708",
        "lng": "41.00817"
    },
    {
        "country": "TR",
        "name": "Silopi",
        "lat": "37.24379",
        "lng": "42.46345"
    },
    {
        "country": "TR",
        "name": "Sille",
        "lat": "37.92731",
        "lng": "32.41995"
    },
    {
        "country": "TR",
        "name": "Silifke",
        "lat": "36.37778",
        "lng": "33.93444"
    },
    {
        "country": "TR",
        "name": "Siirt",
        "lat": "37.9293",
        "lng": "41.94134"
    },
    {
        "country": "TR",
        "name": "Seyitgazi",
        "lat": "39.44472",
        "lng": "30.69472"
    },
    {
        "country": "TR",
        "name": "Seyhan",
        "lat": "36.98747",
        "lng": "35.30592"
    },
    {
        "country": "TR",
        "name": "Seydisehir",
        "lat": "37.41926",
        "lng": "31.84527"
    },
    {
        "country": "TR",
        "name": "Sevin\u00e7",
        "lat": "39.78",
        "lng": "30.68889"
    },
    {
        "country": "TR",
        "name": "Servi",
        "lat": "38.57038",
        "lng": "40.32004"
    },
    {
        "country": "TR",
        "name": "Serinyol",
        "lat": "36.36139",
        "lng": "36.21361"
    },
    {
        "country": "TR",
        "name": "Serik",
        "lat": "36.91694",
        "lng": "31.09889"
    },
    {
        "country": "TR",
        "name": "Serefliko\u00e7hisar",
        "lat": "38.93925",
        "lng": "33.5386"
    },
    {
        "country": "TR",
        "name": "Senyurt",
        "lat": "37.07932",
        "lng": "40.64246"
    },
    {
        "country": "TR",
        "name": "Senoba",
        "lat": "37.46436",
        "lng": "42.72248"
    },
    {
        "country": "TR",
        "name": "Ebish",
        "lat": "37.46347",
        "lng": "41.18863"
    },
    {
        "country": "TR",
        "name": "Senk\u00f6y",
        "lat": "36.04841",
        "lng": "36.14366"
    },
    {
        "country": "TR",
        "name": "Senirkent",
        "lat": "38.10444",
        "lng": "30.54861"
    },
    {
        "country": "TR",
        "name": "Semdinli",
        "lat": "37.30514",
        "lng": "44.5742"
    },
    {
        "country": "TR",
        "name": "Selimiye",
        "lat": "37.40035",
        "lng": "27.65543"
    },
    {
        "country": "TR",
        "name": "Side",
        "lat": "36.76667",
        "lng": "31.38889"
    },
    {
        "country": "TR",
        "name": "Selendi",
        "lat": "38.74444",
        "lng": "28.86778"
    },
    {
        "country": "TR",
        "name": "Sel\u00e7uk",
        "lat": "37.95137",
        "lng": "27.36849"
    },
    {
        "country": "TR",
        "name": "Sel\u00e7ikler",
        "lat": "38.49837",
        "lng": "29.65482"
    },
    {
        "country": "TR",
        "name": "Seksen\u00f6ren",
        "lat": "36.97252",
        "lng": "39.07484"
    },
    {
        "country": "TR",
        "name": "Sekili",
        "lat": "36.97876",
        "lng": "37.67174"
    },
    {
        "country": "TR",
        "name": "Seki",
        "lat": "36.80378",
        "lng": "29.65155"
    },
    {
        "country": "TR",
        "name": "Sekerli",
        "lat": "37.5705",
        "lng": "39.3872"
    },
    {
        "country": "TR",
        "name": "Sehit Nusretbey",
        "lat": "36.84667",
        "lng": "38.73583"
    },
    {
        "country": "TR",
        "name": "Seferihisar",
        "lat": "38.1975",
        "lng": "26.83881"
    },
    {
        "country": "TR",
        "name": "Sefaatli",
        "lat": "39.5043",
        "lng": "34.7563"
    },
    {
        "country": "TR",
        "name": "Savur",
        "lat": "37.53544",
        "lng": "40.87876"
    },
    {
        "country": "TR",
        "name": "Savcili",
        "lat": "39.22889",
        "lng": "33.68139"
    },
    {
        "country": "TR",
        "name": "Kayacik",
        "lat": "38.34142",
        "lng": "40.61336"
    },
    {
        "country": "TR",
        "name": "Savastepe",
        "lat": "39.38319",
        "lng": "27.65612"
    },
    {
        "country": "TR",
        "name": "Sason",
        "lat": "38.32767",
        "lng": "41.41377"
    },
    {
        "country": "TR",
        "name": "Saruhanli",
        "lat": "38.73455",
        "lng": "27.56811"
    },
    {
        "country": "TR",
        "name": "Edremit",
        "lat": "38.42069",
        "lng": "43.25889"
    },
    {
        "country": "TR",
        "name": "Sarkisla",
        "lat": "39.35186",
        "lng": "36.40976"
    },
    {
        "country": "TR",
        "name": "Sark\u00eekaraaga\u00e7",
        "lat": "38.07944",
        "lng": "31.36639"
    },
    {
        "country": "TR",
        "name": "Sariz",
        "lat": "38.47917",
        "lng": "36.49898"
    },
    {
        "country": "TR",
        "name": "Sariyahsi",
        "lat": "38.98349",
        "lng": "33.84136"
    },
    {
        "country": "TR",
        "name": "Sariveliler",
        "lat": "36.69705",
        "lng": "32.61203"
    },
    {
        "country": "TR",
        "name": "Sarisu",
        "lat": "39.01887",
        "lng": "42.92092"
    },
    {
        "country": "TR",
        "name": "Sarioglan",
        "lat": "39.07694",
        "lng": "35.96671"
    },
    {
        "country": "TR",
        "name": "Seri",
        "lat": "37.36001",
        "lng": "41.30055"
    },
    {
        "country": "TR",
        "name": "Sarikonak",
        "lat": "38.24309",
        "lng": "41.95933"
    },
    {
        "country": "TR",
        "name": "Sarikemer",
        "lat": "37.56609",
        "lng": "27.3643"
    },
    {
        "country": "TR",
        "name": "Sarikaya",
        "lat": "39.49361",
        "lng": "35.37694"
    },
    {
        "country": "TR",
        "name": "Sarig\u00f6l",
        "lat": "38.23953",
        "lng": "28.69663"
    },
    {
        "country": "TR",
        "name": "Sari\u00e7am",
        "lat": "37.15172",
        "lng": "35.50769"
    },
    {
        "country": "TR",
        "name": "Saribeyler",
        "lat": "39.39833",
        "lng": "27.57722"
    },
    {
        "country": "TR",
        "name": "Saray\u00f6n\u00fc",
        "lat": "38.26201",
        "lng": "32.40457"
    },
    {
        "country": "TR",
        "name": "Sarayk\u00f6y",
        "lat": "37.92448",
        "lng": "28.92516"
    },
    {
        "country": "TR",
        "name": "Saraykent",
        "lat": "39.69361",
        "lng": "35.51111"
    },
    {
        "country": "TR",
        "name": "Saray",
        "lat": "38.64691",
        "lng": "44.16116"
    },
    {
        "country": "TR",
        "name": "Saphane",
        "lat": "39.0273",
        "lng": "29.22218"
    },
    {
        "country": "TR",
        "name": "Sandikli",
        "lat": "38.46472",
        "lng": "30.26946"
    },
    {
        "country": "TR",
        "name": "Sancak",
        "lat": "39.09222",
        "lng": "40.38753"
    },
    {
        "country": "TR",
        "name": "Samsat",
        "lat": "37.58194",
        "lng": "38.47417"
    },
    {
        "country": "TR",
        "name": "Samli",
        "lat": "39.81184",
        "lng": "27.84559"
    },
    {
        "country": "TR",
        "name": "Sambayat",
        "lat": "37.68441",
        "lng": "38.04676"
    },
    {
        "country": "TR",
        "name": "Samandag",
        "lat": "36.08012",
        "lng": "35.97603"
    },
    {
        "country": "TR",
        "name": "Salihli",
        "lat": "38.48258",
        "lng": "28.14774"
    },
    {
        "country": "TR",
        "name": "Salavatli",
        "lat": "37.89123",
        "lng": "28.10333"
    },
    {
        "country": "TR",
        "name": "Sak\u00e7ag\u00f6z",
        "lat": "37.17152",
        "lng": "36.91632"
    },
    {
        "country": "TR",
        "name": "Saimbeyli",
        "lat": "37.98632",
        "lng": "36.09056"
    },
    {
        "country": "TR",
        "name": "Sagkaya",
        "lat": "37.17852",
        "lng": "35.68843"
    },
    {
        "country": "TR",
        "name": "Simos",
        "lat": "38.05731",
        "lng": "42.58375"
    },
    {
        "country": "TR",
        "name": "Sabuncu",
        "lat": "39.56131",
        "lng": "30.18813"
    },
    {
        "country": "TR",
        "name": "Reyhanli",
        "lat": "36.26791",
        "lng": "36.56747"
    },
    {
        "country": "TR",
        "name": "Reis",
        "lat": "38.27139",
        "lng": "31.57139"
    },
    {
        "country": "TR",
        "name": "Refahiye",
        "lat": "39.89315",
        "lng": "38.76607"
    },
    {
        "country": "TR",
        "name": "P\u00fct\u00fcrge",
        "lat": "38.19923",
        "lng": "38.86296"
    },
    {
        "country": "TR",
        "name": "Pulumer",
        "lat": "39.48449",
        "lng": "39.89532"
    },
    {
        "country": "TR",
        "name": "Pozanti",
        "lat": "37.42778",
        "lng": "34.87167"
    },
    {
        "country": "TR",
        "name": "Poyraz",
        "lat": "38.68596",
        "lng": "39.023"
    },
    {
        "country": "TR",
        "name": "Polatli",
        "lat": "39.57715",
        "lng": "32.14132"
    },
    {
        "country": "TR",
        "name": "Razvaliny Ayinvan",
        "lat": "37.27983",
        "lng": "42.33427"
    },
    {
        "country": "TR",
        "name": "Pinarlar",
        "lat": "38.87424",
        "lng": "39.47263"
    },
    {
        "country": "TR",
        "name": "Pinardere",
        "lat": "37.47231",
        "lng": "40.83402"
    },
    {
        "country": "TR",
        "name": "Pinarbasi",
        "lat": "38.72285",
        "lng": "36.39314"
    },
    {
        "country": "TR",
        "name": "Pinarbasi",
        "lat": "37.21368",
        "lng": "41.88689"
    },
    {
        "country": "TR",
        "name": "Pervari",
        "lat": "37.93573",
        "lng": "42.54927"
    },
    {
        "country": "TR",
        "name": "Pertek",
        "lat": "38.86574",
        "lng": "39.32273"
    },
    {
        "country": "TR",
        "name": "Akpazar",
        "lat": "38.84625",
        "lng": "39.66833"
    },
    {
        "country": "TR",
        "name": "Pazaryeri",
        "lat": "39.99395",
        "lng": "29.90424"
    },
    {
        "country": "TR",
        "name": "Pazar\u00f6ren",
        "lat": "38.67389",
        "lng": "36.15944"
    },
    {
        "country": "TR",
        "name": "Pazarlar",
        "lat": "38.995",
        "lng": "29.12583"
    },
    {
        "country": "TR",
        "name": "Pazark\u00f6y",
        "lat": "39.8532",
        "lng": "27.40299"
    },
    {
        "country": "TR",
        "name": "Pazarcik",
        "lat": "37.48685",
        "lng": "37.29961"
    },
    {
        "country": "TR",
        "name": "Payallar",
        "lat": "36.6016",
        "lng": "31.85057"
    },
    {
        "country": "TR",
        "name": "Patnos",
        "lat": "39.22493",
        "lng": "42.85693"
    },
    {
        "country": "TR",
        "name": "Pasinler",
        "lat": "39.97975",
        "lng": "41.66997"
    },
    {
        "country": "TR",
        "name": "Pamuk\u00f6ren",
        "lat": "37.92317",
        "lng": "28.54175"
    },
    {
        "country": "TR",
        "name": "Pamukkale",
        "lat": "37.91644",
        "lng": "29.11729"
    },
    {
        "country": "TR",
        "name": "Palu",
        "lat": "38.69135",
        "lng": "39.91984"
    },
    {
        "country": "TR",
        "name": "Palamutlu",
        "lat": "37.89583",
        "lng": "42.2025"
    },
    {
        "country": "TR",
        "name": "\u00d6zpinar",
        "lat": "38.00478",
        "lng": "42.24386"
    },
    {
        "country": "TR",
        "name": "\u00d6zonak",
        "lat": "38.81213",
        "lng": "34.84096"
    },
    {
        "country": "TR",
        "name": "\u00d6zdere",
        "lat": "38.01611",
        "lng": "27.12806"
    },
    {
        "country": "TR",
        "name": "\u00d6zbek",
        "lat": "37.17704",
        "lng": "41.69322"
    },
    {
        "country": "TR",
        "name": "\u00d6zalp",
        "lat": "38.65455",
        "lng": "43.98869"
    },
    {
        "country": "TR",
        "name": "Oymatas",
        "lat": "37.79856",
        "lng": "41.02083"
    },
    {
        "country": "TR",
        "name": "Oyali",
        "lat": "37.22126",
        "lng": "41.73862"
    },
    {
        "country": "TR",
        "name": "Ovakisla",
        "lat": "38.81733",
        "lng": "42.31643"
    },
    {
        "country": "TR",
        "name": "Ovakent",
        "lat": "38.10722",
        "lng": "28.02111"
    },
    {
        "country": "TR",
        "name": "Ovakavagi",
        "lat": "37.71079",
        "lng": "32.93482"
    },
    {
        "country": "TR",
        "name": "Ovacik",
        "lat": "39.35259",
        "lng": "39.2089"
    },
    {
        "country": "TR",
        "name": "Ovacik",
        "lat": "37.51343",
        "lng": "38.77933"
    },
    {
        "country": "TR",
        "name": "Ovabag",
        "lat": "37.70849",
        "lng": "39.98697"
    },
    {
        "country": "TR",
        "name": "Otlukbeli",
        "lat": "39.97",
        "lng": "40.01872"
    },
    {
        "country": "TR",
        "name": "Osmanpasa",
        "lat": "39.62472",
        "lng": "34.96472"
    },
    {
        "country": "TR",
        "name": "Osmaniye",
        "lat": "37.07417",
        "lng": "36.24778"
    },
    {
        "country": "TR",
        "name": "Osmancali",
        "lat": "38.7625",
        "lng": "27.25306"
    },
    {
        "country": "TR",
        "name": "Ortak\u00f6y",
        "lat": "39.42153",
        "lng": "36.23403"
    },
    {
        "country": "TR",
        "name": "Ortak\u00f6y",
        "lat": "38.73728",
        "lng": "34.03866"
    },
    {
        "country": "TR",
        "name": "Ortak\u00f6y",
        "lat": "37.32745",
        "lng": "43.28403"
    },
    {
        "country": "TR",
        "name": "Ortak\u00f6y",
        "lat": "37.22089",
        "lng": "40.78476"
    },
    {
        "country": "TR",
        "name": "Ortaklar",
        "lat": "37.88788",
        "lng": "27.50234"
    },
    {
        "country": "TR",
        "name": "Ortyakent Yahsi",
        "lat": "37.04944",
        "lng": "27.34833"
    },
    {
        "country": "TR",
        "name": "Ortaca",
        "lat": "37.47394",
        "lng": "41.55598"
    },
    {
        "country": "TR",
        "name": "Ortaca",
        "lat": "36.83915",
        "lng": "28.76457"
    },
    {
        "country": "TR",
        "name": "Ortabag",
        "lat": "37.39671",
        "lng": "42.9101"
    },
    {
        "country": "TR",
        "name": "Orhaneli",
        "lat": "39.90333",
        "lng": "28.99056"
    },
    {
        "country": "TR",
        "name": "\u00d6rensehir",
        "lat": "38.99843",
        "lng": "36.64929"
    },
    {
        "country": "TR",
        "name": "\u00d6rencik",
        "lat": "39.2625",
        "lng": "29.54389"
    },
    {
        "country": "TR",
        "name": "\u00d6ren",
        "lat": "37.03609",
        "lng": "27.96723"
    },
    {
        "country": "TR",
        "name": "\u00d6nc\u00fcl",
        "lat": "36.71222",
        "lng": "39.02917"
    },
    {
        "country": "TR",
        "name": "\u00d6merli",
        "lat": "37.39903",
        "lng": "40.95442"
    },
    {
        "country": "TR",
        "name": "\u00d6merk\u00f6y",
        "lat": "39.83063",
        "lng": "28.06682"
    },
    {
        "country": "TR",
        "name": "Ok\u00e7ular",
        "lat": "37.74152",
        "lng": "42.44075"
    },
    {
        "country": "TR",
        "name": "Oguzeli",
        "lat": "36.96572",
        "lng": "37.51339"
    },
    {
        "country": "TR",
        "name": "Oguz",
        "lat": "39.5059",
        "lng": "38.88369"
    },
    {
        "country": "TR",
        "name": "Oguz",
        "lat": "37.81487",
        "lng": "41.37425"
    },
    {
        "country": "TR",
        "name": "Dara",
        "lat": "37.17902",
        "lng": "40.95455"
    },
    {
        "country": "TR",
        "name": "\u00d6demis",
        "lat": "38.2278",
        "lng": "27.96955"
    },
    {
        "country": "TR",
        "name": "Obruk",
        "lat": "38.18444",
        "lng": "33.18095"
    },
    {
        "country": "TR",
        "name": "Nusaybin",
        "lat": "37.07028",
        "lng": "41.21465"
    },
    {
        "country": "TR",
        "name": "Nurhak",
        "lat": "37.96366",
        "lng": "37.44047"
    },
    {
        "country": "TR",
        "name": "Nurettin",
        "lat": "39.28104",
        "lng": "42.50746"
    },
    {
        "country": "TR",
        "name": "Nurettin",
        "lat": "39.22883",
        "lng": "42.41832"
    },
    {
        "country": "TR",
        "name": "Nizip",
        "lat": "37.00972",
        "lng": "37.79417"
    },
    {
        "country": "TR",
        "name": "Nigde",
        "lat": "37.96583",
        "lng": "34.67935"
    },
    {
        "country": "TR",
        "name": "Nevsehir",
        "lat": "38.625",
        "lng": "34.71222"
    },
    {
        "country": "TR",
        "name": "Nazimiye",
        "lat": "39.17986",
        "lng": "39.82843"
    },
    {
        "country": "TR",
        "name": "Nazilli",
        "lat": "37.91631",
        "lng": "28.32225"
    },
    {
        "country": "TR",
        "name": "Demirci",
        "lat": "37.41269",
        "lng": "39.76838"
    },
    {
        "country": "TR",
        "name": "Narlidere",
        "lat": "38.2268",
        "lng": "41.89014"
    },
    {
        "country": "TR",
        "name": "Narli",
        "lat": "37.88449",
        "lng": "42.97597"
    },
    {
        "country": "TR",
        "name": "Narli",
        "lat": "37.39148",
        "lng": "37.13614"
    },
    {
        "country": "TR",
        "name": "Narince",
        "lat": "37.88253",
        "lng": "38.7592"
    },
    {
        "country": "TR",
        "name": "Mutki",
        "lat": "38.40624",
        "lng": "41.92018"
    },
    {
        "country": "TR",
        "name": "Mut",
        "lat": "36.64389",
        "lng": "33.43885"
    },
    {
        "country": "TR",
        "name": "Musabeyli",
        "lat": "39.83306",
        "lng": "34.62306"
    },
    {
        "country": "TR",
        "name": "Musabeyli",
        "lat": "36.88639",
        "lng": "36.91861"
    },
    {
        "country": "TR",
        "name": "Mus",
        "lat": "38.73163",
        "lng": "41.48482"
    },
    {
        "country": "TR",
        "name": "M\u00fcrsitpinar",
        "lat": "36.903",
        "lng": "38.34746"
    },
    {
        "country": "TR",
        "name": "Mursal",
        "lat": "39.16778",
        "lng": "37.95694"
    },
    {
        "country": "TR",
        "name": "Muratli",
        "lat": "36.96167",
        "lng": "40.10056"
    },
    {
        "country": "TR",
        "name": "Murat",
        "lat": "39.67281",
        "lng": "43.23952"
    },
    {
        "country": "TR",
        "name": "Muradiye",
        "lat": "38.98568",
        "lng": "43.7531"
    },
    {
        "country": "TR",
        "name": "Muradiye",
        "lat": "38.66025",
        "lng": "27.33836"
    },
    {
        "country": "TR",
        "name": "Muncusun",
        "lat": "38.90253",
        "lng": "35.62743"
    },
    {
        "country": "TR",
        "name": "Karaova",
        "lat": "37.10699",
        "lng": "27.66578"
    },
    {
        "country": "TR",
        "name": "Mugla",
        "lat": "37.21807",
        "lng": "28.3665"
    },
    {
        "country": "TR",
        "name": "Mucur",
        "lat": "39.06147",
        "lng": "34.38286"
    },
    {
        "country": "TR",
        "name": "Mordogan",
        "lat": "38.51648",
        "lng": "26.62447"
    },
    {
        "country": "TR",
        "name": "Elmalidere",
        "lat": "39.63721",
        "lng": "42.31996"
    },
    {
        "country": "TR",
        "name": "Mollakendi",
        "lat": "38.57735",
        "lng": "39.33292"
    },
    {
        "country": "TR",
        "name": "Minare",
        "lat": "36.93083",
        "lng": "39.00444"
    },
    {
        "country": "TR",
        "name": "Balveren",
        "lat": "37.48357",
        "lng": "42.54834"
    },
    {
        "country": "TR",
        "name": "Milas",
        "lat": "37.31639",
        "lng": "27.78389"
    },
    {
        "country": "TR",
        "name": "Mihali\u00e7cik",
        "lat": "39.86594",
        "lng": "31.49572"
    },
    {
        "country": "TR",
        "name": "Midyat",
        "lat": "37.41908",
        "lng": "41.33909"
    },
    {
        "country": "TR",
        "name": "Mezraa",
        "lat": "39.3859",
        "lng": "39.82439"
    },
    {
        "country": "TR",
        "name": "Mezraa",
        "lat": "37.66257",
        "lng": "43.18885"
    },
    {
        "country": "TR",
        "name": "Mezitli",
        "lat": "36.74541",
        "lng": "34.52256"
    },
    {
        "country": "TR",
        "name": "Meydankapi",
        "lat": "36.78278",
        "lng": "39.15833"
    },
    {
        "country": "TR",
        "name": "Meydan",
        "lat": "38.35585",
        "lng": "41.76941"
    },
    {
        "country": "TR",
        "name": "S\u00f6ylemez",
        "lat": "39.76045",
        "lng": "41.80153"
    },
    {
        "country": "TR",
        "name": "Mersin",
        "lat": "36.81196",
        "lng": "34.63886"
    },
    {
        "country": "TR",
        "name": "Mermer",
        "lat": "38.11828",
        "lng": "40.44874"
    },
    {
        "country": "TR",
        "name": "Mercimekkale",
        "lat": "38.92945",
        "lng": "41.50325"
    },
    {
        "country": "TR",
        "name": "Meram",
        "lat": "37.82985",
        "lng": "32.46777"
    },
    {
        "country": "TR",
        "name": "Menemen",
        "lat": "38.60754",
        "lng": "27.06938"
    },
    {
        "country": "TR",
        "name": "Mazidagi",
        "lat": "37.47801",
        "lng": "40.48152"
    },
    {
        "country": "TR",
        "name": "Mazgirt",
        "lat": "39.01783",
        "lng": "39.60064"
    },
    {
        "country": "TR",
        "name": "Marmaris",
        "lat": "36.855",
        "lng": "28.27417"
    },
    {
        "country": "TR",
        "name": "Mardin",
        "lat": "37.31309",
        "lng": "40.74357"
    },
    {
        "country": "TR",
        "name": "Mansurlu",
        "lat": "37.84853",
        "lng": "35.65436"
    },
    {
        "country": "TR",
        "name": "Manisa",
        "lat": "38.61202",
        "lng": "27.42647"
    },
    {
        "country": "TR",
        "name": "Manavgat",
        "lat": "36.78667",
        "lng": "31.44306"
    },
    {
        "country": "TR",
        "name": "Mamak",
        "lat": "39.94044",
        "lng": "32.91012"
    },
    {
        "country": "TR",
        "name": "Malazgirt",
        "lat": "39.1465",
        "lng": "42.53536"
    },
    {
        "country": "TR",
        "name": "Malatya",
        "lat": "38.35018",
        "lng": "38.31667"
    },
    {
        "country": "TR",
        "name": "Mahmutlar",
        "lat": "36.49463",
        "lng": "32.09085"
    },
    {
        "country": "TR",
        "name": "Mahmudiye",
        "lat": "39.49778",
        "lng": "30.98722"
    },
    {
        "country": "TR",
        "name": "Magarali",
        "lat": "36.96889",
        "lng": "38.07444"
    },
    {
        "country": "TR",
        "name": "Kirobasi",
        "lat": "36.7224",
        "lng": "33.86711"
    },
    {
        "country": "TR",
        "name": "Maden",
        "lat": "38.38669",
        "lng": "39.66408"
    },
    {
        "country": "TR",
        "name": "Lice",
        "lat": "38.45821",
        "lng": "40.63888"
    },
    {
        "country": "TR",
        "name": "Levent",
        "lat": "38.43704",
        "lng": "37.85425"
    },
    {
        "country": "TR",
        "name": "Kuzucubelen",
        "lat": "36.83996",
        "lng": "34.43765"
    },
    {
        "country": "TR",
        "name": "Kuyulusebil",
        "lat": "38.65389",
        "lng": "32.52972"
    },
    {
        "country": "TR",
        "name": "Kuyucak",
        "lat": "37.9133",
        "lng": "28.45917"
    },
    {
        "country": "TR",
        "name": "Kuyucak",
        "lat": "37.86306",
        "lng": "38.34365"
    },
    {
        "country": "TR",
        "name": "Kutlubey",
        "lat": "37.30719",
        "lng": "41.1772"
    },
    {
        "country": "TR",
        "name": "K\u00fctahya",
        "lat": "39.42417",
        "lng": "29.98333"
    },
    {
        "country": "TR",
        "name": "Kussarayi",
        "lat": "38.45121",
        "lng": "38.67912"
    },
    {
        "country": "TR",
        "name": "Kuskayasi",
        "lat": "39.06076",
        "lng": "37.07929"
    },
    {
        "country": "TR",
        "name": "Kusadasi",
        "lat": "37.85562",
        "lng": "27.2566"
    },
    {
        "country": "TR",
        "name": "Kuru\u00e7ay",
        "lat": "39.64024",
        "lng": "38.47422"
    },
    {
        "country": "TR",
        "name": "Kurthasanli",
        "lat": "38.32611",
        "lng": "32.17528"
    },
    {
        "country": "TR",
        "name": "Kurtalan",
        "lat": "37.92533",
        "lng": "41.68493"
    },
    {
        "country": "TR",
        "name": "Kursunlu",
        "lat": "38.65328",
        "lng": "37.85081"
    },
    {
        "country": "TR",
        "name": "Sarikavak",
        "lat": "36.58127",
        "lng": "33.64299"
    },
    {
        "country": "TR",
        "name": "Beykonak",
        "lat": "36.32573",
        "lng": "30.30302"
    },
    {
        "country": "TR",
        "name": "Kumluca",
        "lat": "36.37028",
        "lng": "30.28694"
    },
    {
        "country": "TR",
        "name": "Kumlu",
        "lat": "37.17222",
        "lng": "40.73536"
    },
    {
        "country": "TR",
        "name": "Kumlu",
        "lat": "36.36353",
        "lng": "36.45502"
    },
    {
        "country": "TR",
        "name": "Kumk\u00f6y",
        "lat": "36.88286",
        "lng": "30.95178"
    },
    {
        "country": "TR",
        "name": "Kumdanli",
        "lat": "38.3239",
        "lng": "30.9764"
    },
    {
        "country": "TR",
        "name": "Kum\u00e7ati",
        "lat": "37.46594",
        "lng": "42.28791"
    },
    {
        "country": "TR",
        "name": "Kuluncak",
        "lat": "38.87656",
        "lng": "37.66279"
    },
    {
        "country": "TR",
        "name": "Kulu",
        "lat": "39.09513",
        "lng": "33.07989"
    },
    {
        "country": "TR",
        "name": "Kulp",
        "lat": "38.49754",
        "lng": "41.00668"
    },
    {
        "country": "TR",
        "name": "Kula",
        "lat": "38.54726",
        "lng": "28.64976"
    },
    {
        "country": "TR",
        "name": "Kotum",
        "lat": "38.43899",
        "lng": "42.31905"
    },
    {
        "country": "TR",
        "name": "K\u00fc\u00e7\u00fckkuyu",
        "lat": "39.54889",
        "lng": "26.60528"
    },
    {
        "country": "TR",
        "name": "Denizgiren",
        "lat": "38.55734",
        "lng": "26.39305"
    },
    {
        "country": "TR",
        "name": "Kozluk",
        "lat": "38.19118",
        "lng": "41.47775"
    },
    {
        "country": "TR",
        "name": "Kozan",
        "lat": "37.45517",
        "lng": "35.81573"
    },
    {
        "country": "TR",
        "name": "Kozakli",
        "lat": "39.22139",
        "lng": "34.85056"
    },
    {
        "country": "TR",
        "name": "Kovancilar",
        "lat": "38.71882",
        "lng": "39.86268"
    },
    {
        "country": "TR",
        "name": "K\u00f6sreli",
        "lat": "37.1625",
        "lng": "35.97834"
    },
    {
        "country": "TR",
        "name": "K\u00f6sk",
        "lat": "37.85333",
        "lng": "28.05167"
    },
    {
        "country": "TR",
        "name": "K\u00f6seli",
        "lat": "37.83879",
        "lng": "40.60811"
    },
    {
        "country": "TR",
        "name": "K\u00f6sefakili",
        "lat": "39.59386",
        "lng": "34.13625"
    },
    {
        "country": "TR",
        "name": "Korucu",
        "lat": "39.47028",
        "lng": "27.36528"
    },
    {
        "country": "TR",
        "name": "Korkuteli",
        "lat": "37.06498",
        "lng": "30.19565"
    },
    {
        "country": "TR",
        "name": "Korkut",
        "lat": "38.7339",
        "lng": "41.78396"
    },
    {
        "country": "TR",
        "name": "K\u00f6pr\u00fc\u00f6ren",
        "lat": "39.50832",
        "lng": "29.76233"
    },
    {
        "country": "TR",
        "name": "K\u00f6pr\u00fcl\u00fc",
        "lat": "36.7323",
        "lng": "32.18497"
    },
    {
        "country": "TR",
        "name": "K\u00f6pr\u00fck\u00f6y",
        "lat": "39.966",
        "lng": "41.86844"
    },
    {
        "country": "TR",
        "name": "K\u00f6pr\u00fcbasi",
        "lat": "38.74972",
        "lng": "28.40472"
    },
    {
        "country": "TR",
        "name": "Konyaalti",
        "lat": "36.86644",
        "lng": "30.63031"
    },
    {
        "country": "TR",
        "name": "Konya",
        "lat": "37.87135",
        "lng": "32.48464"
    },
    {
        "country": "TR",
        "name": "Konalga",
        "lat": "37.86035",
        "lng": "43.09678"
    },
    {
        "country": "TR",
        "name": "Konakpinar",
        "lat": "39.43389",
        "lng": "27.83623"
    },
    {
        "country": "TR",
        "name": "Konakpinar",
        "lat": "38.90583",
        "lng": "37.29694"
    },
    {
        "country": "TR",
        "name": "Konakli",
        "lat": "38.11278",
        "lng": "27.99611"
    },
    {
        "country": "TR",
        "name": "G\u00f6cek",
        "lat": "36.75345",
        "lng": "28.94571"
    },
    {
        "country": "TR",
        "name": "Kocatepe",
        "lat": "37.22922",
        "lng": "40.16104"
    },
    {
        "country": "TR",
        "name": "Ko\u00e7arli",
        "lat": "37.76113",
        "lng": "27.70583"
    },
    {
        "country": "TR",
        "name": "Kocapinar",
        "lat": "39.09553",
        "lng": "43.19616"
    },
    {
        "country": "TR",
        "name": "Ko\u00e7ali",
        "lat": "37.92306",
        "lng": "38.25788"
    },
    {
        "country": "TR",
        "name": "Kocak\u00f6y",
        "lat": "38.28889",
        "lng": "40.49786"
    },
    {
        "country": "TR",
        "name": "Kocako\u00e7",
        "lat": "39.11664",
        "lng": "39.65931"
    },
    {
        "country": "TR",
        "name": "Kocahasanli",
        "lat": "36.58417",
        "lng": "34.27359"
    },
    {
        "country": "TR",
        "name": "Kocaaliler",
        "lat": "37.31694",
        "lng": "30.74"
    },
    {
        "country": "TR",
        "name": "Kizilyaka",
        "lat": "36.98301",
        "lng": "29.52847"
    },
    {
        "country": "TR",
        "name": "Kiziltepe",
        "lat": "37.18836",
        "lng": "40.57723"
    },
    {
        "country": "TR",
        "name": "Kizilsu",
        "lat": "37.45402",
        "lng": "42.19639"
    },
    {
        "country": "TR",
        "name": "Kizil\u00f6ren",
        "lat": "38.25806",
        "lng": "30.15167"
    },
    {
        "country": "TR",
        "name": "Kizil\u00f6ren",
        "lat": "37.86847",
        "lng": "32.11618"
    },
    {
        "country": "TR",
        "name": "Kizilkaya",
        "lat": "37.30361",
        "lng": "30.44417"
    },
    {
        "country": "TR",
        "name": "Serinhisar",
        "lat": "37.58105",
        "lng": "29.26639"
    },
    {
        "country": "TR",
        "name": "Kizilcas\u00f6g\u00fct",
        "lat": "38.65111",
        "lng": "29.66611"
    },
    {
        "country": "TR",
        "name": "Kizilcadag",
        "lat": "37.01722",
        "lng": "29.96306"
    },
    {
        "country": "TR",
        "name": "Kizilcab\u00f6l\u00fck",
        "lat": "37.61191",
        "lng": "29.01838"
    },
    {
        "country": "TR",
        "name": "Kizilaga\u00e7",
        "lat": "38.78019",
        "lng": "41.31385"
    },
    {
        "country": "TR",
        "name": "Kislak",
        "lat": "35.9675",
        "lng": "36.15749"
    },
    {
        "country": "TR",
        "name": "Kirsehir",
        "lat": "39.14583",
        "lng": "34.16389"
    },
    {
        "country": "TR",
        "name": "Kirkge\u00e7it",
        "lat": "38.13558",
        "lng": "43.49387"
    },
    {
        "country": "TR",
        "name": "Kirkaga\u00e7",
        "lat": "39.10638",
        "lng": "27.66925"
    },
    {
        "country": "TR",
        "name": "Kirka",
        "lat": "39.27944",
        "lng": "30.52639"
    },
    {
        "country": "TR",
        "name": "Kirikkale",
        "lat": "39.84528",
        "lng": "33.50639"
    },
    {
        "country": "TR",
        "name": "Kirikhan",
        "lat": "36.49939",
        "lng": "36.35755"
    },
    {
        "country": "TR",
        "name": "Kire\u00e7",
        "lat": "39.55517",
        "lng": "28.36506"
    },
    {
        "country": "TR",
        "name": "Kiraz",
        "lat": "38.23056",
        "lng": "28.20444"
    },
    {
        "country": "TR",
        "name": "Kinik",
        "lat": "39.08722",
        "lng": "27.38333"
    },
    {
        "country": "TR",
        "name": "Kilis",
        "lat": "36.71611",
        "lng": "37.115"
    },
    {
        "country": "TR",
        "name": "Kilbasan",
        "lat": "37.32488",
        "lng": "33.18634"
    },
    {
        "country": "TR",
        "name": "Kilavuz",
        "lat": "37.4796",
        "lng": "41.78374"
    },
    {
        "country": "TR",
        "name": "Kasaba",
        "lat": "39.31361",
        "lng": "40.35028"
    },
    {
        "country": "TR",
        "name": "Keskin",
        "lat": "39.67306",
        "lng": "33.61361"
    },
    {
        "country": "TR",
        "name": "Kepsut",
        "lat": "39.68889",
        "lng": "28.15222"
    },
    {
        "country": "TR",
        "name": "Kemerhisar",
        "lat": "37.82388",
        "lng": "34.57145"
    },
    {
        "country": "TR",
        "name": "Kemer",
        "lat": "37.35222",
        "lng": "30.06306"
    },
    {
        "country": "TR",
        "name": "Kemer",
        "lat": "36.6481",
        "lng": "29.3591"
    },
    {
        "country": "TR",
        "name": "Kemer",
        "lat": "36.59778",
        "lng": "30.56056"
    },
    {
        "country": "TR",
        "name": "Kemalpasa",
        "lat": "38.42621",
        "lng": "27.41731"
    },
    {
        "country": "TR",
        "name": "Kemaliye",
        "lat": "39.26288",
        "lng": "38.49674"
    },
    {
        "country": "TR",
        "name": "Kemah",
        "lat": "39.59606",
        "lng": "39.02329"
    },
    {
        "country": "TR",
        "name": "Keles",
        "lat": "39.91361",
        "lng": "29.22944"
    },
    {
        "country": "TR",
        "name": "Kelek\u00e7i",
        "lat": "37.24073",
        "lng": "29.30425"
    },
    {
        "country": "TR",
        "name": "Ke\u00e7iborlu",
        "lat": "37.9425",
        "lng": "30.30222"
    },
    {
        "country": "TR",
        "name": "Keban",
        "lat": "38.7938",
        "lng": "38.73517"
    },
    {
        "country": "TR",
        "name": "Kazimkarabekir",
        "lat": "37.23028",
        "lng": "32.95889"
    },
    {
        "country": "TR",
        "name": "Kazanli",
        "lat": "36.81565",
        "lng": "34.75761"
    },
    {
        "country": "TR",
        "name": "Kazanci",
        "lat": "37.77106",
        "lng": "40.6"
    },
    {
        "country": "TR",
        "name": "Kazanci",
        "lat": "36.50188",
        "lng": "32.86128"
    },
    {
        "country": "TR",
        "name": "Kayseri",
        "lat": "38.73222",
        "lng": "35.48528"
    },
    {
        "country": "TR",
        "name": "Kaypak",
        "lat": "37.11487",
        "lng": "36.46511"
    },
    {
        "country": "TR",
        "name": "Kaynar",
        "lat": "38.89917",
        "lng": "36.45417"
    },
    {
        "country": "TR",
        "name": "Kaynakkaya",
        "lat": "37.33968",
        "lng": "40.93274"
    },
    {
        "country": "TR",
        "name": "Kaymaz",
        "lat": "39.51667",
        "lng": "31.17972"
    },
    {
        "country": "TR",
        "name": "Kaymak\u00e7i",
        "lat": "38.16778",
        "lng": "28.11528"
    },
    {
        "country": "TR",
        "name": "Kayapinar",
        "lat": "37.93733",
        "lng": "40.17756"
    },
    {
        "country": "TR",
        "name": "Kayapinar",
        "lat": "37.55762",
        "lng": "41.16231"
    },
    {
        "country": "TR",
        "name": "Kayapa",
        "lat": "39.49271",
        "lng": "27.44547"
    },
    {
        "country": "TR",
        "name": "Kayalipinar",
        "lat": "37.32983",
        "lng": "41.2276"
    },
    {
        "country": "TR",
        "name": "Salmanli",
        "lat": "39.90222",
        "lng": "34.25472"
    },
    {
        "country": "TR",
        "name": "Kayadibi",
        "lat": "39.47993",
        "lng": "36.71245"
    },
    {
        "country": "TR",
        "name": "Kayabaglar",
        "lat": "37.98599",
        "lng": "41.66756"
    },
    {
        "country": "TR",
        "name": "Kavaklidere",
        "lat": "37.44463",
        "lng": "28.36276"
    },
    {
        "country": "TR",
        "name": "Kavakbasi",
        "lat": "38.48337",
        "lng": "41.81967"
    },
    {
        "country": "TR",
        "name": "Kavak",
        "lat": "39.29205",
        "lng": "37.48127"
    },
    {
        "country": "TR",
        "name": "Hazar",
        "lat": "38.3878",
        "lng": "39.42365"
    },
    {
        "country": "TR",
        "name": "Kavacik",
        "lat": "39.67551",
        "lng": "28.49446"
    },
    {
        "country": "TR",
        "name": "Kasimlar",
        "lat": "37.52875",
        "lng": "31.1927"
    },
    {
        "country": "TR",
        "name": "Kas",
        "lat": "36.20176",
        "lng": "29.63766"
    },
    {
        "country": "TR",
        "name": "Karsiyaka",
        "lat": "38.45733",
        "lng": "27.11062"
    },
    {
        "country": "TR",
        "name": "Aladag",
        "lat": "37.5485",
        "lng": "35.39603"
    },
    {
        "country": "TR",
        "name": "Karpuzlu",
        "lat": "37.55861",
        "lng": "27.83528"
    },
    {
        "country": "TR",
        "name": "Kizilaga\u00e7",
        "lat": "36.73055",
        "lng": "31.53517"
    },
    {
        "country": "TR",
        "name": "Karliova",
        "lat": "39.29044",
        "lng": "41.00594"
    },
    {
        "country": "TR",
        "name": "Karincali",
        "lat": "39.97118",
        "lng": "28.85894"
    },
    {
        "country": "TR",
        "name": "Kargi",
        "lat": "36.70132",
        "lng": "29.07557"
    },
    {
        "country": "TR",
        "name": "Karkamis",
        "lat": "36.83452",
        "lng": "37.9983"
    },
    {
        "country": "TR",
        "name": "Karay\u00fcn",
        "lat": "39.68194",
        "lng": "37.30528"
    },
    {
        "country": "TR",
        "name": "Karayazi",
        "lat": "39.69604",
        "lng": "42.14277"
    },
    {
        "country": "TR",
        "name": "Karatoprak",
        "lat": "37.01385",
        "lng": "27.25893"
    },
    {
        "country": "TR",
        "name": "Karatas",
        "lat": "36.58204",
        "lng": "35.37014"
    },
    {
        "country": "TR",
        "name": "Karapinar",
        "lat": "37.71596",
        "lng": "33.55064"
    },
    {
        "country": "TR",
        "name": "Karaoglanli",
        "lat": "38.52917",
        "lng": "27.56667"
    },
    {
        "country": "TR",
        "name": "Karaoglan",
        "lat": "39.22644",
        "lng": "39.20853"
    },
    {
        "country": "TR",
        "name": "Karamanli",
        "lat": "37.37301",
        "lng": "29.82308"
    },
    {
        "country": "TR",
        "name": "Karaman",
        "lat": "37.18111",
        "lng": "33.215"
    },
    {
        "country": "TR",
        "name": "Karalar",
        "lat": "37.30073",
        "lng": "41.67582"
    },
    {
        "country": "TR",
        "name": "Karakoyunlu",
        "lat": "39.87036",
        "lng": "43.63014"
    },
    {
        "country": "TR",
        "name": "Karak\u00f6y",
        "lat": "39.09101",
        "lng": "41.68301"
    },
    {
        "country": "TR",
        "name": "Agri",
        "lat": "39.71944",
        "lng": "43.05139"
    },
    {
        "country": "TR",
        "name": "Karak\u00f6pr\u00fc",
        "lat": "39.31512",
        "lng": "41.96458"
    },
    {
        "country": "TR",
        "name": "Karak\u00f6pr\u00fc",
        "lat": "37.20361",
        "lng": "38.79944"
    },
    {
        "country": "TR",
        "name": "Karako\u00e7an",
        "lat": "38.95178",
        "lng": "40.02706"
    },
    {
        "country": "TR",
        "name": "Karake\u00e7ili",
        "lat": "39.59417",
        "lng": "33.37778"
    },
    {
        "country": "TR",
        "name": "Karake\u00e7i",
        "lat": "37.45234",
        "lng": "39.44285"
    },
    {
        "country": "TR",
        "name": "Karaisali",
        "lat": "37.25667",
        "lng": "35.05889"
    },
    {
        "country": "TR",
        "name": "Karahasanli",
        "lat": "39.29693",
        "lng": "34.72159"
    },
    {
        "country": "TR",
        "name": "Karahalli",
        "lat": "38.32083",
        "lng": "29.53028"
    },
    {
        "country": "TR",
        "name": "Karadirek",
        "lat": "38.56834",
        "lng": "30.18417"
    },
    {
        "country": "TR",
        "name": "Kara\u00e7oban",
        "lat": "39.34364",
        "lng": "42.09918"
    },
    {
        "country": "TR",
        "name": "Kara\u00e7ay",
        "lat": "36.13551",
        "lng": "36.07743"
    },
    {
        "country": "TR",
        "name": "Karaca\u00f6ren",
        "lat": "39.73062",
        "lng": "38.11527"
    },
    {
        "country": "TR",
        "name": "Karacasu",
        "lat": "37.72816",
        "lng": "28.60569"
    },
    {
        "country": "TR",
        "name": "Karacadag",
        "lat": "37.72894",
        "lng": "39.63547"
    },
    {
        "country": "TR",
        "name": "Karaburun",
        "lat": "38.6364",
        "lng": "26.51094"
    },
    {
        "country": "TR",
        "name": "Karaagil",
        "lat": "39.13609",
        "lng": "42.08459"
    },
    {
        "country": "TR",
        "name": "Kanliavsar",
        "lat": "37.21646",
        "lng": "38.30936"
    },
    {
        "country": "TR",
        "name": "Kangal",
        "lat": "39.23354",
        "lng": "37.39111"
    },
    {
        "country": "TR",
        "name": "Kandilli",
        "lat": "39.90587",
        "lng": "40.83662"
    },
    {
        "country": "TR",
        "name": "Kaman",
        "lat": "39.3575",
        "lng": "33.72389"
    },
    {
        "country": "TR",
        "name": "Kalkim",
        "lat": "39.81167",
        "lng": "27.215"
    },
    {
        "country": "TR",
        "name": "Kalkan",
        "lat": "36.2651",
        "lng": "29.41369"
    },
    {
        "country": "TR",
        "name": "Kabahaydar",
        "lat": "37.31338",
        "lng": "39.00995"
    },
    {
        "country": "TR",
        "name": "Kale",
        "lat": "39.03333",
        "lng": "38"
    },
    {
        "country": "TR",
        "name": "Kale",
        "lat": "37.43917",
        "lng": "28.84528"
    },
    {
        "country": "TR",
        "name": "K\u00e2hta",
        "lat": "37.78552",
        "lng": "38.6237"
    },
    {
        "country": "TR",
        "name": "Kahramanmaras",
        "lat": "37.5847",
        "lng": "36.92641"
    },
    {
        "country": "TR",
        "name": "Kadisehri",
        "lat": "39.99568",
        "lng": "35.79193"
    },
    {
        "country": "TR",
        "name": "Kadirli",
        "lat": "37.37389",
        "lng": "36.09611"
    },
    {
        "country": "TR",
        "name": "Kadinhani",
        "lat": "38.23972",
        "lng": "32.21139"
    },
    {
        "country": "TR",
        "name": "Kabala",
        "lat": "37.34585",
        "lng": "40.80059"
    },
    {
        "country": "TR",
        "name": "Kabahaydar",
        "lat": "37.4",
        "lng": "39.08333"
    },
    {
        "country": "TR",
        "name": "Izmir",
        "lat": "38.41273",
        "lng": "27.13838"
    },
    {
        "country": "TR",
        "name": "Ivrindi",
        "lat": "39.58389",
        "lng": "27.48639"
    },
    {
        "country": "TR",
        "name": "Isparta",
        "lat": "37.76444",
        "lng": "30.55222"
    },
    {
        "country": "TR",
        "name": "Yuntdag",
        "lat": "38.93167",
        "lng": "27.21361"
    },
    {
        "country": "TR",
        "name": "Islahiye",
        "lat": "37.025",
        "lng": "36.63056"
    },
    {
        "country": "TR",
        "name": "Iskenderun",
        "lat": "36.58718",
        "lng": "36.17347"
    },
    {
        "country": "TR",
        "name": "Isiklar",
        "lat": "38.67101",
        "lng": "30.74098"
    },
    {
        "country": "TR",
        "name": "Ishakli",
        "lat": "38.19972",
        "lng": "30.01333"
    },
    {
        "country": "TR",
        "name": "Kavsan",
        "lat": "37.65653",
        "lng": "40.65806"
    },
    {
        "country": "TR",
        "name": "Iscehisar",
        "lat": "38.86194",
        "lng": "30.75028"
    },
    {
        "country": "TR",
        "name": "Isabeyli",
        "lat": "37.90147",
        "lng": "28.26475"
    },
    {
        "country": "TR",
        "name": "In\u00f6n\u00fc",
        "lat": "39.81534",
        "lng": "30.14549"
    },
    {
        "country": "TR",
        "name": "In\u00f6n\u00fc",
        "lat": "37.31667",
        "lng": "33.76667"
    },
    {
        "country": "TR",
        "name": "Incirliova",
        "lat": "37.85222",
        "lng": "27.72361"
    },
    {
        "country": "TR",
        "name": "Incesu",
        "lat": "38.6224",
        "lng": "35.18261"
    },
    {
        "country": "TR",
        "name": "Imranli",
        "lat": "39.87544",
        "lng": "38.11358"
    },
    {
        "country": "TR",
        "name": "Imamoglu",
        "lat": "37.26506",
        "lng": "35.65717"
    },
    {
        "country": "TR",
        "name": "Ilyasli",
        "lat": "38.60389",
        "lng": "29.20056"
    },
    {
        "country": "TR",
        "name": "Ilica",
        "lat": "39.94653",
        "lng": "41.0952"
    },
    {
        "country": "TR",
        "name": "Ilica",
        "lat": "39.87583",
        "lng": "27.77639"
    },
    {
        "country": "TR",
        "name": "Ilicalar",
        "lat": "38.98034",
        "lng": "40.67394"
    },
    {
        "country": "TR",
        "name": "Ili\u00e7",
        "lat": "39.45106",
        "lng": "38.55836"
    },
    {
        "country": "TR",
        "name": "Ilgin",
        "lat": "38.27917",
        "lng": "31.91389"
    },
    {
        "country": "TR",
        "name": "Ikizce",
        "lat": "39.59516",
        "lng": "32.66097"
    },
    {
        "country": "TR",
        "name": "Ikizce",
        "lat": "36.86262",
        "lng": "37.77432"
    },
    {
        "country": "TR",
        "name": "Aviski",
        "lat": "37.96459",
        "lng": "41.33119"
    },
    {
        "country": "TR",
        "name": "Ihsaniye",
        "lat": "39.02916",
        "lng": "30.41639"
    },
    {
        "country": "TR",
        "name": "Igdir",
        "lat": "39.92371",
        "lng": "44.045"
    },
    {
        "country": "TR",
        "name": "Idil",
        "lat": "37.33481",
        "lng": "41.88944"
    },
    {
        "country": "TR",
        "name": "Teffi",
        "lat": "37.55781",
        "lng": "41.09551"
    },
    {
        "country": "TR",
        "name": "I\u00e7me",
        "lat": "38.61257",
        "lng": "39.5513"
    },
    {
        "country": "TR",
        "name": "H\u00fcy\u00fck",
        "lat": "37.95388",
        "lng": "31.59639"
    },
    {
        "country": "TR",
        "name": "Hozat",
        "lat": "39.10029",
        "lng": "39.20816"
    },
    {
        "country": "TR",
        "name": "Hotamis",
        "lat": "37.64004",
        "lng": "33.31862"
    },
    {
        "country": "TR",
        "name": "Horsunlu",
        "lat": "37.91441",
        "lng": "28.59151"
    },
    {
        "country": "TR",
        "name": "Honaz",
        "lat": "37.7573",
        "lng": "29.26996"
    },
    {
        "country": "TR",
        "name": "Hocalar",
        "lat": "38.57824",
        "lng": "29.96768"
    },
    {
        "country": "TR",
        "name": "Gyundyukoru",
        "lat": "37.14207",
        "lng": "40.50149"
    },
    {
        "country": "TR",
        "name": "Sel\u00e7uklu",
        "lat": "37.8842",
        "lng": "32.49222"
    },
    {
        "country": "TR",
        "name": "Hizan",
        "lat": "38.22498",
        "lng": "42.4183"
    },
    {
        "country": "TR",
        "name": "Hisarcik",
        "lat": "39.25057",
        "lng": "29.23116"
    },
    {
        "country": "TR",
        "name": "Hisar",
        "lat": "37.60094",
        "lng": "41.22799"
    },
    {
        "country": "TR",
        "name": "Hinis",
        "lat": "39.35766",
        "lng": "41.69253"
    },
    {
        "country": "TR",
        "name": "Himmetdede",
        "lat": "38.91028",
        "lng": "35.09607"
    },
    {
        "country": "TR",
        "name": "Hilvan",
        "lat": "37.58687",
        "lng": "38.95505"
    },
    {
        "country": "TR",
        "name": "Hilal",
        "lat": "37.47528",
        "lng": "42.78583"
    },
    {
        "country": "TR",
        "name": "Hidirbey",
        "lat": "36.20802",
        "lng": "36.12787"
    },
    {
        "country": "TR",
        "name": "Hidirbaba",
        "lat": "38.76706",
        "lng": "38.97698"
    },
    {
        "country": "TR",
        "name": "Hekimhan",
        "lat": "38.81622",
        "lng": "37.92882"
    },
    {
        "country": "TR",
        "name": "Hekimdag",
        "lat": "39.90904",
        "lng": "30.5646"
    },
    {
        "country": "TR",
        "name": "Hazro",
        "lat": "38.24903",
        "lng": "40.77129"
    },
    {
        "country": "TR",
        "name": "Haymana",
        "lat": "39.43212",
        "lng": "32.49732"
    },
    {
        "country": "TR",
        "name": "Haydarli",
        "lat": "38.25972",
        "lng": "30.38583"
    },
    {
        "country": "TR",
        "name": "Havran",
        "lat": "39.55833",
        "lng": "27.09833"
    },
    {
        "country": "TR",
        "name": "Hatunsaray",
        "lat": "37.58753",
        "lng": "32.34802"
    },
    {
        "country": "TR",
        "name": "Hatip",
        "lat": "37.75447",
        "lng": "32.4222"
    },
    {
        "country": "TR",
        "name": "Hassa",
        "lat": "36.79944",
        "lng": "36.51778"
    },
    {
        "country": "TR",
        "name": "Alacakaya",
        "lat": "38.45751",
        "lng": "39.85956"
    },
    {
        "country": "TR",
        "name": "Hask\u00f6y",
        "lat": "38.68231",
        "lng": "41.67851"
    },
    {
        "country": "TR",
        "name": "Hasbek",
        "lat": "39.54945",
        "lng": "35.54772"
    },
    {
        "country": "TR",
        "name": "Hasankeyf",
        "lat": "37.70612",
        "lng": "41.4048"
    },
    {
        "country": "TR",
        "name": "Hasan\u00e7elebi",
        "lat": "38.95093",
        "lng": "37.88064"
    },
    {
        "country": "TR",
        "name": "Hasanbeyli",
        "lat": "37.12838",
        "lng": "36.54608"
    },
    {
        "country": "TR",
        "name": "Haruniye",
        "lat": "37.24216",
        "lng": "36.45484"
    },
    {
        "country": "TR",
        "name": "Harran",
        "lat": "36.86",
        "lng": "39.03139"
    },
    {
        "country": "TR",
        "name": "Harput",
        "lat": "38.70373",
        "lng": "39.2415"
    },
    {
        "country": "TR",
        "name": "Harmanli",
        "lat": "37.83812",
        "lng": "37.74428"
    },
    {
        "country": "TR",
        "name": "Harmancik",
        "lat": "39.67611",
        "lng": "29.15528"
    },
    {
        "country": "TR",
        "name": "Harbiye",
        "lat": "36.13685",
        "lng": "36.13293"
    },
    {
        "country": "TR",
        "name": "Han",
        "lat": "39.15917",
        "lng": "30.86139"
    },
    {
        "country": "TR",
        "name": "Hankendi",
        "lat": "38.56879",
        "lng": "39.05739"
    },
    {
        "country": "TR",
        "name": "Hani",
        "lat": "38.40741",
        "lng": "40.38578"
    },
    {
        "country": "TR",
        "name": "Hank\u00f6y",
        "lat": "36.95081",
        "lng": "40.19855"
    },
    {
        "country": "TR",
        "name": "Hamzali",
        "lat": "38.34159",
        "lng": "41.16254"
    },
    {
        "country": "TR",
        "name": "Hamur",
        "lat": "39.60561",
        "lng": "42.985"
    },
    {
        "country": "TR",
        "name": "Hamdibey",
        "lat": "39.84944",
        "lng": "27.24806"
    },
    {
        "country": "TR",
        "name": "Halkapinar",
        "lat": "37.43394",
        "lng": "34.18743"
    },
    {
        "country": "TR",
        "name": "Halitpasa",
        "lat": "38.68541",
        "lng": "27.67836"
    },
    {
        "country": "TR",
        "name": "Halil\u00e7avus",
        "lat": "39.2472",
        "lng": "41.79257"
    },
    {
        "country": "TR",
        "name": "Halfeti",
        "lat": "37.24529",
        "lng": "37.86874"
    },
    {
        "country": "TR",
        "name": "Tuzla",
        "lat": "36.70074",
        "lng": "35.08726"
    },
    {
        "country": "TR",
        "name": "Hafik",
        "lat": "39.85639",
        "lng": "37.38639"
    },
    {
        "country": "TR",
        "name": "Hadim",
        "lat": "36.98776",
        "lng": "32.45674"
    },
    {
        "country": "TR",
        "name": "Hacilar",
        "lat": "38.64631",
        "lng": "35.44937"
    },
    {
        "country": "TR",
        "name": "Hacibektas",
        "lat": "38.94077",
        "lng": "34.5577"
    },
    {
        "country": "TR",
        "name": "Aydinlar",
        "lat": "38.62198",
        "lng": "38.54052"
    },
    {
        "country": "TR",
        "name": "Haberli",
        "lat": "37.3051",
        "lng": "41.61758"
    },
    {
        "country": "TR",
        "name": "G\u00fczelyurt",
        "lat": "38.27722",
        "lng": "34.37194"
    },
    {
        "country": "TR",
        "name": "G\u00fczelsu",
        "lat": "38.31032",
        "lng": "43.79906"
    },
    {
        "country": "TR",
        "name": "G\u00fczelsu",
        "lat": "36.89472",
        "lng": "31.85639"
    },
    {
        "country": "TR",
        "name": "G\u00fczeloluk",
        "lat": "36.79444",
        "lng": "34.08274"
    },
    {
        "country": "TR",
        "name": "G\u00fczelbag",
        "lat": "36.73363",
        "lng": "31.89837"
    },
    {
        "country": "TR",
        "name": "G\u00fcr\u00fcn",
        "lat": "38.72225",
        "lng": "37.27097"
    },
    {
        "country": "TR",
        "name": "G\u00fcrpinar",
        "lat": "38.32372",
        "lng": "43.40991"
    },
    {
        "country": "TR",
        "name": "G\u00fcroymak",
        "lat": "38.5758",
        "lng": "42.01558"
    },
    {
        "country": "TR",
        "name": "G\u00fcre",
        "lat": "38.65111",
        "lng": "29.16694"
    },
    {
        "country": "TR",
        "name": "G\u00fcny\u00fcz\u00fc",
        "lat": "39.38345",
        "lng": "31.80995"
    },
    {
        "country": "TR",
        "name": "G\u00fcney",
        "lat": "38.15444",
        "lng": "29.06778"
    },
    {
        "country": "TR",
        "name": "G\u00fcneren",
        "lat": "36.73417",
        "lng": "39.08861"
    },
    {
        "country": "TR",
        "name": "Eksere",
        "lat": "36.81339",
        "lng": "31.99971"
    },
    {
        "country": "TR",
        "name": "Homa",
        "lat": "38.23927",
        "lng": "29.98651"
    },
    {
        "country": "TR",
        "name": "Salanda",
        "lat": "38.82556",
        "lng": "34.53212"
    },
    {
        "country": "TR",
        "name": "G\u00fcm\u00fcsakar",
        "lat": "39.79382",
        "lng": "38.67297"
    },
    {
        "country": "TR",
        "name": "Becuh",
        "lat": "37.39141",
        "lng": "42.99018"
    },
    {
        "country": "TR",
        "name": "G\u00fclveren",
        "lat": "37.48711",
        "lng": "41.49446"
    },
    {
        "country": "TR",
        "name": "G\u00fclsehir",
        "lat": "38.74594",
        "lng": "34.62524"
    },
    {
        "country": "TR",
        "name": "G\u00fclpinar",
        "lat": "39.53278",
        "lng": "26.12056"
    },
    {
        "country": "TR",
        "name": "G\u00fclnar",
        "lat": "36.34148",
        "lng": "33.39921"
    },
    {
        "country": "TR",
        "name": "Kiulukioi",
        "lat": "37.23972",
        "lng": "27.60028"
    },
    {
        "country": "TR",
        "name": "G\u00fcll\u00fc",
        "lat": "38.27114",
        "lng": "29.10451"
    },
    {
        "country": "TR",
        "name": "Yenisu",
        "lat": "38.75201",
        "lng": "40.87571"
    },
    {
        "country": "TR",
        "name": "G\u00fcle\u00e7ler",
        "lat": "37.95333",
        "lng": "42.53861"
    },
    {
        "country": "TR",
        "name": "Bask\u00f6y",
        "lat": "39.87231",
        "lng": "39.84188"
    },
    {
        "country": "TR",
        "name": "G\u00fcc\u00fck",
        "lat": "38.1936",
        "lng": "37.4812"
    },
    {
        "country": "TR",
        "name": "Baraniferho",
        "lat": "37.46957",
        "lng": "41.90593"
    },
    {
        "country": "TR",
        "name": "G\u00f6zpinar",
        "lat": "37.97717",
        "lng": "41.45761"
    },
    {
        "country": "TR",
        "name": "G\u00f6zne",
        "lat": "36.99528",
        "lng": "34.57306"
    },
    {
        "country": "TR",
        "name": "G\u00f6zler",
        "lat": "38.10679",
        "lng": "29.15375"
    },
    {
        "country": "TR",
        "name": "G\u00f6zeli",
        "lat": "38.4246",
        "lng": "39.05728"
    },
    {
        "country": "TR",
        "name": "G\u00f6yn\u00fck",
        "lat": "39.13947",
        "lng": "40.87438"
    },
    {
        "country": "TR",
        "name": "G\u00f6yn\u00fck",
        "lat": "36.66",
        "lng": "30.55"
    },
    {
        "country": "TR",
        "name": "Payamli",
        "lat": "37.03651",
        "lng": "38.61337"
    },
    {
        "country": "TR",
        "name": "Bisbin",
        "lat": "37.33929",
        "lng": "42.56945"
    },
    {
        "country": "TR",
        "name": "G\u00f6reme",
        "lat": "38.6437",
        "lng": "34.83529"
    },
    {
        "country": "TR",
        "name": "G\u00f6rdes",
        "lat": "38.93278",
        "lng": "28.28942"
    },
    {
        "country": "TR",
        "name": "G\u00f6nen",
        "lat": "37.95639",
        "lng": "30.5114"
    },
    {
        "country": "TR",
        "name": "G\u00f6me\u00e7",
        "lat": "39.39016",
        "lng": "26.84127"
    },
    {
        "country": "TR",
        "name": "G\u00f6lova",
        "lat": "36.79917",
        "lng": "30.03889"
    },
    {
        "country": "TR",
        "name": "Beyviran",
        "lat": "37.84949",
        "lng": "33.8597"
    },
    {
        "country": "TR",
        "name": "G\u00f6lmarmara",
        "lat": "38.71389",
        "lng": "27.91417"
    },
    {
        "country": "TR",
        "name": "G\u00f6ll\u00fc",
        "lat": "39.4499",
        "lng": "34.30011"
    },
    {
        "country": "TR",
        "name": "G\u00f6lhisar",
        "lat": "37.1459",
        "lng": "29.50876"
    },
    {
        "country": "TR",
        "name": "G\u00f6lgelikonak",
        "lat": "37.76923",
        "lng": "42.12744"
    },
    {
        "country": "TR",
        "name": "G\u00f6ld\u00fcz\u00fc",
        "lat": "38.81335",
        "lng": "43.01904"
    },
    {
        "country": "TR",
        "name": "G\u00f6lc\u00fck",
        "lat": "39.31309",
        "lng": "27.98319"
    },
    {
        "country": "TR",
        "name": "Tilfetis",
        "lat": "37.48135",
        "lng": "39.04736"
    },
    {
        "country": "TR",
        "name": "G\u00f6lbasi",
        "lat": "39.79043",
        "lng": "32.80903"
    },
    {
        "country": "TR",
        "name": "G\u00f6lbasi",
        "lat": "37.78361",
        "lng": "37.63667"
    },
    {
        "country": "TR",
        "name": "G\u00f6ktepe",
        "lat": "37.41908",
        "lng": "28.55894"
    },
    {
        "country": "TR",
        "name": "G\u00f6ktepe",
        "lat": "36.62687",
        "lng": "32.6228"
    },
    {
        "country": "TR",
        "name": "G\u00f6ksun",
        "lat": "38.02096",
        "lng": "36.4973"
    },
    {
        "country": "TR",
        "name": "G\u00f6ksu",
        "lat": "39.48906",
        "lng": "42.15127"
    },
    {
        "country": "TR",
        "name": "G\u00f6koglan",
        "lat": "39.54648",
        "lng": "41.30402"
    },
    {
        "country": "TR",
        "name": "G\u00f6kdere",
        "lat": "38.7428",
        "lng": "40.20815"
    },
    {
        "country": "TR",
        "name": "Ergama",
        "lat": "39.62712",
        "lng": "27.63139"
    },
    {
        "country": "TR",
        "name": "Menye",
        "lat": "38.57528",
        "lng": "28.48889"
    },
    {
        "country": "TR",
        "name": "G\u00f6k\u00e7en",
        "lat": "38.11367",
        "lng": "27.87144"
    },
    {
        "country": "TR",
        "name": "G\u00f6k\u00e7ekoru",
        "lat": "37.95621",
        "lng": "42.44971"
    },
    {
        "country": "TR",
        "name": "G\u00f6k\u00e7edag",
        "lat": "39.55832",
        "lng": "28.91911"
    },
    {
        "country": "TR",
        "name": "Civankan",
        "lat": "37.90339",
        "lng": "41.87752"
    },
    {
        "country": "TR",
        "name": "Selah",
        "lat": "37.20541",
        "lng": "40.69748"
    },
    {
        "country": "TR",
        "name": "G\u00f6kbudak",
        "lat": "37.90367",
        "lng": "42.64866"
    },
    {
        "country": "TR",
        "name": "G\u00f6\u00e7beyli",
        "lat": "39.22328",
        "lng": "27.40386"
    },
    {
        "country": "TR",
        "name": "Girmeli",
        "lat": "37.11106",
        "lng": "41.4196"
    },
    {
        "country": "TR",
        "name": "Geyikpinar",
        "lat": "38.31759",
        "lng": "41.82065"
    },
    {
        "country": "TR",
        "name": "Geyikli",
        "lat": "39.80472",
        "lng": "26.2075"
    },
    {
        "country": "TR",
        "name": "Gevas",
        "lat": "38.2921",
        "lng": "43.10189"
    },
    {
        "country": "TR",
        "name": "Gesi",
        "lat": "38.7918",
        "lng": "35.65923"
    },
    {
        "country": "TR",
        "name": "Germencik",
        "lat": "37.87056",
        "lng": "27.60283"
    },
    {
        "country": "TR",
        "name": "Geris",
        "lat": "36.9625",
        "lng": "31.73306"
    },
    {
        "country": "TR",
        "name": "Gerger",
        "lat": "37.95",
        "lng": "39.01667"
    },
    {
        "country": "TR",
        "name": "Gerdzhyush",
        "lat": "37.56249",
        "lng": "41.37753"
    },
    {
        "country": "TR",
        "name": "Gencek",
        "lat": "37.44984",
        "lng": "31.54588"
    },
    {
        "country": "TR",
        "name": "Gen\u00e7",
        "lat": "38.74773",
        "lng": "40.55343"
    },
    {
        "country": "TR",
        "name": "Gemerek",
        "lat": "39.18342",
        "lng": "36.07189"
    },
    {
        "country": "TR",
        "name": "Gelinkaya",
        "lat": "37.41683",
        "lng": "41.26994"
    },
    {
        "country": "TR",
        "name": "Gelendost",
        "lat": "38.12083",
        "lng": "31.01528"
    },
    {
        "country": "TR",
        "name": "Gelembe",
        "lat": "39.17872",
        "lng": "27.84848"
    },
    {
        "country": "TR",
        "name": "Gediz",
        "lat": "38.99389",
        "lng": "29.39131"
    },
    {
        "country": "TR",
        "name": "Gedikler",
        "lat": "39.08229",
        "lng": "38.80346"
    },
    {
        "country": "TR",
        "name": "Timar",
        "lat": "38.82865",
        "lng": "43.4333"
    },
    {
        "country": "TR",
        "name": "Gedikbasi",
        "lat": "39.48939",
        "lng": "38.24743"
    },
    {
        "country": "TR",
        "name": "Ge\u00e7itli",
        "lat": "37.58669",
        "lng": "43.56163"
    },
    {
        "country": "TR",
        "name": "Gebiz",
        "lat": "37.10417",
        "lng": "30.93778"
    },
    {
        "country": "TR",
        "name": "Gazipasa",
        "lat": "36.26942",
        "lng": "32.31792"
    },
    {
        "country": "TR",
        "name": "Gaziemir",
        "lat": "38.32392",
        "lng": "27.12918"
    },
    {
        "country": "TR",
        "name": "Gaziantep",
        "lat": "37.05944",
        "lng": "37.3825"
    },
    {
        "country": "TR",
        "name": "Fo\u00e7a",
        "lat": "38.6703",
        "lng": "26.75656"
    },
    {
        "country": "TR",
        "name": "Finike",
        "lat": "36.295",
        "lng": "30.14056"
    },
    {
        "country": "TR",
        "name": "Findik",
        "lat": "37.51317",
        "lng": "41.96418"
    },
    {
        "country": "TR",
        "name": "Fevzipasa",
        "lat": "37.09418",
        "lng": "36.63719"
    },
    {
        "country": "TR",
        "name": "Fethiye",
        "lat": "36.64038",
        "lng": "29.12758"
    },
    {
        "country": "TR",
        "name": "Felahiye",
        "lat": "39.09056",
        "lng": "35.56722"
    },
    {
        "country": "TR",
        "name": "Feke",
        "lat": "37.81446",
        "lng": "35.91233"
    },
    {
        "country": "TR",
        "name": "Ezine",
        "lat": "39.78561",
        "lng": "26.34083"
    },
    {
        "country": "TR",
        "name": "Eymirli",
        "lat": "37.1703",
        "lng": "40.68684"
    },
    {
        "country": "TR",
        "name": "Evciler",
        "lat": "39.77556",
        "lng": "26.77167"
    },
    {
        "country": "TR",
        "name": "Evciler",
        "lat": "38.04139",
        "lng": "29.88667"
    },
    {
        "country": "TR",
        "name": "Etimesgut",
        "lat": "39.95328",
        "lng": "32.63285"
    },
    {
        "country": "TR",
        "name": "Etili",
        "lat": "39.98556",
        "lng": "26.89667"
    },
    {
        "country": "TR",
        "name": "Esme",
        "lat": "38.39976",
        "lng": "28.96905"
    },
    {
        "country": "TR",
        "name": "Esme",
        "lat": "37.15569",
        "lng": "40.64142"
    },
    {
        "country": "TR",
        "name": "Eskisehir",
        "lat": "39.77667",
        "lng": "30.52056"
    },
    {
        "country": "TR",
        "name": "Eskil",
        "lat": "38.40167",
        "lng": "33.41306"
    },
    {
        "country": "TR",
        "name": "Esendere",
        "lat": "37.71144",
        "lng": "44.60099"
    },
    {
        "country": "TR",
        "name": "Esen",
        "lat": "36.4548",
        "lng": "29.28154"
    },
    {
        "country": "TR",
        "name": "Erzurum",
        "lat": "39.90861",
        "lng": "41.27694"
    },
    {
        "country": "TR",
        "name": "Erzincan",
        "lat": "39.73919",
        "lng": "39.49015"
    },
    {
        "country": "TR",
        "name": "Eruh",
        "lat": "37.74183",
        "lng": "42.17422"
    },
    {
        "country": "TR",
        "name": "Ertugrul",
        "lat": "39.57578",
        "lng": "27.70672"
    },
    {
        "country": "TR",
        "name": "Ermenek",
        "lat": "36.64043",
        "lng": "32.89179"
    },
    {
        "country": "TR",
        "name": "Erk\u00f6kl\u00fc",
        "lat": "37.86182",
        "lng": "41.14413"
    },
    {
        "country": "TR",
        "name": "Erkilet",
        "lat": "38.82043",
        "lng": "35.44011"
    },
    {
        "country": "TR",
        "name": "Ergani",
        "lat": "38.26899",
        "lng": "39.75446"
    },
    {
        "country": "TR",
        "name": "Erentepe",
        "lat": "39.00893",
        "lng": "42.04364"
    },
    {
        "country": "TR",
        "name": "Eregli",
        "lat": "37.51333",
        "lng": "34.04672"
    },
    {
        "country": "TR",
        "name": "Erdemli",
        "lat": "36.60498",
        "lng": "34.30836"
    },
    {
        "country": "TR",
        "name": "Ercis",
        "lat": "39.02587",
        "lng": "43.35964"
    },
    {
        "country": "TR",
        "name": "Er\u00e7ek",
        "lat": "38.65107",
        "lng": "43.64401"
    },
    {
        "country": "TR",
        "name": "Bulucan",
        "lat": "39.7025",
        "lng": "37.75972"
    },
    {
        "country": "TR",
        "name": "Emirgazi",
        "lat": "37.90222",
        "lng": "33.83722"
    },
    {
        "country": "TR",
        "name": "Emirdag",
        "lat": "39.01972",
        "lng": "31.15"
    },
    {
        "country": "TR",
        "name": "Emiralem",
        "lat": "38.60971",
        "lng": "27.14588"
    },
    {
        "country": "TR",
        "name": "Emet",
        "lat": "39.343",
        "lng": "29.25847"
    },
    {
        "country": "TR",
        "name": "Elvanli",
        "lat": "36.70401",
        "lng": "34.37374"
    },
    {
        "country": "TR",
        "name": "G\u00fcneysinir",
        "lat": "37.26944",
        "lng": "32.72898"
    },
    {
        "country": "TR",
        "name": "Elmali",
        "lat": "36.73583",
        "lng": "29.91775"
    },
    {
        "country": "TR",
        "name": "Elmadag",
        "lat": "39.92083",
        "lng": "33.23083"
    },