[
    {
        "country": "VN",
        "name": "Y\u00ean Vinh",
        "lat": "18.66667",
        "lng": "105.66667"
    },
    {
        "country": "VN",
        "name": "Y\u00ean Th\u00e0nh",
        "lat": "18.99856",
        "lng": "105.47116"
    },
    {
        "country": "VN",
        "name": "Y\u00ean Ninh",
        "lat": "20.18396",
        "lng": "106.06121"
    },
    {
        "country": "VN",
        "name": "Th? Tr?n Y\u00ean Minh",
        "lat": "23.11792",
        "lng": "105.14159"
    },
    {
        "country": "VN",
        "name": "Y?n L?c",
        "lat": "22.23693",
        "lng": "106.18149"
    },
    {
        "country": "VN",
        "name": "Y\u00ean L?c",
        "lat": "21.23646",
        "lng": "105.57297"
    },
    {
        "country": "VN",
        "name": "Y\u00ean Ch\u00e2u",
        "lat": "21.04584",
        "lng": "104.30101"
    },
    {
        "country": "VN",
        "name": "Y\u00ean B\u00e1i",
        "lat": "21.72288",
        "lng": "104.9113"
    },
    {
        "country": "VN",
        "name": "Cai Doi Vam",
        "lat": "8.85707",
        "lng": "104.81199"
    },
    {
        "country": "VN",
        "name": "Tr?ng Bom",
        "lat": "10.95358",
        "lng": "107.00589"
    },
    {
        "country": "VN",
        "name": "Gia Ray",
        "lat": "10.92615",
        "lng": "107.40172"
    },
    {
        "country": "VN",
        "name": "Vung T\u00e0u",
        "lat": "10.34599",
        "lng": "107.08426"
    },
    {
        "country": "VN",
        "name": "Vung Li\u00eam",
        "lat": "10.09576",
        "lng": "106.18548"
    },
    {
        "country": "VN",
        "name": "V? B?n",
        "lat": "20.4642",
        "lng": "105.44348"
    },
    {
        "country": "VN",
        "name": "V\u00f5 Xu",
        "lat": "11.18691",
        "lng": "107.56025"
    },
    {
        "country": "VN",
        "name": "V? Thanh",
        "lat": "9.78449",
        "lng": "105.47012"
    },
    {
        "country": "VN",
        "name": "Vinh Y\u00ean",
        "lat": "21.30891",
        "lng": "105.60489"
    },
    {
        "country": "VN",
        "name": "Th? Tr?n Vinh Tuy",
        "lat": "22.27441",
        "lng": "104.89091"
    },
    {
        "country": "VN",
        "name": "Vinh Thu?n",
        "lat": "9.50802",
        "lng": "105.25747"
    },
    {
        "country": "VN",
        "name": "Vinh Th?nh",
        "lat": "14.10884",
        "lng": "108.78381"
    },
    {
        "country": "VN",
        "name": "Vinh Long",
        "lat": "10.25369",
        "lng": "105.9722"
    },
    {
        "country": "VN",
        "name": "Vinh L?c",
        "lat": "20.05438",
        "lng": "105.61567"
    },
    {
        "country": "VN",
        "name": "Vinh Ch\u00e2u",
        "lat": "9.32439",
        "lng": "105.98006"
    },
    {
        "country": "VN",
        "name": "Vinh B\u00ecnh",
        "lat": "10.34498",
        "lng": "106.58056"
    },
    {
        "country": "VN",
        "name": "Vinh",
        "lat": "18.67337",
        "lng": "105.69232"
    },
    {
        "country": "VN",
        "name": "Vi?t Tr\u00ec",
        "lat": "21.32274",
        "lng": "105.40198"
    },
    {
        "country": "VN",
        "name": "Van Quan",
        "lat": "21.86516",
        "lng": "106.53925"
    },
    {
        "country": "VN",
        "name": "V?n Gi\u00e3",
        "lat": "12.69203",
        "lng": "109.22069"
    },
    {
        "country": "VN",
        "name": "V\u00e2n \u00d0\u00ecnh",
        "lat": "20.73514",
        "lng": "105.77236"
    },
    {
        "country": "VN",
        "name": "Van \u00d0i?n",
        "lat": "20.9463",
        "lng": "105.845"
    },
    {
        "country": "VN",
        "name": "V\u00e2n Canh",
        "lat": "13.61945",
        "lng": "108.99805"
    },
    {
        "country": "VN",
        "name": "Th\u00e0nh Ph? U\u00f4ng B\u00ed",
        "lat": "21.03433",
        "lng": "106.77049"
    },
    {
        "country": "VN",
        "name": "Tuy Phu?c",
        "lat": "13.82738",
        "lng": "109.16651"
    },
    {
        "country": "VN",
        "name": "Tuy H\u00f2a",
        "lat": "13.09546",
        "lng": "109.32094"
    },
    {
        "country": "VN",
        "name": "Th\u00e0nh Ph? Tuy\u00ean Quang",
        "lat": "21.82356",
        "lng": "105.21424"
    },
    {
        "country": "VN",
        "name": "H\u00f2a B\u00ecnh",
        "lat": "19.26393",
        "lng": "104.47232"
    },
    {
        "country": "VN",
        "name": "Tu Nghia",
        "lat": "15.08451",
        "lng": "108.826"
    },
    {
        "country": "VN",
        "name": "Th? Tr?n Tr\u00f9ng Kh\u00e1nh",
        "lat": "22.83514",
        "lng": "106.52496"
    },
    {
        "country": "VN",
        "name": "Tri T\u00f4n",
        "lat": "10.4202",
        "lng": "105.00073"
    },
    {
        "country": "VN",
        "name": "Tr\u00e0 Vinh",
        "lat": "9.94719",
        "lng": "106.34225"
    },
    {
        "country": "VN",
        "name": "Tr\u00e0 \u00d4n",
        "lat": "9.96261",
        "lng": "105.92168"
    },
    {
        "country": "VN",
        "name": "Tr?ng B\u00e0ng",
        "lat": "11.02987",
        "lng": "106.35751"
    },
    {
        "country": "VN",
        "name": "Th? Tr?n Tr?m T?u",
        "lat": "21.46659",
        "lng": "104.37966"
    },
    {
        "country": "VN",
        "name": "Tr\u00e0 My",
        "lat": "15.33965",
        "lng": "108.22065"
    },
    {
        "country": "VN",
        "name": "Tr\u00e0m Chim",
        "lat": "10.67001",
        "lng": "105.56469"
    },
    {
        "country": "VN",
        "name": "Tr\u00e0 C\u00fa",
        "lat": "9.69774",
        "lng": "106.25834"
    },
    {
        "country": "VN",
        "name": "Tr\u00e0 B?ng",
        "lat": "15.25569",
        "lng": "108.51722"
    },
    {
        "country": "VN",
        "name": "Tinh Gia",
        "lat": "19.44645",
        "lng": "105.77861"
    },
    {
        "country": "VN",
        "name": "Ti?u C?n",
        "lat": "9.81166",
        "lng": "106.19067"
    },
    {
        "country": "VN",
        "name": "Ti\u00ean Phu?c",
        "lat": "15.48819",
        "lng": "108.30736"
    },
    {
        "country": "VN",
        "name": "Th? Th?a",
        "lat": "10.60232",
        "lng": "106.40207"
    },
    {
        "country": "VN",
        "name": "Thu?ng Xu\u00e2n",
        "lat": "19.90294",
        "lng": "105.34723"
    },
    {
        "country": "VN",
        "name": "Th? \u00d0?c",
        "lat": "10.84863",
        "lng": "106.77209"
    },
    {
        "country": "VN",
        "name": "Th? D?u M?t",
        "lat": "10.9804",
        "lng": "106.6519"
    },
    {
        "country": "VN",
        "name": "Th? Xu\u00e2n",
        "lat": "19.93133",
        "lng": "105.52179"
    },
    {
        "country": "VN",
        "name": "Th?t N?t",
        "lat": "10.27213",
        "lng": "105.5338"
    },
    {
        "country": "VN",
        "name": "Th?i Lai",
        "lat": "10.06522",
        "lng": "105.55863"
    },
    {
        "country": "VN",
        "name": "Th?i B\u00ecnh",
        "lat": "9.35584",
        "lng": "105.09929"
    },
    {
        "country": "VN",
        "name": "\u00c1i T?",
        "lat": "16.76886",
        "lng": "107.16504"
    },
    {
        "country": "VN",
        "name": "Th? Tr?n Th?t Kh\u00ea",
        "lat": "22.25525",
        "lng": "106.47359"
    },
    {
        "country": "VN",
        "name": "Than Uy\u00ean",
        "lat": "21.95907",
        "lng": "103.88001"
    },
    {
        "country": "VN",
        "name": "Ph\u00fa L?c",
        "lat": "9.42838",
        "lng": "105.74111"
    },
    {
        "country": "VN",
        "name": "Thanh Son",
        "lat": "21.19867",
        "lng": "105.17892"
    },
    {
        "country": "VN",
        "name": "Th?nh Ph\u00fa",
        "lat": "9.94827",
        "lng": "106.51629"
    },
    {
        "country": "VN",
        "name": "Ho Chi Minh City",
        "lat": "10.82302",
        "lng": "106.62965"
    },
    {
        "country": "VN",
        "name": "Thanh N\u00ea",
        "lat": "20.3881",
        "lng": "106.43834"
    },
    {
        "country": "VN",
        "name": "Thanh H\u00f3a",
        "lat": "19.8",
        "lng": "105.76667"
    },
    {
        "country": "VN",
        "name": "Thanh Chuong",
        "lat": "18.77877",
        "lng": "105.33356"
    },
    {
        "country": "VN",
        "name": "Thanh B\u00ecnh",
        "lat": "10.5619",
        "lng": "105.48411"
    },
    {
        "country": "VN",
        "name": "Th\u00e0nh Ph? Th\u00e1i Nguy\u00ean",
        "lat": "21.59422",
        "lng": "105.84817"
    },
    {
        "country": "VN",
        "name": "Th\u00e0nh Ph? Th\u00e1i B\u00ecnh",
        "lat": "20.45",
        "lng": "106.34002"
    },
    {
        "country": "VN",
        "name": "Kim T\u00e2n",
        "lat": "20.13053",
        "lng": "105.67454"
    },
    {
        "country": "VN",
        "name": "Th?ch H\u00e0",
        "lat": "18.36788",
        "lng": "105.86122"
    },
    {
        "country": "VN",
        "name": "T\u00e2y Ninh",
        "lat": "11.31004",
        "lng": "106.09828"
    },
    {
        "country": "VN",
        "name": "T\u00e2y H?",
        "lat": "21.06895",
        "lng": "105.81053"
    },
    {
        "country": "VN",
        "name": "T\u00e2y \u00d0?ng",
        "lat": "21.19809",
        "lng": "105.42217"
    },
    {
        "country": "VN",
        "name": "\u00d0?m Doi",
        "lat": "8.99214",
        "lng": "105.19602"
    },
    {
        "country": "VN",
        "name": "T\u00e2n K?",
        "lat": "19.04756",
        "lng": "105.26807"
    },
    {
        "country": "VN",
        "name": "T\u00e1nh Linh",
        "lat": "11.08421",
        "lng": "107.68095"
    },
    {
        "country": "VN",
        "name": "T\u00e2n Hi?p",
        "lat": "10.44905",
        "lng": "106.34386"
    },
    {
        "country": "VN",
        "name": "T\u00e2n Hi?p",
        "lat": "10.11709",
        "lng": "105.28578"
    },
    {
        "country": "VN",
        "name": "T\u00e2n Ch\u00e2u",
        "lat": "10.79832",
        "lng": "105.23887"
    },
    {
        "country": "VN",
        "name": "T\u00e2n An",
        "lat": "10.53589",
        "lng": "106.41366"
    },
    {
        "country": "VN",
        "name": "Tam K?",
        "lat": "15.57364",
        "lng": "108.47403"
    },
    {
        "country": "VN",
        "name": "Trai Ngau",
        "lat": "21.39324",
        "lng": "105.61441"
    },
    {
        "country": "VN",
        "name": "Tam B\u00ecnh",
        "lat": "10.04811",
        "lng": "106.00017"
    },
    {
        "country": "VN",
        "name": "Th? Tr?n T\u00e0 L\u00f9ng",
        "lat": "22.4979",
        "lng": "106.5669"
    },
    {
        "country": "VN",
        "name": "Son T?nh",
        "lat": "15.15856",
        "lng": "108.79582"
    },
    {
        "country": "VN",
        "name": "Son T\u00e2y",
        "lat": "21.14053",
        "lng": "105.50686"
    },
    {
        "country": "VN",
        "name": "Son H\u00e0",
        "lat": "15.04193",
        "lng": "108.46973"
    },
    {
        "country": "VN",
        "name": "Son Duong",
        "lat": "21.69676",
        "lng": "105.39901"
    },
    {
        "country": "VN",
        "name": "Son La",
        "lat": "21.3256",
        "lng": "103.91882"
    },
    {
        "country": "VN",
        "name": "S\u00f4ng M\u00e3",
        "lat": "21.05091",
        "lng": "103.74987"
    },
    {
        "country": "VN",
        "name": "S\u00f4ng C?u",
        "lat": "13.4556",
        "lng": "109.22348"
    },
    {
        "country": "VN",
        "name": "S\u00f3c Trang",
        "lat": "9.59995",
        "lng": "105.97193"
    },
    {
        "country": "VN",
        "name": "Th? Tr?n S\u00ecn H?",
        "lat": "22.36647",
        "lng": "103.23438"
    },
    {
        "country": "VN",
        "name": "Si Ma Cai",
        "lat": "22.6951",
        "lng": "104.27857"
    },
    {
        "country": "VN",
        "name": "Sa P\u00e1",
        "lat": "22.34023",
        "lng": "103.84415"
    },
    {
        "country": "VN",
        "name": "Sa Dec",
        "lat": "10.29085",
        "lng": "105.75635"
    },
    {
        "country": "VN",
        "name": "R?ch Gi\u00e1",
        "lat": "10.01245",
        "lng": "105.08091"
    },
    {
        "country": "VN",
        "name": "Mu?ng Chi\u00ean",
        "lat": "21.8424",
        "lng": "103.56608"
    },
    {
        "country": "VN",
        "name": "Qu?nh C\u00f4i",
        "lat": "20.66192",
        "lng": "106.32744"
    },
    {
        "country": "VN",
        "name": "Qui Nhon",
        "lat": "13.77648",
        "lng": "109.22367"
    },
    {
        "country": "VN",
        "name": "Qu? H?p",
        "lat": "19.32546",
        "lng": "105.18251"
    },
    {
        "country": "VN",
        "name": "Oui Dat",
        "lat": "17.80459",
        "lng": "105.97044"
    },
    {
        "country": "VN",
        "name": "Qu? Ch\u00e2u",
        "lat": "19.55206",
        "lng": "105.09387"
    },
    {
        "country": "VN",
        "name": "Qu? Son",
        "lat": "15.67356",
        "lng": "108.2201"
    },
    {
        "country": "VN",
        "name": "Kim Son",
        "lat": "19.60409",
        "lng": "104.91903"
    },
    {
        "country": "VN",
        "name": "Quan H\u00f3a",
        "lat": "20.38481",
        "lng": "105.10024"
    },
    {
        "country": "VN",
        "name": "Qu?ng Y\u00ean",
        "lat": "20.9421",
        "lng": "106.8027"
    },
    {
        "country": "VN",
        "name": "Th? Tr?n Qu?ng Uy\u00ean",
        "lat": "22.69499",
        "lng": "106.44235"
    },
    {
        "country": "VN",
        "name": "Ba \u00d0?n",
        "lat": "17.75353",
        "lng": "106.42355"
    },
    {
        "country": "VN",
        "name": "Qu\u00e1n H\u00e0u",
        "lat": "17.40438",
        "lng": "106.64072"
    },
    {
        "country": "VN",
        "name": "Qu?ng Ng\u00e3i",
        "lat": "15.12047",
        "lng": "108.79232"
    },
    {
        "country": "VN",
        "name": "Plei K?n",
        "lat": "14.70495",
        "lng": "107.6862"
    },
    {
        "country": "VN",
        "name": "Pleiku",
        "lat": "13.98333",
        "lng": "108"
    },
    {
        "country": "VN",
        "name": "Ph\u00f9 Y\u00ean",
        "lat": "21.26331",
        "lng": "104.64439"
    },
    {
        "country": "VN",
        "name": "Ph\u00fa Vang",
        "lat": "16.43911",
        "lng": "107.71438"
    },
    {
        "country": "VN",
        "name": "Ph\u00fa T\u00fac",
        "lat": "13.19682",
        "lng": "108.69043"
    },
    {
        "country": "VN",
        "name": "Ph? Th\u00f4ng",
        "lat": "22.27314",
        "lng": "105.87943"
    },
    {
        "country": "VN",
        "name": "Ph\u00fa Th?",
        "lat": "21.39963",
        "lng": "105.22221"
    },
    {
        "country": "VN",
        "name": "Duong \u00d0\u00f4ng",
        "lat": "10.21716",
        "lng": "103.95929"
    },
    {
        "country": "VN",
        "name": "Ph\u00fa Phong",
        "lat": "13.90964",
        "lng": "108.91903"
    },
    {
        "country": "VN",
        "name": "Phu?c An",
        "lat": "12.71298",
        "lng": "108.30148"
    },
    {
        "country": "VN",
        "name": "Ph\u00f9 Ninh",
        "lat": "21.08333",
        "lng": "105.95"
    },
    {
        "country": "VN",
        "name": "Ph?ng Hi?p",
        "lat": "9.77972",
        "lng": "105.7338"
    },
    {
        "country": "VN",
        "name": "Ph\u00f9 M?",
        "lat": "14.17182",
        "lng": "109.04888"
    },
    {
        "country": "VN",
        "name": "Th\u00e0nh Ph? Ph? L\u00fd",
        "lat": "20.54531",
        "lng": "105.91221"
    },
    {
        "country": "VN",
        "name": "Ph\u00fa L?c",
        "lat": "16.28035",
        "lng": "107.85898"
    },
    {
        "country": "VN",
        "name": "Ph\u00fa Khuong",
        "lat": "11.28333",
        "lng": "106.13333"
    },
    {
        "country": "VN",
        "name": "Ph\u00fac Y\u00ean",
        "lat": "21.23695",
        "lng": "105.70483"
    },
    {
        "country": "VN",
        "name": "Ph\u00f9 C\u00e1t",
        "lat": "14.00316",
        "lng": "109.05804"
    },
    {
        "country": "VN",
        "name": "Phong Th?",
        "lat": "22.54433",
        "lng": "103.29776"
    },
    {
        "country": "VN",
        "name": "Phong \u00d0i?n",
        "lat": "16.58321",
        "lng": "107.36438"
    },
    {
        "country": "VN",
        "name": "Phong \u00d0i?n",
        "lat": "9.99753",
        "lng": "105.6673"
    },
    {
        "country": "VN",
        "name": "Th? Tr?n Ph? Lu",
        "lat": "22.31918",
        "lng": "104.18719"
    },
    {
        "country": "VN",
        "name": "Ph? Ch\u00e2u",
        "lat": "18.51335",
        "lng": "105.42411"
    },
    {
        "country": "VN",
        "name": "B?n Sung",
        "lat": "19.63141",
        "lng": "105.57815"
    },
    {
        "country": "VN",
        "name": "Ph\u00e1t Di?m",
        "lat": "20.09054",
        "lng": "106.08323"
    },
    {
        "country": "VN",
        "name": "Phan Thi?t",
        "lat": "10.92889",
        "lng": "108.10208"
    },
    {
        "country": "VN",
        "name": "Phan Rang-Th\u00e1p Ch\u00e0m",
        "lat": "11.56432",
        "lng": "108.98858"
    },
    {
        "country": "VN",
        "name": "\u00d4 M\u00f4n",
        "lat": "10.10974",
        "lng": "105.62318"
    },
    {
        "country": "VN",
        "name": "Th? Tr?n Nu?c Hai",
        "lat": "22.73738",
        "lng": "106.15216"
    },
    {
        "country": "VN",
        "name": "N\u00fai \u00d0\u00e8o",
        "lat": "20.91569",
        "lng": "106.6744"
    },
    {
        "country": "VN",
        "name": "Ninh H\u00f2a",
        "lat": "12.49187",
        "lng": "109.12495"
    },
    {
        "country": "VN",
        "name": "Ninh Giang",
        "lat": "20.73083",
        "lng": "106.39789"
    },
    {
        "country": "VN",
        "name": "Th\u00e0nh Ph? Ninh B\u00ecnh",
        "lat": "20.25809",
        "lng": "105.97965"
    },
    {
        "country": "VN",
        "name": "Nhu Qu?nh",
        "lat": "20.98167",
        "lng": "105.98486"
    },
    {
        "country": "VN",
        "name": "Nho Quan",
        "lat": "20.32279",
        "lng": "105.75189"
    },
    {
        "country": "VN",
        "name": "Nhon Tr?ch",
        "lat": "10.72294",
        "lng": "106.88341"
    },
    {
        "country": "VN",
        "name": "Nha Trang",
        "lat": "12.24507",
        "lng": "109.19432"
    },
    {
        "country": "VN",
        "name": "Nh\u00e0 B\u00e8",
        "lat": "10.69672",
        "lng": "106.74032"
    },
    {
        "country": "VN",
        "name": "Nh\u00e0 B\u00e0ng",
        "lat": "10.62502",
        "lng": "105.00854"
    },
    {
        "country": "VN",
        "name": "Th? Tr?n Nguy\u00ean B\u00ecnh",
        "lat": "22.64995",
        "lng": "105.95985"
    },
    {
        "country": "VN",
        "name": "Ng\u00f4 \u00d0?ng",
        "lat": "20.28296",
        "lng": "106.44347"
    },
    {
        "country": "VN",
        "name": "Ng?c L?c",
        "lat": "20.09189",
        "lng": "105.36761"
    },
    {
        "country": "VN",
        "name": "Ti?n H?i",
        "lat": "20.40557",
        "lng": "106.50365"
    },
    {
        "country": "VN",
        "name": "Nghi Xu\u00e2n",
        "lat": "18.66206",
        "lng": "105.75575"
    },
    {
        "country": "VN",
        "name": "Qu\u00e1n H\u00e0nh",
        "lat": "18.77927",
        "lng": "105.64597"
    },
    {
        "country": "VN",
        "name": "Nghia H\u00e0nh",
        "lat": "15.04568",
        "lng": "108.77724"
    },
    {
        "country": "VN",
        "name": "Nga Son",
        "lat": "20.00722",
        "lng": "105.97044"
    },
    {
        "country": "VN",
        "name": "V\u00e2n T\u00f9ng",
        "lat": "22.43082",
        "lng": "105.99687"
    },
    {
        "country": "VN",
        "name": "Th? Tr?n Ng?i Giao",
        "lat": "10.6471",
        "lng": "107.24577"
    },
    {
        "country": "VN",
        "name": "Th? Tr?n Na S?m",
        "lat": "22.05639",
        "lng": "106.6151"
    },
    {
        "country": "VN",
        "name": "Th\u00e0nh Ph? Nam \u00d0?nh",
        "lat": "20.43389",
        "lng": "106.17729"
    },
    {
        "country": "VN",
        "name": "Nam \u00d0\u00e0n",
        "lat": "18.69799",
        "lng": "105.49881"
    },
    {
        "country": "VN",
        "name": "Nam Can",
        "lat": "8.75899",
        "lng": "104.99285"
    },
    {
        "country": "VN",
        "name": "M? Xuy\u00ean",
        "lat": "9.56006",
        "lng": "105.98984"
    },
    {
        "country": "VN",
        "name": "M? Tho",
        "lat": "10.36004",
        "lng": "106.35996"
    },
    {
        "country": "VN",
        "name": "M? Th?",
        "lat": "10.44267",
        "lng": "105.69508"
    },
    {
        "country": "VN",
        "name": "M? L?c",
        "lat": "20.44111",
        "lng": "106.10238"
    },
    {
        "country": "VN",
        "name": "Th?nh M?",
        "lat": "15.74889",
        "lng": "107.83678"
    },
    {
        "country": "VN",
        "name": "Mu?ng Nh\u00e9",
        "lat": "22.19236",
        "lng": "102.4579"
    },
    {
        "country": "VN",
        "name": "Th? Tr?n Mu?ng Khuong",
        "lat": "22.76141",
        "lng": "104.12156"
    },
    {
        "country": "VN",
        "name": "Mu?ng L\u00e1t",
        "lat": "20.52915",
        "lng": "104.60138"
    },
    {
        "country": "VN",
        "name": "M\u00f9 Cang Ch?i",
        "lat": "21.85125",
        "lng": "104.08954"
    },
    {
        "country": "VN",
        "name": "M\u00f3ng C\u00e1i",
        "lat": "21.52471",
        "lng": "107.96619"
    },
    {
        "country": "VN",
        "name": "M? \u00d0?c",
        "lat": "14.95513",
        "lng": "108.88586"
    },
    {
        "country": "VN",
        "name": "M?c Ch\u00e2u",
        "lat": "20.85199",
        "lng": "104.62177"
    },
    {
        "country": "VN",
        "name": "M? C\u00e0y",
        "lat": "10.13312",
        "lng": "106.33519"
    },
    {
        "country": "VN",
        "name": "Minh Luong",
        "lat": "9.90248",
        "lng": "105.1595"
    },
    {
        "country": "VN",
        "name": "Minh Long",
        "lat": "14.93218",
        "lng": "108.70328"
    },
    {
        "country": "VN",
        "name": "Th? Tr?n M\u00e8o V?c",
        "lat": "23.16411",
        "lng": "105.40993"
    },
    {
        "country": "VN",
        "name": "Ma \u00d0a Gui",
        "lat": "11.38702",
        "lng": "107.53508"
    },
    {
        "country": "VN",
        "name": "Long Xuy\u00ean",
        "lat": "10.38639",
        "lng": "105.43518"
    },
    {
        "country": "VN",
        "name": "Long Th\u00e0nh",
        "lat": "10.78909",
        "lng": "106.95029"
    },
    {
        "country": "VN",
        "name": "Long Ph\u00fa",
        "lat": "9.61025",
        "lng": "106.11881"
    },
    {
        "country": "VN",
        "name": "Long M?",
        "lat": "9.68141",
        "lng": "105.57226"
    },
    {
        "country": "VN",
        "name": "L?c Ninh",
        "lat": "11.84476",
        "lng": "106.59073"
    },
    {
        "country": "VN",
        "name": "L?c B\u00ecnh",
        "lat": "21.75873",
        "lng": "106.92335"
    },
    {
        "country": "VN",
        "name": "Lien De",
        "lat": "20.22095",
        "lng": "106.18747"
    },
    {
        "country": "VN",
        "name": "Li\u00ean Huong",
        "lat": "11.22761",
        "lng": "108.72366"
    },
    {
        "country": "VN",
        "name": "Ki?n Giang",
        "lat": "17.22328",
        "lng": "106.79011"
    },
    {
        "country": "VN",
        "name": "L?p V\u00f2",
        "lat": "10.36161",
        "lng": "105.51924"
    },
    {
        "country": "VN",
        "name": "Lao Ch?i",
        "lat": "22.31377",
        "lng": "103.86844"
    },
    {
        "country": "VN",
        "name": "L\u00e0o Cai",
        "lat": "22.48556",
        "lng": "103.97066"
    },
    {
        "country": "VN",
        "name": "Th\u00e0nh Ph? L?ng Son",
        "lat": "21.85264",
        "lng": "106.76101"
    },
    {
        "country": "VN",
        "name": "Th? Tr?n Phu?c B?u",
        "lat": "10.53472",
        "lng": "107.40202"
    },
    {
        "country": "VN",
        "name": "Lung H?",
        "lat": "22.98479",
        "lng": "105.23983"
    },
    {
        "country": "VN",
        "name": "Lang Ch\u00e1nh",
        "lat": "20.15611",
        "lng": "105.24223"
    },
    {
        "country": "VN",
        "name": "Lai Vung",
        "lat": "10.28701",
        "lng": "105.6617"
    },
    {
        "country": "VN",
        "name": "L\u00e1i Thi\u00eau",
        "lat": "10.90512",
        "lng": "106.69949"
    },
    {
        "country": "VN",
        "name": "Lai C\u00e1ch",
        "lat": "20.93252",
        "lng": "106.24756"
    },
    {
        "country": "VN",
        "name": "La Gi",
        "lat": "10.65993",
        "lng": "107.77206"
    },
    {
        "country": "VN",
        "name": "L?k",
        "lat": "12.41086",
        "lng": "108.17682"
    },
    {
        "country": "VN",
        "name": "L?c Duong",
        "lat": "12.00405",
        "lng": "108.41905"
    },
    {
        "country": "VN",
        "name": "Mu?ng X\u00e9n",
        "lat": "19.39795",
        "lng": "104.15239"
    },
    {
        "country": "VN",
        "name": "K? Anh",
        "lat": "18.06243",
        "lng": "106.29832"
    },
    {
        "country": "VN",
        "name": "Kon Tum",
        "lat": "14.35451",
        "lng": "108.00759"
    },
    {
        "country": "VN",
        "name": "Kinh M\u00f4n",
        "lat": "20.98962",
        "lng": "106.5551"
    },
    {
        "country": "VN",
        "name": "Kim B\u00e0i",
        "lat": "20.85265",
        "lng": "105.76963"
    },
    {
        "country": "VN",
        "name": "Ki\u00ean Luong",
        "lat": "10.28624",
        "lng": "104.64616"
    },
    {
        "country": "VN",
        "name": "Khe Sanh",
        "lat": "16.62825",
        "lng": "106.73884"
    },
    {
        "country": "VN",
        "name": "Th? Tr?n Kh\u00e1nh Y\u00ean",
        "lat": "22.08935",
        "lng": "104.25149"
    },
    {
        "country": "VN",
        "name": "K? S?t",
        "lat": "20.91007",
        "lng": "106.14771"
    },
    {
        "country": "VN",
        "name": "K? S\u00e1ch",
        "lat": "9.76743",
        "lng": "105.98574"
    },
    {
        "country": "VN",
        "name": "H?u Lung",
        "lat": "21.5056",
        "lng": "106.34459"
    },
    {
        "country": "VN",
        "name": "Huong Tr\u00e0",
        "lat": "16.52539",
        "lng": "107.4755"
    },
    {
        "country": "VN",
        "name": "Huong Kh\u00ea",
        "lat": "18.17669",
        "lng": "105.70019"
    },
    {
        "country": "VN",
        "name": "Huong Canh",
        "lat": "21.27882",
        "lng": "105.64697"
    },
    {
        "country": "VN",
        "name": "Hung Y\u00ean",
        "lat": "20.64637",
        "lng": "106.05112"
    },
    {
        "country": "VN",
        "name": "Hu?",
        "lat": "16.4619",
        "lng": "107.59546"
    },
    {
        "country": "VN",
        "name": "H? X\u00e1",
        "lat": "17.06836",
        "lng": "107.0052"
    },
    {
        "country": "VN",
        "name": "B\u00ecnh Long",
        "lat": "11.64711",
        "lng": "106.60586"
    },
    {
        "country": "VN",
        "name": "Th\u00e0nh Ph? H? Long",
        "lat": "20.95045",
        "lng": "107.07336"
    },
    {
        "country": "VN",
        "name": "Ngoc Hon Doc",
        "lat": "10.18462",
        "lng": "104.92959"
    },
    {
        "country": "VN",
        "name": "H?i An",
        "lat": "15.87944",
        "lng": "108.335"
    },
    {
        "country": "VN",
        "name": "H\u00f3c M\u00f4n",
        "lat": "10.8891",
        "lng": "106.59533"
    },
    {
        "country": "VN",
        "name": "H\u00f2a Vang",
        "lat": "15.98764",
        "lng": "108.13893"
    },
    {
        "country": "VN",
        "name": "H\u00f2a M?c",
        "lat": "20.64173",
        "lng": "105.989"
    },
    {
        "country": "VN",
        "name": "Ho\u00e0i \u00c2n",
        "lat": "14.36352",
        "lng": "108.96476"
    },
    {
        "country": "VN",
        "name": "Th\u00e0nh Ph? H\u00f2a B\u00ecnh",
        "lat": "20.81717",
        "lng": "105.33759"
    },
    {
        "country": "VN",
        "name": "Doug An",
        "lat": "15.58224",
        "lng": "108.11422"
    },
    {
        "country": "VN",
        "name": "H\u00e0 Tinh",
        "lat": "18.34282",
        "lng": "105.90569"
    },
    {
        "country": "VN",
        "name": "H\u00e0 Ti\u00ean",
        "lat": "10.3831",
        "lng": "104.48753"
    },
    {
        "country": "VN",
        "name": "Hanoi",
        "lat": "21.0245",
        "lng": "105.84117"
    },
    {
        "country": "VN",
        "name": "Th? Tr?n Thanh Nh?t",
        "lat": "22.68749",
        "lng": "106.67004"
    },
    {
        "country": "VN",
        "name": "H\u00e0 Lam",
        "lat": "15.73871",
        "lng": "108.35062"
    },
    {
        "country": "VN",
        "name": "Haiphong",
        "lat": "20.86481",
        "lng": "106.68345"
    },
    {
        "country": "VN",
        "name": "H?i Lang",
        "lat": "16.69347",
        "lng": "107.25124"
    },
    {
        "country": "VN",
        "name": "Th\u00e0nh Ph? H?i Duong",
        "lat": "20.94099",
        "lng": "106.33302"
    },
    {
        "country": "VN",
        "name": "H? H\u00f2a",
        "lat": "21.56302",
        "lng": "105.00512"
    },
    {
        "country": "VN",
        "name": "Th\u00e0nh Ph? H\u00e0 Giang",
        "lat": "22.82333",
        "lng": "104.98357"
    },
    {
        "country": "VN",
        "name": "H\u00e0 \u00d0\u00f4ng",
        "lat": "20.97136",
        "lng": "105.77876"
    },
    {
        "country": "VN",
        "name": "G\u00f2 Quao",
        "lat": "9.7332",
        "lng": "105.27393"
    },
    {
        "country": "VN",
        "name": "Gi?ng Ri?ng",
        "lat": "9.90974",
        "lng": "105.31433"
    },
    {
        "country": "VN",
        "name": "Gio Linh",
        "lat": "16.9248",
        "lng": "107.08438"
    },
    {
        "country": "VN",
        "name": "Gia Nghia",
        "lat": "12.00423",
        "lng": "107.69074"
    },
    {
        "country": "VN",
        "name": "Duy Xuy\u00ean",
        "lat": "15.82898",
        "lng": "108.25956"
    },
    {
        "country": "VN",
        "name": "\u00d0uc Tr?ng",
        "lat": "11.73559",
        "lng": "108.3733"
    },
    {
        "country": "VN",
        "name": "\u00d0?c Th?",
        "lat": "18.53957",
        "lng": "105.58302"
    },
    {
        "country": "VN",
        "name": "\u00d0?c Phong",
        "lat": "11.81346",
        "lng": "107.24433"
    },
    {
        "country": "VN",
        "name": "Pho Duc",
        "lat": "14.81355",
        "lng": "108.95931"
    },
    {
        "country": "VN",
        "name": "Tram de Dak Mil",
        "lat": "12.44957",
        "lng": "107.62237"
    },
    {
        "country": "VN",
        "name": "La Hai",
        "lat": "13.37732",
        "lng": "109.10807"
    },
    {
        "country": "VN",
        "name": "Don Luan",
        "lat": "11.53495",
        "lng": "106.88324"
    },
    {
        "country": "VN",
        "name": "Th? Tr?n \u00d0?ng Van",
        "lat": "23.27841",
        "lng": "105.36291"
    },
    {
        "country": "VN",
        "name": "\u00d0?ng M?",
        "lat": "21.65701",
        "lng": "106.57832"
    },
    {
        "country": "VN",
        "name": "Th? Tr?n \u00d0\u00f4ng Kh\u00ea",
        "lat": "22.42939",
        "lng": "106.43194"
    },
    {
        "country": "VN",
        "name": "Kwang Binh",
        "lat": "17.46885",
        "lng": "106.62226"
    },
    {
        "country": "VN",
        "name": "\u00d0\u00f4ng H\u00e0",
        "lat": "16.81625",
        "lng": "107.10031"
    },
    {
        "country": "VN",
        "name": "Anh Son",
        "lat": "18.96961",
        "lng": "105.05505"
    },
    {
        "country": "VN",
        "name": "\u00d0oan H\u00f9ng",
        "lat": "21.62254",
        "lng": "105.18462"
    },
    {
        "country": "VN",
        "name": "\u00d0\u00ecnh L?p",
        "lat": "21.54633",
        "lng": "107.09812"
    },
    {
        "country": "VN",
        "name": "Di Linh",
        "lat": "11.58153",
        "lng": "108.07641"
    },
    {
        "country": "VN",
        "name": "Di\u00ean Kh\u00e1nh",
        "lat": "12.2549",
        "lng": "109.09332"
    },
    {
        "country": "VN",
        "name": "Di?n Ch\u00e2u",
        "lat": "18.97652",
        "lng": "105.60034"
    },
    {
        "country": "VN",
        "name": "Dien Bien Phu",
        "lat": "21.38602",
        "lng": "103.02301"
    },
    {
        "country": "VN",
        "name": "Quang Nam",
        "lat": "15.88853",
        "lng": "108.25447"
    },
    {
        "country": "VN",
        "name": "Giemdiem",
        "lat": "20.55832",
        "lng": "106.56882"
    },
    {
        "country": "VN",
        "name": "Di An",
        "lat": "10.90682",
        "lng": "106.7694"
    },
    {
        "country": "VN",
        "name": "D?u Ti?ng",
        "lat": "11.2741",
        "lng": "106.35879"
    },
    {
        "country": "VN",
        "name": "Phuoc Tho",
        "lat": "10.49093",
        "lng": "107.27014"
    },
    {
        "country": "VN",
        "name": "Da Nang",
        "lat": "16.06778",
        "lng": "108.22083"
    },
    {
        "country": "VN",
        "name": "\u00d0\u00e0 L?t",
        "lat": "11.94646",
        "lng": "108.44193"
    },
    {
        "country": "VN",
        "name": "\u00d0?k Song",
        "lat": "12.25518",
        "lng": "107.60924"
    },
    {
        "country": "VN",
        "name": "\u00d0?i L?c",
        "lat": "15.88214",
        "lng": "108.12092"
    },
    {
        "country": "VN",
        "name": "\u00d0?k T\u00f4",
        "lat": "14.66092",
        "lng": "107.8389"
    },
    {
        "country": "VN",
        "name": "C?ng Son",
        "lat": "13.04998",
        "lng": "108.97895"
    },
    {
        "country": "VN",
        "name": "C? Chi",
        "lat": "10.97333",
        "lng": "106.49325"
    },
    {
        "country": "VN",
        "name": "C? \u00d0?",
        "lat": "10.09377",
        "lng": "105.42916"
    },
    {
        "country": "VN",
        "name": "C\u00f4n Son",
        "lat": "8.68641",
        "lng": "106.60824"
    },
    {
        "country": "VN",
        "name": "Con Cu\u00f4ng",
        "lat": "19.04996",
        "lng": "104.88124"
    },
    {
        "country": "VN",
        "name": "Ch\u00fac Son",
        "lat": "20.92375",
        "lng": "105.70155"
    },
    {
        "country": "VN",
        "name": "Chu",
        "lat": "21.37379",
        "lng": "106.56649"
    },
    {
        "country": "VN",
        "name": "Chon Th\u00e0nh",
        "lat": "11.42821",
        "lng": "106.63536"
    },
    {
        "country": "VN",
        "name": "Ch? M?i",
        "lat": "21.88374",
        "lng": "105.77281"
    },
    {
        "country": "VN",
        "name": "Ch? M?i",
        "lat": "10.55123",
        "lng": "105.40441"
    },
    {
        "country": "VN",
        "name": "Ch? L\u00e1ch",
        "lat": "10.26032",
        "lng": "106.11892"
    },
    {
        "country": "VN",
        "name": "Gi?ng Tr\u00f4m",
        "lat": "10.15021",
        "lng": "106.50606"
    },
    {
        "country": "VN",
        "name": "Ch? G?o",
        "lat": "10.34984",
        "lng": "106.4634"
    },
    {
        "country": "VN",
        "name": "Ch? Chu",
        "lat": "21.90724",
        "lng": "105.64219"
    },
    {
        "country": "VN",
        "name": "Ch\u00ed Th?nh",
        "lat": "13.30845",
        "lng": "109.21522"
    },
    {
        "country": "VN",
        "name": "Chi N\u00ea",
        "lat": "20.49056",
        "lng": "105.778"
    },
    {
        "country": "VN",
        "name": "Huy?n Chi\u00eam H\u00f3a",
        "lat": "22.14413",
        "lng": "105.27277"
    },
    {
        "country": "VN",
        "name": "Cho Dok",
        "lat": "10.7",
        "lng": "105.11667"
    },
    {
        "country": "VN",
        "name": "C?u K\u00e8",
        "lat": "9.8724",
        "lng": "106.05497"
    },
    {
        "country": "VN",
        "name": "C?u Gi\u00e1t",
        "lat": "19.146",
        "lng": "105.63089"
    },
    {
        "country": "VN",
        "name": "C\u00e1t B\u00e0",
        "lat": "20.72779",
        "lng": "107.04819"
    },
    {
        "country": "VN",
        "name": "Cao Thu?ng",
        "lat": "21.38707",
        "lng": "106.12931"
    },
    {
        "country": "VN",
        "name": "Cao L\u00e3nh",
        "lat": "10.46017",
        "lng": "105.63294"
    },
    {
        "country": "VN",
        "name": "Th\u00e0nh Ph? Cao B?ng",
        "lat": "22.66568",
        "lng": "106.25786"
    },
    {
        "country": "VN",
        "name": "C?n Tho",
        "lat": "10.03711",
        "lng": "105.78825"
    },
    {
        "country": "VN",
        "name": "C?n Gi?",
        "lat": "10.41115",
        "lng": "106.95474"
    },
    {
        "country": "VN",
        "name": "C?n \u00d0u?c",
        "lat": "10.50966",
        "lng": "106.60308"
    },
    {
        "country": "VN",
        "name": "C?n Giu?c",
        "lat": "10.60857",
        "lng": "106.67135"
    },
    {
        "country": "VN",
        "name": "C?m Xuy\u00ean",
        "lat": "18.25029",
        "lng": "106.00132"
    },
    {
        "country": "VN",
        "name": "C?m Th?y",
        "lat": "20.20866",
        "lng": "105.4695"
    },
    {
        "country": "VN",
        "name": "Cam Ranh",
        "lat": "11.92144",
        "lng": "109.15913"
    },
    {
        "country": "VN",
        "name": "C?m Ph? Mines",
        "lat": "21.01667",
        "lng": "107.3"
    },
    {
        "country": "VN",
        "name": "C?m Ph?",
        "lat": "21.01004",
        "lng": "107.27345"
    },
    {
        "country": "VN",
        "name": "Cam L?",
        "lat": "16.80797",
        "lng": "106.99405"
    },
    {
        "country": "VN",
        "name": "C\u00e0 Mau",
        "lat": "9.17682",
        "lng": "105.15242"
    },
    {
        "country": "VN",
        "name": "C\u00e1i T\u00e0u H?",
        "lat": "10.25973",
        "lng": "105.87044"
    },
    {
        "country": "VN",
        "name": "C\u00e1i Rang",
        "lat": "10.0009",
        "lng": "105.75095"
    },
    {
        "country": "VN",
        "name": "C\u00e1i Nu?c",
        "lat": "8.94231",
        "lng": "105.01411"
    },
    {
        "country": "VN",
        "name": "C\u00e1i Nhum",
        "lat": "10.17412",
        "lng": "106.11051"
    },
    {
        "country": "VN",
        "name": "Bu\u00f4n Tr?p",
        "lat": "12.48478",
        "lng": "108.02982"
    },
    {
        "country": "VN",
        "name": "Bu\u00f4n Ma Thu?t",
        "lat": "12.66747",
        "lng": "108.03775"
    },
    {
        "country": "VN",
        "name": "Ho\u00e0n L\u00e3o",
        "lat": "17.58436",
        "lng": "106.53425"
    },
    {
        "country": "VN",
        "name": "B?ng Son",
        "lat": "14.42907",
        "lng": "109.0156"
    },
    {
        "country": "VN",
        "name": "B\u00f9 \u00d0?p",
        "lat": "11.95486",
        "lng": "106.80018"
    },
    {
        "country": "VN",
        "name": "B\u00ecnh Th?y",
        "lat": "10.07431",
        "lng": "105.73974"
    },
    {
        "country": "VN",
        "name": "B\u00ecnh Son",
        "lat": "15.29776",
        "lng": "108.76124"
    },
    {
        "country": "VN",
        "name": "B\u00ecnh Gia",
        "lat": "21.96094",
        "lng": "106.36448"
    },
    {
        "country": "VN",
        "name": "B\u00ecnh \u00d0?i",
        "lat": "10.18964",
        "lng": "106.69149"
    },
    {
        "country": "VN",
        "name": "T\u00e2n T\u00fac",
        "lat": "10.69541",
        "lng": "106.59128"
    },
    {
        "country": "VN",
        "name": "B?m Son",
        "lat": "20.07806",
        "lng": "105.86028"
    },
    {
        "country": "VN",
        "name": "Bi\u00ean H\u00f2a",
        "lat": "10.94469",
        "lng": "106.82432"
    },
    {
        "country": "VN",
        "name": "B?n Tre",
        "lat": "10.24147",
        "lng": "106.37585"
    },
    {
        "country": "VN",
        "name": "B?n C?u",
        "lat": "11.11051",
        "lng": "106.17924"
    },
    {
        "country": "VN",
        "name": "Ba Tri",
        "lat": "10.04427",
        "lng": "106.5902"
    },
    {
        "country": "VN",
        "name": "Ba To",
        "lat": "14.7636",
        "lng": "108.73223"
    },
    {
        "country": "VN",
        "name": "Th? Tr?n Ph? R\u00e0ng",
        "lat": "22.23429",
        "lng": "104.47643"
    },
    {
        "country": "VN",
        "name": "B?o L?c",
        "lat": "11.54798",
        "lng": "107.80772"
    },
    {
        "country": "VN",
        "name": "Th? Tr?n B?o L?c",
        "lat": "22.94924",
        "lng": "105.68046"
    },
    {
        "country": "VN",
        "name": "B?n Y\u00ean Nh\u00e2n",
        "lat": "20.93653",
        "lng": "106.05711"
    },
    {
        "country": "VN",
        "name": "\u00cdt Ong",
        "lat": "21.5175",
        "lng": "104.02701"
    },
    {
        "country": "VN",
        "name": "Th? Tr?n Thu?n Ch\u00e2u",
        "lat": "21.43849",
        "lng": "103.69"
    },
    {
        "country": "VN",
        "name": "B?c Y\u00ean",
        "lat": "21.24626",
        "lng": "104.43281"
    },
    {
        "country": "VN",
        "name": "B?c Son",
        "lat": "21.89999",
        "lng": "106.32077"
    },
    {
        "country": "VN",
        "name": "B?c Ninh",
        "lat": "21.18608",
        "lng": "106.07631"
    },
    {
        "country": "VN",
        "name": "Th\u00e0nh ph? B?c Li\u00eau",
        "lat": "9.29414",
        "lng": "105.72776"
    },
    {
        "country": "VN",
        "name": "B?c H\u00e0",
        "lat": "22.53911",
        "lng": "104.29305"
    },
    {
        "country": "VN",
        "name": "B?c Giang",
        "lat": "21.27307",
        "lng": "106.1946"
    },
    {
        "country": "VN",
        "name": "B?c K?n",
        "lat": "22.14701",
        "lng": "105.83481"
    },
    {
        "country": "VN",
        "name": "T\u00e2n Tr?",
        "lat": "10.51271",
        "lng": "106.50762"
    },
    {
        "country": "VN",
        "name": "?p T\u00e2n Ng\u00e3i",
        "lat": "10.23333",
        "lng": "106.28333"
    },
    {
        "country": "VN",
        "name": "An H\u00f2a",
        "lat": "10.29693",
        "lng": "105.74435"
    },
    {
        "country": "VN",
        "name": "An Nhon",
        "lat": "13.88579",
        "lng": "109.10823"
    },
    {
        "country": "VN",
        "name": "An L\u00e3o",
        "lat": "14.61241",
        "lng": "108.8899"
    },
    {
        "country": "VN",
        "name": "An Duong",
        "lat": "20.86382",
        "lng": "106.6133"
    },
    {
        "country": "VN",
        "name": "An Ch\u00e2u",
        "lat": "21.33465",
        "lng": "106.84934"
    },
    {
        "country": "VN",
        "name": "An Bi\u00ean",
        "lat": "9.81532",
        "lng": "105.06366"
    },
    {
        "country": "VN",
        "name": "A Lu?i",
        "lat": "16.27228",
        "lng": "107.23385"
    },
    {
        "country": "VN",
        "name": "Qu?n B?y",
        "lat": "10.7118",
        "lng": "106.73643"
    },
    {
        "country": "VN",
        "name": "Tam \u00d0i?p",
        "lat": "20.15635",
        "lng": "105.91737"
    },
    {
        "country": "VN",
        "name": "Ch\u00e2u Th\u00e0nh",
        "lat": "9.86989",
        "lng": "106.34939"
    },
    {
        "country": "VN",
        "name": "Uyen Hung",
        "lat": "11.08416",
        "lng": "106.78834"
    },
    {
        "country": "VN",
        "name": "Y\u00ean L?p",
        "lat": "21.34705",
        "lng": "105.05739"
    },
    {
        "country": "VN",
        "name": "Thanh Ba",
        "lat": "21.49881",
        "lng": "105.14104"
    },
    {
        "country": "VN",
        "name": "S\u00f4ng Thao",
        "lat": "21.4213",
        "lng": "105.13374"
    },
    {
        "country": "VN",
        "name": "Hung H\u00f3a",
        "lat": "21.25487",
        "lng": "105.2953"
    },
    {
        "country": "VN",
        "name": "Phong Ch\u00e2u",
        "lat": "21.4068",
        "lng": "105.31228"
    },
    {
        "country": "VN",
        "name": "Th? Tr?n T\u00e2n Y\u00ean",
        "lat": "22.0655",
        "lng": "105.0345"
    },
    {
        "country": "VN",
        "name": "T\u00e2n Vi?t",
        "lat": "22.86407",
        "lng": "105.45905"
    },
    {
        "country": "VN",
        "name": "P\u00e1c Mi?u",
        "lat": "22.82968",
        "lng": "105.49334"
    },
    {
        "country": "VN",
        "name": "L?p Th?ch",
        "lat": "21.41539",
        "lng": "105.46081"
    },
    {
        "country": "VN",
        "name": "An Ch\u00e2u",
        "lat": "10.44559",
        "lng": "105.38622"
    },
    {
        "country": "VN",
        "name": "N\u00fai S?p",
        "lat": "10.26478",
        "lng": "105.26676"
    },
    {
        "country": "VN",
        "name": "T?m Vu",
        "lat": "10.44114",
        "lng": "106.46793"
    },
    {
        "country": "VN",
        "name": "Gia B\u00ecnh",
        "lat": "21.05938",
        "lng": "106.17468"
    },
    {
        "country": "VN",
        "name": "Th?a",
        "lat": "21.01937",
        "lng": "106.20044"
    },
    {
        "country": "VN",
        "name": "Ch?",
        "lat": "21.19491",
        "lng": "105.95471"
    },
    {
        "country": "VN",
        "name": "Ph? M?i",
        "lat": "21.15328",
        "lng": "106.15164"
    },
    {
        "country": "VN",
        "name": "H?",
        "lat": "21.06308",
        "lng": "106.0857"
    },
    {
        "country": "VN",
        "name": "Lim",
        "lat": "21.14388",
        "lng": "106.02018"
    },
    {
        "country": "VN",
        "name": "Cung Ki?m",
        "lat": "21.18697",
        "lng": "106.16076"
    },
    {
        "country": "VN",
        "name": "Th? Tr?n G\u00e0nh H\u00e0o",
        "lat": "9.03183",
        "lng": "105.42115"
    },
    {
        "country": "VN",
        "name": "Th? Tr?n Ngan D?a",
        "lat": "9.56703",
        "lng": "105.45019"
    },
    {
        "country": "VN",
        "name": "Th? Tr?n Phu?c Long",
        "lat": "9.43753",
        "lng": "105.46217"
    },
    {
        "country": "VN",
        "name": "Th? Tr?n Gi\u00e1 Rai",
        "lat": "9.23789",
        "lng": "105.45524"
    },
    {
        "country": "VN",
        "name": "Th? Tr?n H\u00f2a B\u00ecnh",
        "lat": "9.28471",
        "lng": "105.62916"
    },
    {
        "country": "VN",
        "name": "C\u00e1i D?u",
        "lat": "10.57428",
        "lng": "105.24005"
    },
    {
        "country": "VN",
        "name": "C?u G?",
        "lat": "21.47679",
        "lng": "106.12653"
    },
    {
        "country": "VN",
        "name": "\u00d0?i Ng\u00f4",
        "lat": "21.30626",
        "lng": "106.38673"
    },
    {
        "country": "VN",
        "name": "Neo",
        "lat": "21.20048",
        "lng": "106.24739"
    },
    {
        "country": "VN",
        "name": "B\u00edch \u00d0?ng",
        "lat": "21.27421",
        "lng": "106.10069"
    },
    {
        "country": "VN",
        "name": "Th?ng",
        "lat": "21.35505",
        "lng": "105.98344"
    },
    {
        "country": "VN",
        "name": "B?c B?",
        "lat": "22.61206",
        "lng": "105.66707"
    },
    {
        "country": "VN",
        "name": "B?ng Lung",
        "lat": "22.15777",
        "lng": "105.59559"
    },
    {
        "country": "VN",
        "name": "Th? Tr?n Long \u00d0i?n",
        "lat": "10.48557",
        "lng": "107.21226"
    },
    {
        "country": "VN",
        "name": "Mu?ng Ch\u00e0",
        "lat": "21.76172",
        "lng": "103.09783"
    },
    {
        "country": "VN",
        "name": "Th? Tr?n T?a Ch\u00f9a",
        "lat": "21.85771",
        "lng": "103.3426"
    },
    {
        "country": "VN",
        "name": "\u00d0i?n Bi\u00ean \u00d0\u00f4ng",
        "lat": "21.29673",
        "lng": "103.22009"
    },
    {
        "country": "VN",
        "name": "Th? Tr?n \u00d0i?n Bi\u00ean",
        "lat": "21.2596",
        "lng": "103.0344"
    },
    {
        "country": "VN",
        "name": "Tam \u00d0u?ng",
        "lat": "22.31812",
        "lng": "103.62619"
    },
    {
        "country": "VN",
        "name": "Lai Ch\u00e2u",
        "lat": "22.39644",
        "lng": "103.45824"
    },
    {
        "country": "VN",
        "name": "Th? Tr?n Mu?ng T\u00e8",
        "lat": "22.38067",
        "lng": "102.82011"
    },
    {
        "country": "VN",
        "name": "Th? Tr?n Tam Son",
        "lat": "23.0674",
        "lng": "104.98926"
    },
    {
        "country": "VN",
        "name": "Th? Tr?n V? Xuy\u00ean",
        "lat": "22.66762",
        "lng": "104.98191"
    },
    {
        "country": "VN",
        "name": "Th? Tr?n Vi?t L\u00e2m",
        "lat": "22.62486",
        "lng": "104.95988"
    },
    {
        "country": "VN",
        "name": "Th? Tr?n Vi?t Quang",
        "lat": "22.41509",
        "lng": "104.80682"
    },
    {
        "country": "VN",
        "name": "Y\u00ean Ph\u00fa",
        "lat": "22.73223",
        "lng": "105.37145"
    },
    {
        "country": "VN",
        "name": "Th? Tr?n Vinh Quang",
        "lat": "22.74085",
        "lng": "104.67956"
    },
    {
        "country": "VN",
        "name": "Y\u00ean B\u00ecnh",
        "lat": "22.40989",
        "lng": "104.57949"
    },
    {
        "country": "VN",
        "name": "Th? Tr?n Th\u00f4ng N\u00f4ng",
        "lat": "22.7841",
        "lng": "105.9832"
    },
    {
        "country": "VN",
        "name": "Th? Tr?n Xu\u00e2n Ho\u00e0",
        "lat": "22.90243",
        "lng": "106.07737"
    },
    {
        "country": "VN",
        "name": "Th? Tr?n H\u00f9ng Qu?c",
        "lat": "22.82898",
        "lng": "106.32335"
    },
    {
        "country": "VN",
        "name": "Th? Tr?n Cao L?c",
        "lat": "21.8665",
        "lng": "106.76833"
    },
    {
        "country": "VN",
        "name": "Th? Tr?n Vinh L?c",
        "lat": "22.1436",
        "lng": "105.27192"
    },
    {
        "country": "VN",
        "name": "Son Th?nh",
        "lat": "21.56252",
        "lng": "104.5948"
    },
    {
        "country": "VN",
        "name": "C? Ph\u00fac",
        "lat": "21.75585",
        "lng": "104.82768"
    },
    {
        "country": "VN",
        "name": "Th? Tr?n Y\u00ean Th?",
        "lat": "22.11075",
        "lng": "104.76748"
    },
    {
        "country": "VN",
        "name": "Th? Tr?n Na Hang",
        "lat": "22.34917",
        "lng": "105.38241"
    },
    {
        "country": "VN",
        "name": "B\u00ecnh Minh",
        "lat": "10.06821",
        "lng": "105.82221"
    },
    {
        "country": "VN",
        "name": "An Ph\u00fa",
        "lat": "10.81591",
        "lng": "105.09038"
    },
    {
        "country": "VN",
        "name": "Ph\u00fa M?",
        "lat": "10.59236",
        "lng": "105.35573"
    },
    {
        "country": "VN",
        "name": "Th? Tr?n Ph\u00fa M?",
        "lat": "10.6036",
        "lng": "107.054"
    },
    {
        "country": "VN",
        "name": "B\u00e1t X\u00e1t",
        "lat": "22.54311",
        "lng": "103.88989"
    },
    {
        "country": "VN",
        "name": "H\u00e1t L\u00f3t",
        "lat": "21.19733",
        "lng": "104.10595"
    },
    {
        "country": "VN",
        "name": "Qu?ng Xuong",
        "lat": "19.72948",
        "lng": "105.78273"
    },
    {
        "country": "VN",
        "name": "N\u00f4ng C?ng",
        "lat": "19.62403",
        "lng": "105.64941"
    },
    {
        "country": "VN",
        "name": "Quan Son",
        "lat": "20.25909",
        "lng": "104.94521"
    },
    {
        "country": "VN",
        "name": "Y\u00ean C\u00e1t",
        "lat": "19.66327",
        "lng": "105.42854"
    },
    {
        "country": "VN",
        "name": "B\u00fat Son",
        "lat": "19.85797",
        "lng": "105.85482"
    },
    {
        "country": "VN",
        "name": "C\u00e0nh N\u00e0ng",
        "lat": "20.34803",
        "lng": "105.22881"
    },
    {
        "country": "VN",
        "name": "H?u L?c",
        "lat": "19.91444",
        "lng": "105.88615"
    },
    {
        "country": "VN",
        "name": "Tri?u Son",
        "lat": "19.81913",
        "lng": "105.60392"
    },
    {
        "country": "VN",
        "name": "Qu\u00e1n L\u00e0o",
        "lat": "19.97153",
        "lng": "105.65106"
    },
    {
        "country": "VN",
        "name": "H\u00e0 Trung",
        "lat": "20.01285",
        "lng": "105.85322"
    },
    {
        "country": "VN",
        "name": "R?ng Th\u00f4ng",
        "lat": "19.81906",
        "lng": "105.73279"
    },
    {
        "country": "VN",
        "name": "V?n H\u00e0",
        "lat": "19.88659",
        "lng": "105.67879"
    },
    {
        "country": "VN",
        "name": "\u00d0\u00e0 B?c",
        "lat": "20.87714",
        "lng": "105.25417"
    },
    {
        "country": "VN",
        "name": "Mu?ng Kh?n",
        "lat": "20.61441",
        "lng": "105.27948"
    },
    {
        "country": "VN",
        "name": "H\u00e0ng Tr?m",
        "lat": "20.39472",
        "lng": "105.6224"
    },
    {
        "country": "VN",
        "name": "Bo",
        "lat": "20.67264",
        "lng": "105.53625"
    },
    {
        "country": "VN",
        "name": "Luong Son",
        "lat": "20.87148",
        "lng": "105.52568"
    },
    {
        "country": "VN",
        "name": "K? Son",
        "lat": "20.88668",
        "lng": "105.35244"
    },
    {
        "country": "VN",
        "name": "Cao Phong",
        "lat": "20.70446",
        "lng": "105.32063"
    },
    {
        "country": "VN",
        "name": "Me",
        "lat": "20.34697",
        "lng": "105.83615"
    },
    {
        "country": "VN",
        "name": "Thi\u00ean T?n",
        "lat": "20.29905",
        "lng": "105.95198"
    },
    {
        "country": "VN",
        "name": "Y\u00ean Th?nh",
        "lat": "20.16245",
        "lng": "106.00697"
    },
    {
        "country": "VN",
        "name": "Xu\u00e2n Tru?ng",
        "lat": "20.29227",
        "lng": "106.33275"
    },
    {
        "country": "VN",
        "name": "Y\u00ean \u00d0?nh",
        "lat": "20.20145",
        "lng": "106.29578"
    },
    {
        "country": "VN",
        "name": "L\u00e2m",
        "lat": "20.32773",
        "lng": "106.01208"
    },
    {
        "country": "VN",
        "name": "G\u00f4i",
        "lat": "20.33335",
        "lng": "106.07826"
    },
    {
        "country": "VN",
        "name": "Nam Giang",
        "lat": "20.33322",
        "lng": "106.17754"
    },
    {
        "country": "VN",
        "name": "C? L?",
        "lat": "20.32336",
        "lng": "106.26584"
    },
    {
        "country": "VN",
        "name": "Qu?",
        "lat": "20.58064",
        "lng": "105.87266"
    },
    {
        "country": "VN",
        "name": "Vinh Tr?",
        "lat": "20.5602",
        "lng": "106.02812"
    },
    {
        "country": "VN",
        "name": "B\u00ecnh M?",
        "lat": "20.49121",
        "lng": "106.00955"
    },
    {
        "country": "VN",
        "name": "Thanh Luu",
        "lat": "20.47398",
        "lng": "105.95268"
    },
    {
        "country": "VN",
        "name": "Hung H\u00e0",
        "lat": "20.5904",
        "lng": "106.22445"
    },
    {
        "country": "VN",
        "name": "Vu Thu",
        "lat": "20.43671",
        "lng": "106.29116"
    },
    {
        "country": "VN",
        "name": "\u00d0\u00f4ng Hung",
        "lat": "20.55651",
        "lng": "106.35532"
    },
    {
        "country": "VN",
        "name": "Th\u00e0nh Ph? B\u00e0 R?a",
        "lat": "10.49629",
        "lng": "107.16841"
    },
    {
        "country": "VN",
        "name": "Th? Tr?n Tu?n Gi\u00e1o",
        "lat": "21.58992",
        "lng": "103.42179"
    },
    {
        "country": "VN",
        "name": "Mu?ng ?ng",
        "lat": "21.51993",
        "lng": "103.22294"
    },
    {
        "country": "VN",
        "name": "An L\u00e3o",
        "lat": "20.82294",
        "lng": "106.55575"
    },
    {
        "country": "VN",
        "name": "Ti\u00ean L\u00e3ng",
        "lat": "20.72464",
        "lng": "106.55391"
    },
    {
        "country": "VN",
        "name": "N\u00fai \u00d0?i",
        "lat": "20.75078",
        "lng": "106.66894"
    },
    {
        "country": "VN",
        "name": "Qu?ng H\u00e0",
        "lat": "21.4506",
        "lng": "107.75592"
    },
    {
        "country": "VN",
        "name": "Tr?i",
        "lat": "21.03141",
        "lng": "106.99101"
    },
    {
        "country": "VN",
        "name": "C\u00f4 T\u00f4",
        "lat": "20.97268",
        "lng": "107.76578"
    },
    {
        "country": "VN",
        "name": "Thanh Mi?n",
        "lat": "20.78714",
        "lng": "106.24623"
    },
    {
        "country": "VN",
        "name": "Nam S\u00e1ch",
        "lat": "20.99205",
        "lng": "106.33613"
    },
    {
        "country": "VN",
        "name": "Gia L?c",
        "lat": "20.86783",
        "lng": "106.3"
    },
    {
        "country": "VN",
        "name": "T? K?",
        "lat": "20.81914",
        "lng": "106.40661"
    },
    {
        "country": "VN",
        "name": "Thanh H\u00e0",
        "lat": "20.89816",
        "lng": "106.42612"
    },
    {
        "country": "VN",
        "name": "Ph\u00fa Th\u00e1i",
        "lat": "20.96278",
        "lng": "106.5095"
    },
    {
        "country": "VN",
        "name": "\u00d0u",
        "lat": "21.73847",
        "lng": "105.70388"
    },
    {
        "country": "VN",
        "name": "Huong Son",
        "lat": "21.46014",
        "lng": "105.97814"
    },
    {
        "country": "VN",
        "name": "Ch\u00f9a Hang",
        "lat": "21.62384",
        "lng": "105.84168"
    },
    {
        "country": "VN",
        "name": "Thanh Th?y",
        "lat": "21.17548",
        "lng": "105.28388"
    },
    {
        "country": "VN",
        "name": "L\u00e2m Thao",
        "lat": "21.3201",
        "lng": "105.29156"
    },
    {
        "country": "VN",
        "name": "M\u00ea Linh",
        "lat": "21.1831",
        "lng": "105.72041"
    },
    {
        "country": "VN",
        "name": "Vinh Tu?ng",
        "lat": "21.2165",
        "lng": "105.51249"
    },
    {
        "country": "VN",
        "name": "H?p H\u00f2a",
        "lat": "21.37525",
        "lng": "105.54256"
    },
    {
        "country": "VN",
        "name": "Van Giang",
        "lat": "20.94301",
        "lng": "105.93119"
    },
    {
        "country": "VN",
        "name": "Y\u00ean M?",
        "lat": "20.88557",
        "lng": "106.0356"
    },
    {
        "country": "VN",
        "name": "Kho\u00e1i Ch\u00e2u",
        "lat": "20.83912",
        "lng": "105.97755"
    },
    {
        "country": "VN",
        "name": "Luong B?ng",
        "lat": "20.74003",
        "lng": "106.05998"
    },
    {
        "country": "VN",
        "name": "\u00c2n Thi",
        "lat": "20.81835",
        "lng": "106.09118"
    },
    {
        "country": "VN",
        "name": "Tr?n Cao",
        "lat": "20.72952",
        "lng": "106.17971"
    },
    {
        "country": "VN",
        "name": "Vuong",
        "lat": "20.7011",
        "lng": "106.11751"
    },
    {
        "country": "VN",
        "name": "Li\u00ean Quan",
        "lat": "21.05723",
        "lng": "105.57919"
    },
    {
        "country": "VN",
        "name": "Ph\u00fac Th?",
        "lat": "21.10345",
        "lng": "105.54551"
    },
    {
        "country": "VN",
        "name": "Ph\u00f9ng",
        "lat": "21.08902",
        "lng": "105.65901"
    },
    {
        "country": "VN",
        "name": "Tr\u00f4i",
        "lat": "21.06953",
        "lng": "105.70646"
    },
    {
        "country": "VN",
        "name": "Qu?c Oai",
        "lat": "20.99019",
        "lng": "105.64088"
    },
    {
        "country": "VN",
        "name": "Thu?ng T\u00edn",
        "lat": "20.86874",
        "lng": "105.86125"
    },
    {
        "country": "VN",
        "name": "Ph\u00fa Xuy\u00ean",
        "lat": "20.74549",
        "lng": "105.91363"
    },
    {
        "country": "VN",
        "name": "\u00d0?i Nghia",
        "lat": "20.68667",
        "lng": "105.74471"
    },
    {
        "country": "VN",
        "name": "S\u00f3c Son",
        "lat": "21.25782",
        "lng": "105.84894"
    },
    {
        "country": "VN",
        "name": "\u00d0\u00f4ng Anh",
        "lat": "21.13962",
        "lng": "105.84926"
    },
    {
        "country": "VN",
        "name": "C?u Di?n",
        "lat": "21.03929",
        "lng": "105.76659"
    },
    {
        "country": "VN",
        "name": "Tr\u00e2u Qu?",
        "lat": "21.01951",
        "lng": "105.93694"
    },
    {
        "country": "VN",
        "name": "C?u Gi?y",
        "lat": "21.03228",
        "lng": "105.80073"
    },
    {
        "country": "VN",
        "name": "Thanh Xu\u00e2n",
        "lat": "20.99472",
        "lng": "105.79977"
    },
    {
        "country": "VN",
        "name": "\u00d0?ng \u00d0a",
        "lat": "21.02009",
        "lng": "105.83097"
    },
    {
        "country": "VN",
        "name": "Ho\u00e0n Ki?m",
        "lat": "21.02857",
        "lng": "105.85064"
    },
    {
        "country": "VN",
        "name": "Hai B\u00e0Trung",
        "lat": "21.01341",
        "lng": "105.84772"
    },
    {
        "country": "VN",
        "name": "Hung Nguy\u00ean",
        "lat": "18.67165",
        "lng": "105.62882"
    },
    {
        "country": "VN",
        "name": "Vu Quang",
        "lat": "18.38385",
        "lng": "105.5059"
    },
    {
        "country": "VN",
        "name": "Ngh\u00e8n",
        "lat": "18.45119",
        "lng": "105.77969"
    },
    {
        "country": "VN",
        "name": "\u00d0?ng L\u00ea",
        "lat": "17.88389",
        "lng": "106.02536"
    },
    {
        "country": "VN",
        "name": "Kr\u00f4ng Klang",
        "lat": "16.68906",
        "lng": "106.8874"
    },
    {
        "country": "VN",
        "name": "Khe Tre",
        "lat": "16.1691",
        "lng": "107.71793"
    },
    {
        "country": "VN",
        "name": "S?a",
        "lat": "16.57452",
        "lng": "107.51066"
    },
    {
        "country": "VN",
        "name": "Thanh Kh\u00ea",
        "lat": "16.0706",
        "lng": "108.19102"
    },
    {
        "country": "VN",
        "name": "C?m L?",
        "lat": "16.01771",
        "lng": "108.20381"
    },
    {
        "country": "VN",
        "name": "Son Tr\u00e0",
        "lat": "16.06068",
        "lng": "108.23256"
    },
    {
        "country": "VN",
        "name": "Li\u00ean Chi?u",
        "lat": "16.07272",
        "lng": "108.15815"
    },
    {
        "country": "VN",
        "name": "Ngu H\u00e0nh Son",
        "lat": "16.01618",
        "lng": "108.25335"
    },
    {
        "country": "VN",
        "name": "Prao",
        "lat": "15.92438",
        "lng": "107.64814"
    },
    {
        "country": "VN",
        "name": "Kh\u00e2m \u00d0?c",
        "lat": "15.44508",
        "lng": "107.79337"
    },
    {
        "country": "VN",
        "name": "N\u00fai Th\u00e0nh",
        "lat": "15.43194",
        "lng": "108.65946"
    },
    {
        "country": "VN",
        "name": "Ph\u00fa Ninh",
        "lat": "15.55473",
        "lng": "108.41142"
    },
    {
        "country": "VN",
        "name": "T\u00e2y Tr\u00e0",
        "lat": "15.16948",
        "lng": "108.35998"
    },
    {
        "country": "VN",
        "name": "L\u00fd Son",
        "lat": "15.37198",
        "lng": "109.11891"
    },
    {
        "country": "VN",
        "name": "\u00d0?k Glei",
        "lat": "15.08642",
        "lng": "107.73577"
    },
    {
        "country": "VN",
        "name": "Sa Th?y",
        "lat": "14.41377",
        "lng": "107.79339"
    },
    {
        "country": "VN",
        "name": "\u00d0?k H\u00e0",
        "lat": "14.51345",
        "lng": "107.92102"
    },
    {
        "country": "VN",
        "name": "\u00d0?k Rve",
        "lat": "14.50717",
        "lng": "108.2473"
    },
    {
        "country": "VN",
        "name": "Kon Pl\u00f4ng",
        "lat": "14.60064",
        "lng": "108.29088"
    },
    {
        "country": "VN",
        "name": "\u00d0ak \u00d0oa",
        "lat": "13.99501",
        "lng": "108.11207"
    },
    {
        "country": "VN",
        "name": "K Bang",
        "lat": "14.14453",
        "lng": "108.59908"
    },
    {
        "country": "VN",
        "name": "K\u00f4ng Chro",
        "lat": "13.77532",
        "lng": "108.52558"
    },
    {
        "country": "VN",
        "name": "Ia Pa",
        "lat": "13.53361",
        "lng": "108.45529"
    },
    {
        "country": "VN",
        "name": "A Yun Pa",
        "lat": "13.40025",
        "lng": "108.43503"
    },
    {
        "country": "VN",
        "name": "Chu S\u00ea",
        "lat": "13.69153",
        "lng": "108.08023"
    },
    {
        "country": "VN",
        "name": "Chu Pr\u00f4ng",
        "lat": "13.75684",
        "lng": "107.88624"
    },
    {
        "country": "VN",
        "name": "Chu Ty",
        "lat": "13.80507",
        "lng": "107.6961"
    },
    {
        "country": "VN",
        "name": "Ia Kha",
        "lat": "13.96242",
        "lng": "107.84484"
    },
    {
        "country": "VN",
        "name": "Ph\u00fa H\u00f2a",
        "lat": "14.10005",
        "lng": "107.96896"
    },
    {
        "country": "VN",
        "name": "Kon Dong",
        "lat": "14.03886",
        "lng": "108.25011"
    },
    {
        "country": "VN",
        "name": "Hai Ri\u00eang",
        "lat": "12.97908",
        "lng": "108.89732"
    },
    {
        "country": "VN",
        "name": "Ea S\u00fap",
        "lat": "13.06616",
        "lng": "107.88546"
    },
    {
        "country": "VN",
        "name": "Ea Drang",
        "lat": "13.2045",
        "lng": "108.21029"
    },
    {
        "country": "VN",
        "name": "Kr\u00f4ng Nang",
        "lat": "12.9517",
        "lng": "108.34425"
    },
    {
        "country": "VN",
        "name": "Qu?ng Ph\u00fa",
        "lat": "12.81965",
        "lng": "108.07738"
    },
    {
        "country": "VN",
        "name": "Ea Kar",
        "lat": "12.80816",
        "lng": "108.44901"
    },
    {
        "country": "VN",
        "name": "Kr\u00f4ng Kmar",
        "lat": "12.5045",
        "lng": "108.33288"
    },
    {
        "country": "VN",
        "name": "M\u2019\u00d0rak",
        "lat": "12.74624",
        "lng": "108.74281"
    },
    {
        "country": "VN",
        "name": "Kh\u00e1nh Vinh",
        "lat": "12.28355",
        "lng": "108.9047"
    },
    {
        "country": "VN",
        "name": "T\u00f4 H?p",
        "lat": "12.00582",
        "lng": "108.94868"
    },
    {
        "country": "VN",
        "name": "Cam L\u00e2m",
        "lat": "12.05398",
        "lng": "109.16004"
    },
    {
        "country": "VN",
        "name": "Ea T\u2019ling",
        "lat": "12.58904",
        "lng": "107.89578"
    },
    {
        "country": "VN",
        "name": "\u00d0?k M\u00e2m",
        "lat": "12.45789",
        "lng": "107.86246"
    },
    {
        "country": "VN",
        "name": "\u00d0inh Van",
        "lat": "11.78624",
        "lng": "108.24282"
    },
    {
        "country": "VN",
        "name": "Th?nh M?",
        "lat": "11.76165",
        "lng": "108.49473"
    },
    {
        "country": "VN",
        "name": "L?c Th?ng",
        "lat": "11.62836",
        "lng": "107.83508"
    },
    {
        "country": "VN",
        "name": "\u00d0?ng Nai",
        "lat": "11.57981",
        "lng": "107.36518"
    },
    {
        "country": "VN",
        "name": "\u00d0? T?h",
        "lat": "11.51148",
        "lng": "107.49092"
    },
    {
        "country": "VN",
        "name": "B\u00e1c \u00c1i",
        "lat": "11.84104",
        "lng": "108.90316"
    },
    {
        "country": "VN",
        "name": "T\u00e2n Son",
        "lat": "11.77521",
        "lng": "108.7848"
    },
    {
        "country": "VN",
        "name": "Phu?c D\u00e2n",
        "lat": "11.52696",
        "lng": "108.92996"
    },
    {
        "country": "VN",
        "name": "Kh\u00e1nh H?i",
        "lat": "11.59105",
        "lng": "109.04052"
    },
    {
        "country": "VN",
        "name": "Ch? L?u",
        "lat": "11.22158",
        "lng": "108.50707"
    },
    {
        "country": "VN",
        "name": "Ma L\u00e2m",
        "lat": "11.07297",
        "lng": "108.12997"
    },
    {
        "country": "VN",
        "name": "Thu?n Nam",
        "lat": "10.85004",
        "lng": "107.87864"
    },
    {
        "country": "VN",
        "name": "Ph\u00fa Qu\u00fd",
        "lat": "10.5166",
        "lng": "108.93292"
    },
    {
        "country": "VN",
        "name": "T\u00e2n Ph\u00fa",
        "lat": "11.27221",
        "lng": "107.43655"
    },
    {
        "country": "VN",
        "name": "Vinh An",
        "lat": "11.08901",
        "lng": "107.03516"
    },
    {
        "country": "VN",
        "name": "Th?ng Nh?t",
        "lat": "10.95055",
        "lng": "107.14571"
    },
    {
        "country": "VN",
        "name": "Long Kh\u00e1nh",
        "lat": "10.92655",
        "lng": "107.24783"
    },
    {
        "country": "VN",
        "name": "T\u00e2n Ph\u00fa",
        "lat": "11.45119",
        "lng": "106.86811"
    },
    {
        "country": "VN",
        "name": "T\u00e2n Ch\u00e2u",
        "lat": "11.55202",
        "lng": "106.17245"
    },
    {
        "country": "VN",
        "name": "T\u00e2n Bi\u00ean",
        "lat": "11.54441",
        "lng": "106.01161"
    },
    {
        "country": "VN",
        "name": "Ch\u00e2u Th\u00e0nh",
        "lat": "11.31167",
        "lng": "106.0295"
    },
    {
        "country": "VN",
        "name": "H\u00f2a Th\u00e0nh",
        "lat": "11.28696",
        "lng": "106.12936"
    },
    {
        "country": "VN",
        "name": "G\u00f2 D?u",
        "lat": "11.0885",
        "lng": "106.26346"
    },
    {
        "country": "VN",
        "name": "Duong Minh Ch\u00e2u",
        "lat": "11.38414",
        "lng": "106.23078"
    },
    {
        "country": "VN",
        "name": "T\u00e2n Hung",
        "lat": "10.83476",
        "lng": "105.66135"
    },
    {
        "country": "VN",
        "name": "Vinh Hung",
        "lat": "10.89067",
        "lng": "105.78495"
    },
    {
        "country": "VN",
        "name": "T\u00e2n Th?nh",
        "lat": "10.60666",
        "lng": "106.04714"
    },
    {
        "country": "VN",
        "name": "Th?nh H\u00f3a",
        "lat": "10.65744",
        "lng": "106.18081"
    },
    {
        "country": "VN",
        "name": "\u00d0\u00f4ng Th\u00e0nh",
        "lat": "10.89221",
        "lng": "106.30614"
    },
    {
        "country": "VN",
        "name": "H?u Nghia",
        "lat": "10.89434",
        "lng": "106.39695"
    },
    {
        "country": "VN",
        "name": "M? Phu?c",
        "lat": "10.47711",
        "lng": "106.19256"
    },
    {
        "country": "VN",
        "name": "T\u00e2n H\u00f2a",
        "lat": "10.31906",
        "lng": "106.71128"
    },
    {
        "country": "VN",
        "name": "Th? Mu?i M?t",
        "lat": "9.61144",
        "lng": "104.9465"
    },
    {
        "country": "VN",
        "name": "Sa R\u00e0i",
        "lat": "10.87016",
        "lng": "105.46583"
    },
    {
        "country": "VN",
        "name": "Long H?",
        "lat": "10.19281",
        "lng": "106.01229"
    },
    {
        "country": "VN",
        "name": "Duy\u00ean H?i",
        "lat": "9.63497",
        "lng": "106.49237"
    },
    {
        "country": "VN",
        "name": "Ch\u00e2u Th\u00e0nh",
        "lat": "10.30122",
        "lng": "106.35701"
    },
    {
        "country": "VN",
        "name": "Vinh Th?nh",
        "lat": "10.22263",
        "lng": "105.39841"
    },
    {
        "country": "VN",
        "name": "N\u00e0ng Mau",
        "lat": "9.75129",
        "lng": "105.53448"
    },
    {
        "country": "VN",
        "name": "Ng\u00e3 B?y",
        "lat": "9.81371",
        "lng": "105.82096"
    },
    {
        "country": "VN",
        "name": "Ng\u00e3 S\u00e1u",
        "lat": "9.92303",
        "lng": "105.80542"
    },
    {
        "country": "VN",
        "name": "M?t Ng\u00e0n",
        "lat": "9.92402",
        "lng": "105.62964"
    },
    {
        "country": "VN",
        "name": "C\u00f9 Lao Dung",
        "lat": "9.67314",
        "lng": "106.14874"
    },
    {
        "country": "VN",
        "name": "Ch\u00e2u Th\u00e0nh",
        "lat": "9.7007",
        "lng": "105.90202"
    },
    {
        "country": "VN",
        "name": "Hu?nh H?u Nghia",
        "lat": "9.63537",
        "lng": "105.81165"
    },
    {
        "country": "VN",
        "name": "U Minh",
        "lat": "9.41286",
        "lng": "104.97353"
    },
    {
        "country": "VN",
        "name": "Tr?n Van Th?i",
        "lat": "9.07713",
        "lng": "104.97914"
    },
    {
        "country": "VN",
        "name": "Ng?c Hi?n",
        "lat": "8.65724",
        "lng": "105.06021"
    },
    {
        "country": "VN",
        "name": "Qu?n Hai",
        "lat": "10.79156",
        "lng": "106.74948"
    },
    {
        "country": "VN",
        "name": "Qu?n Ch\u00edn",
        "lat": "10.8397",
        "lng": "106.77093"
    },
    {
        "country": "VN",
        "name": "Qu?n B?n",
        "lat": "10.76684",
        "lng": "106.70574"
    },
    {
        "country": "VN",
        "name": "Qu?n S\u00e1u",
        "lat": "10.7468",
        "lng": "106.64903"
    },
    {
        "country": "VN",
        "name": "Qu?n Nam",
        "lat": "10.75567",
        "lng": "106.66745"
    },
    {
        "country": "VN",
        "name": "Qu?n M?t",
        "lat": "10.78069",
        "lng": "106.69944"
    },
    {
        "country": "VN",
        "name": "Qu?n Ph\u00fa Nhu?n",
        "lat": "10.79475",
        "lng": "106.6763"
    },
    {
        "country": "VN",
        "name": "Qu?n T\u00e2n Ph\u00fa",
        "lat": "10.78379",
        "lng": "106.63704"
    },
    {
        "country": "VN",
        "name": "Qu?n Mu?i M?t",
        "lat": "10.76383",
        "lng": "106.64355"
    },
    {
        "country": "VN",
        "name": "Qu?n Mu?i",
        "lat": "10.76823",
        "lng": "106.66632"
    },
    {
        "country": "VN",
        "name": "Qu?n Ba",
        "lat": "10.77494",
        "lng": "106.68628"
    },
    {
        "country": "VN",
        "name": "Qu?n B\u00ecnh Th?nh",
        "lat": "10.80325",
        "lng": "106.69666"
    },
    {
        "country": "VN",
        "name": "Ho\u00e0ng Sa",
        "lat": "16.66657",
        "lng": "112.72541"
    }
]