[
    {
        "country": "YE",
        "name": "Da?asuways",
        "lat": "15.72389",
        "lng": "50.72944"
    },
    {
        "country": "YE",
        "name": "Ash Shi?r",
        "lat": "14.76026",
        "lng": "49.60537"
    },
    {
        "country": "YE",
        "name": "Al Ghaylah",
        "lat": "14.59583",
        "lng": "45.58333"
    },
    {
        "country": "YE",
        "name": "Judaydah",
        "lat": "15.07512",
        "lng": "45.29962"
    },
    {
        "country": "YE",
        "name": "?awran",
        "lat": "13.77436",
        "lng": "44.44196"
    },
    {
        "country": "YE",
        "name": "Najd al Juma\u2018i",
        "lat": "13.91581",
        "lng": "44.32414"
    },
    {
        "country": "YE",
        "name": "Z\u00b8almah al \u2018Ulya",
        "lat": "14.1023",
        "lng": "44.09404"
    },
    {
        "country": "YE",
        "name": "Suq ar Rubu\u2018",
        "lat": "14.51155",
        "lng": "44.01511"
    },
    {
        "country": "YE",
        "name": "Ash Shuqayrah",
        "lat": "13.13452",
        "lng": "43.78636"
    },
    {
        "country": "YE",
        "name": "Mashra\u2018ah",
        "lat": "13.53235",
        "lng": "43.99587"
    },
    {
        "country": "YE",
        "name": "Ar Rawnah",
        "lat": "13.75638",
        "lng": "43.80286"
    },
    {
        "country": "YE",
        "name": "Ar Ramadi",
        "lat": "13.95641",
        "lng": "43.78457"
    },
    {
        "country": "YE",
        "name": "Al A?ad",
        "lat": "14.25833",
        "lng": "43.64167"
    },
    {
        "country": "YE",
        "name": "A? ?il\u2018",
        "lat": "14.67199",
        "lng": "43.81827"
    },
    {
        "country": "YE",
        "name": "Suq Sirwa?",
        "lat": "15.44933",
        "lng": "45.01891"
    },
    {
        "country": "YE",
        "name": "Majzar",
        "lat": "15.85",
        "lng": "44.775"
    },
    {
        "country": "YE",
        "name": "Bidbadah",
        "lat": "15.425",
        "lng": "44.7"
    },
    {
        "country": "YE",
        "name": "Matwa?",
        "lat": "15.0676",
        "lng": "43.64213"
    },
    {
        "country": "YE",
        "name": "Suwayr",
        "lat": "16.1818",
        "lng": "43.60986"
    },
    {
        "country": "YE",
        "name": "Wa?arah",
        "lat": "15.71073",
        "lng": "43.48321"
    },
    {
        "country": "YE",
        "name": "Al Mirwa?",
        "lat": "15.47223",
        "lng": "43.42939"
    },
    {
        "country": "YE",
        "name": "Suq Shamar",
        "lat": "15.885",
        "lng": "43.36806"
    },
    {
        "country": "YE",
        "name": "Mustaba\u2019",
        "lat": "16.22816",
        "lng": "43.24895"
    },
    {
        "country": "YE",
        "name": "An Naz\u00b8ir",
        "lat": "16.90916",
        "lng": "43.26226"
    },
    {
        "country": "YE",
        "name": "At Tawilah",
        "lat": "15.49389",
        "lng": "43.74778"
    },
    {
        "country": "YE",
        "name": "Zinjibar",
        "lat": "13.12871",
        "lng": "45.38073"
    },
    {
        "country": "YE",
        "name": "Zarajah",
        "lat": "14.86692",
        "lng": "44.37868"
    },
    {
        "country": "YE",
        "name": "Az Zahir",
        "lat": "13.96667",
        "lng": "45.48333"
    },
    {
        "country": "YE",
        "name": "Zabid",
        "lat": "14.1951",
        "lng": "43.31518"
    },
    {
        "country": "YE",
        "name": "Yufrus",
        "lat": "13.45529",
        "lng": "43.94704"
    },
    {
        "country": "YE",
        "name": "Yarim",
        "lat": "14.29804",
        "lng": "44.37795"
    },
    {
        "country": "YE",
        "name": "Wash?ah",
        "lat": "16.30774",
        "lng": "43.41066"
    },
    {
        "country": "YE",
        "name": "Wa\u2018lan",
        "lat": "15.07021",
        "lng": "44.27641"
    },
    {
        "country": "YE",
        "name": "Dhi Jalal",
        "lat": "13.62378",
        "lng": "44.70754"
    },
    {
        "country": "YE",
        "name": "\u2018Usaylan",
        "lat": "15.03201",
        "lng": "45.82832"
    },
    {
        "country": "YE",
        "name": "\u2018Ubal",
        "lat": "14.98808",
        "lng": "43.54444"
    },
    {
        "country": "YE",
        "name": "Thamud",
        "lat": "17.29245",
        "lng": "49.91947"
    },
    {
        "country": "YE",
        "name": "Tarim",
        "lat": "16.05694",
        "lng": "48.99889"
    },
    {
        "country": "YE",
        "name": "Ta\u2018izz",
        "lat": "13.57952",
        "lng": "44.02091"
    },
    {
        "country": "YE",
        "name": "As Suwayda",
        "lat": "13.78694",
        "lng": "45.2304"
    },
    {
        "country": "YE",
        "name": "Al \u2018Inan",
        "lat": "16.72189",
        "lng": "44.31252"
    },
    {
        "country": "YE",
        "name": "Abs",
        "lat": "16.00295",
        "lng": "43.19725"
    },
    {
        "country": "YE",
        "name": "Sif",
        "lat": "15.31389",
        "lng": "48.33"
    },
    {
        "country": "YE",
        "name": "Shi?an as Sufl\u00e1",
        "lat": "17.76999",
        "lng": "52.48925"
    },
    {
        "country": "YE",
        "name": "Shibam",
        "lat": "15.50943",
        "lng": "43.90445"
    },
    {
        "country": "YE",
        "name": "Ash Sharyah",
        "lat": "14.35659",
        "lng": "45.02244"
    },
    {
        "country": "YE",
        "name": "Sharas",
        "lat": "15.71233",
        "lng": "43.64925"
    },
    {
        "country": "YE",
        "name": "Shaharat al Ghis",
        "lat": "16.18411",
        "lng": "43.70228"
    },
    {
        "country": "YE",
        "name": "Sayyan",
        "lat": "15.17177",
        "lng": "44.32442"
    },
    {
        "country": "YE",
        "name": "Say?ut",
        "lat": "15.21056",
        "lng": "51.24556"
    },
    {
        "country": "YE",
        "name": "Sana\u2019",
        "lat": "15.4",
        "lng": "47.76667"
    },
    {
        "country": "YE",
        "name": "Sanaa",
        "lat": "15.35472",
        "lng": "44.20667"
    },
    {
        "country": "YE",
        "name": "Sa?ar",
        "lat": "15.31586",
        "lng": "44.30858"
    },
    {
        "country": "YE",
        "name": "Sah",
        "lat": "15.57722",
        "lng": "48.85056"
    },
    {
        "country": "YE",
        "name": "Sa'dah",
        "lat": "16.94021",
        "lng": "43.76393"
    },
    {
        "country": "YE",
        "name": "Ri?ab",
        "lat": "14.22762",
        "lng": "44.18814"
    },
    {
        "country": "YE",
        "name": "Rada\u2018",
        "lat": "14.4151",
        "lng": "44.83709"
    },
    {
        "country": "YE",
        "name": "Ar Raydah",
        "lat": "15.035",
        "lng": "50.47917"
    },
    {
        "country": "YE",
        "name": "Raydah",
        "lat": "15.81421",
        "lng": "44.04085"
    },
    {
        "country": "YE",
        "name": "Ru?um",
        "lat": "14.0851",
        "lng": "47.74314"
    },
    {
        "country": "YE",
        "name": "Qalansiyah",
        "lat": "12.68958",
        "lng": "53.48709"
    },
    {
        "country": "YE",
        "name": "Qishn",
        "lat": "15.42409",
        "lng": "51.67836"
    },
    {
        "country": "YE",
        "name": "Qa\u2018tabah",
        "lat": "13.85493",
        "lng": "44.7058"
    },
    {
        "country": "YE",
        "name": "Nisab",
        "lat": "14.50743",
        "lng": "46.49349"
    },
    {
        "country": "YE",
        "name": "Al Musaymir",
        "lat": "13.44389",
        "lng": "44.61528"
    },
    {
        "country": "YE",
        "name": "Mukayras",
        "lat": "13.94427",
        "lng": "45.67074"
    },
    {
        "country": "YE",
        "name": "Mudiyah",
        "lat": "13.9284",
        "lng": "46.08254"
    },
    {
        "country": "YE",
        "name": "Markaz Mudhaykirah",
        "lat": "13.88953",
        "lng": "43.9688"
    },
    {
        "country": "YE",
        "name": "Minwakh",
        "lat": "16.80035",
        "lng": "48.10854"
    },
    {
        "country": "YE",
        "name": "Mayfa\u2018ah",
        "lat": "14.27533",
        "lng": "47.58414"
    },
    {
        "country": "YE",
        "name": "Maidi",
        "lat": "16.32101",
        "lng": "42.81299"
    },
    {
        "country": "YE",
        "name": "Mawza\u2018",
        "lat": "13.26831",
        "lng": "43.50993"
    },
    {
        "country": "YE",
        "name": "Mawiyah",
        "lat": "13.58295",
        "lng": "44.34768"
    },
    {
        "country": "YE",
        "name": "Al Jawl",
        "lat": "14.45625",
        "lng": "48.28066"
    },
    {
        "country": "YE",
        "name": "Ma'rib",
        "lat": "15.46253",
        "lng": "45.32581"
    },
    {
        "country": "YE",
        "name": "Manakhah",
        "lat": "15.07422",
        "lng": "43.74156"
    },
    {
        "country": "YE",
        "name": "Mila?",
        "lat": "14.41617",
        "lng": "44.78622"
    },
    {
        "country": "YE",
        "name": "Al Mala?it",
        "lat": "16.76848",
        "lng": "43.27582"
    },
    {
        "country": "YE",
        "name": "Al Mafud",
        "lat": "15.34264",
        "lng": "47.25217"
    },
    {
        "country": "YE",
        "name": "Maf?aq",
        "lat": "15.10162",
        "lng": "43.90304"
    },
    {
        "country": "YE",
        "name": "Al Madid",
        "lat": "15.64453",
        "lng": "44.47337"
    },
    {
        "country": "YE",
        "name": "Ma\u2018bar",
        "lat": "14.79395",
        "lng": "44.29354"
    },
    {
        "country": "YE",
        "name": "Al Ma\u2018alla\u2019",
        "lat": "12.78987",
        "lng": "45.00244"
    },
    {
        "country": "YE",
        "name": "Lawdar",
        "lat": "13.88282",
        "lng": "45.86859"
    },
    {
        "country": "YE",
        "name": "La?ij",
        "lat": "13.05667",
        "lng": "44.88194"
    },
    {
        "country": "YE",
        "name": "Ku?lan \u2018Affar",
        "lat": "15.73309",
        "lng": "43.71902"
    },
    {
        "country": "YE",
        "name": "Ku\u2018aydinah",
        "lat": "15.82104",
        "lng": "43.3372"
    },
    {
        "country": "YE",
        "name": "Crater",
        "lat": "12.77522",
        "lng": "45.03862"
    },
    {
        "country": "YE",
        "name": "Kitaf",
        "lat": "17.03165",
        "lng": "44.10905"
    },
    {
        "country": "YE",
        "name": "Kilmia",
        "lat": "12.18576",
        "lng": "52.23332"
    },
    {
        "country": "YE",
        "name": "Khawr Maksar",
        "lat": "12.81227",
        "lng": "45.03337"
    },
    {
        "country": "YE",
        "name": "Khawrah",
        "lat": "14.43201",
        "lng": "46.15435"
    },
    {
        "country": "YE",
        "name": "Khamir",
        "lat": "15.98792",
        "lng": "43.95362"
    },
    {
        "country": "YE",
        "name": "Juban",
        "lat": "14.01164",
        "lng": "44.8746"
    },
    {
        "country": "YE",
        "name": "Ji?anah",
        "lat": "15.22628",
        "lng": "44.48244"
    },
    {
        "country": "YE",
        "name": "Jiblah",
        "lat": "13.92162",
        "lng": "44.14668"
    },
    {
        "country": "YE",
        "name": "Jawf al Maqbabah",
        "lat": "13.83783",
        "lng": "45.83488"
    },
    {
        "country": "YE",
        "name": "Ja\u2018ar",
        "lat": "13.223",
        "lng": "45.30559"
    },
    {
        "country": "YE",
        "name": "Ibb",
        "lat": "13.96667",
        "lng": "44.18333"
    },
    {
        "country": "YE",
        "name": "?uth",
        "lat": "16.23114",
        "lng": "43.96854"
    },
    {
        "country": "YE",
        "name": "As Salasil",
        "lat": "16.47959",
        "lng": "48.83153"
    },
    {
        "country": "YE",
        "name": "Al \u2018Abr",
        "lat": "16.1377",
        "lng": "47.23545"
    },
    {
        "country": "YE",
        "name": "?ays",
        "lat": "13.9317",
        "lng": "43.4831"
    },
    {
        "country": "YE",
        "name": "?ayfan",
        "lat": "13.31778",
        "lng": "44.28011"
    },
    {
        "country": "YE",
        "name": "?awf",
        "lat": "16.63383",
        "lng": "53.03368"
    },
    {
        "country": "YE",
        "name": "?aswayn",
        "lat": "15.59049",
        "lng": "52.10077"
    },
    {
        "country": "YE",
        "name": "?arib",
        "lat": "14.93156",
        "lng": "45.50356"
    },
    {
        "country": "YE",
        "name": "?ara?",
        "lat": "16.40965",
        "lng": "43.05883"
    },
    {
        "country": "YE",
        "name": "?ammam \u2018Ali",
        "lat": "14.66371",
        "lng": "44.14763"
    },
    {
        "country": "YE",
        "name": "?ajjah",
        "lat": "15.69425",
        "lng": "43.60582"
    },
    {
        "country": "YE",
        "name": "Madinat Lab\u2018us",
        "lat": "13.86667",
        "lng": "45.25"
    },
    {
        "country": "YE",
        "name": "Hadibu",
        "lat": "12.64881",
        "lng": "54.01895"
    },
    {
        "country": "YE",
        "name": "?abil al Jabr",
        "lat": "13.60422",
        "lng": "44.98578"
    },
    {
        "country": "YE",
        "name": "Al ?abilayn",
        "lat": "13.52002",
        "lng": "44.85076"
    },
    {
        "country": "YE",
        "name": "?abban",
        "lat": "14.35411",
        "lng": "47.07649"
    },
    {
        "country": "YE",
        "name": "?ababah",
        "lat": "15.54418",
        "lng": "43.87563"
    },
    {
        "country": "YE",
        "name": "Ghayl Ba Wazir",
        "lat": "14.77611",
        "lng": "49.36611"
    },
    {
        "country": "YE",
        "name": "Dhubab",
        "lat": "12.94305",
        "lng": "43.41025"
    },
    {
        "country": "YE",
        "name": "Dhi Na\u2018im",
        "lat": "14.10574",
        "lng": "45.44807"
    },
    {
        "country": "YE",
        "name": "Dhaybin",
        "lat": "15.97712",
        "lng": "44.12917"
    },
    {
        "country": "YE",
        "name": "Dhi as Sufal",
        "lat": "13.83446",
        "lng": "44.11469"
    },
    {
        "country": "YE",
        "name": "Dhamar",
        "lat": "14.54274",
        "lng": "44.40514"
    },
    {
        "country": "YE",
        "name": "?awran ad Daydah",
        "lat": "14.73927",
        "lng": "44.20664"
    },
    {
        "country": "YE",
        "name": "Dar an Nasr",
        "lat": "13.55821",
        "lng": "44.01635"
    },
    {
        "country": "YE",
        "name": "Burum",
        "lat": "14.36361",
        "lng": "48.97972"
    },
    {
        "country": "YE",
        "name": "Bayt \u2018Adhaqah",
        "lat": "15.61576",
        "lng": "43.70228"
    },
    {
        "country": "YE",
        "name": "As Suq al Jadid",
        "lat": "15.82496",
        "lng": "44.06204"
    },
    {
        "country": "YE",
        "name": "Bayt al Faqih",
        "lat": "14.51635",
        "lng": "43.32446"
    },
    {
        "country": "YE",
        "name": "Bay?an",
        "lat": "14.80067",
        "lng": "45.71889"
    },
    {
        "country": "YE",
        "name": "Bani ?ujjaj",
        "lat": "15.41683",
        "lng": "43.3193"
    },
    {
        "country": "YE",
        "name": "Bani Bakr",
        "lat": "13.93333",
        "lng": "45.26667"
    },
    {
        "country": "YE",
        "name": "Bajil",
        "lat": "15.05898",
        "lng": "43.28731"
    },
    {
        "country": "YE",
        "name": "Az Zuhrah",
        "lat": "15.72377",
        "lng": "42.99582"
    },
    {
        "country": "YE",
        "name": "Az Zaydiyah",
        "lat": "15.33049",
        "lng": "43.00633"
    },
    {
        "country": "YE",
        "name": "Az Zahir",
        "lat": "16.31733",
        "lng": "44.49505"
    },
    {
        "country": "YE",
        "name": "Al ?ajab",
        "lat": "14.85192",
        "lng": "45.52904"
    },
    {
        "country": "YE",
        "name": "Al \u2018Awabil",
        "lat": "13.83755",
        "lng": "44.86431"
    },
    {
        "country": "YE",
        "name": "At Turbah",
        "lat": "13.2127",
        "lng": "44.12415"
    },
    {
        "country": "YE",
        "name": "Al Tu?ayta\u2019",
        "lat": "14.18356",
        "lng": "43.22637"
    },
    {
        "country": "YE",
        "name": "At Tawahi",
        "lat": "12.78471",
        "lng": "44.9802"
    },
    {
        "country": "YE",
        "name": "Ataq",
        "lat": "14.53767",
        "lng": "46.83187"
    },
    {
        "country": "YE",
        "name": "As Sudah",
        "lat": "15.95861",
        "lng": "43.78083"
    },
    {
        "country": "YE",
        "name": "As Sayyani",
        "lat": "13.84266",
        "lng": "44.17395"
    },
    {
        "country": "YE",
        "name": "As Sawma\u2018ah",
        "lat": "14.08505",
        "lng": "45.80101"
    },
    {
        "country": "YE",
        "name": "Al Bilad",
        "lat": "16.13806",
        "lng": "49.29167"
    },
    {
        "country": "YE",
        "name": "As Sawadiyah",
        "lat": "14.30113",
        "lng": "45.22148"
    },
    {
        "country": "YE",
        "name": "As Salif",
        "lat": "15.30755",
        "lng": "42.67107"
    },
    {
        "country": "YE",
        "name": "Said",
        "lat": "14.33011",
        "lng": "46.87292"
    },
    {
        "country": "YE",
        "name": "As Safaqayn",
        "lat": "15.37922",
        "lng": "43.42046"
    },
    {
        "country": "YE",
        "name": "As Saddah",
        "lat": "14.1221",
        "lng": "44.42139"
    },
    {
        "country": "YE",
        "name": "Ash Shaykh \u2018Uthman",
        "lat": "12.87678",
        "lng": "44.99309"
    },
    {
        "country": "YE",
        "name": "Ash Shatt",
        "lat": "12.89357",
        "lng": "44.03571"
    },
    {
        "country": "YE",
        "name": "Ash Shahil",
        "lat": "15.86656",
        "lng": "43.40495"
    },
    {
        "country": "YE",
        "name": "Ash Shaghadirah",
        "lat": "15.62",
        "lng": "43.52056"
    },
    {
        "country": "YE",
        "name": "Asdas",
        "lat": "15.76601",
        "lng": "45.08151"
    },
    {
        "country": "YE",
        "name": "Marbat",
        "lat": "14.20567",
        "lng": "46.38811"
    },
    {
        "country": "YE",
        "name": "Ar Raw?ah",
        "lat": "15.43251",
        "lng": "44.22399"
    },
    {
        "country": "YE",
        "name": "Ar Raw?ah",
        "lat": "14.46725",
        "lng": "47.27638"
    },
    {
        "country": "YE",
        "name": "An Nadirah",
        "lat": "14.09628",
        "lng": "44.47559"
    },
    {
        "country": "YE",
        "name": "\u2018Amran",
        "lat": "15.6594",
        "lng": "43.94385"
    },
    {
        "country": "YE",
        "name": "\u2018Amd",
        "lat": "15.3",
        "lng": "47.98333"
    },
    {
        "country": "YE",
        "name": "Al Wuday\u2018",
        "lat": "13.7721",
        "lng": "46.01785"
    },
    {
        "country": "YE",
        "name": "Al \u2018Udayn",
        "lat": "13.96918",
        "lng": "43.99673"
    },
    {
        "country": "YE",
        "name": "Al Qur?",
        "lat": "16.73333",
        "lng": "51.48333"
    },
    {
        "country": "YE",
        "name": "Al Qanawis",
        "lat": "15.49285",
        "lng": "43.1343"
    },
    {
        "country": "YE",
        "name": "Al Qaflah",
        "lat": "16.31897",
        "lng": "43.76792"
    },
    {
        "country": "YE",
        "name": "Qaryat al Qabil",
        "lat": "15.45033",
        "lng": "44.12768"
    },
    {
        "country": "YE",
        "name": "Al Ma\u2018udah",
        "lat": "14.21055",
        "lng": "45.38732"
    },
    {
        "country": "YE",
        "name": "Al Munirah",
        "lat": "15.32251",
        "lng": "42.93005"
    },
    {
        "country": "YE",
        "name": "Al Mukalla",
        "lat": "14.54248",
        "lng": "49.12424"
    },
    {
        "country": "YE",
        "name": "Al Misrakh",
        "lat": "13.46059",
        "lng": "44.02043"
    },
    {
        "country": "YE",
        "name": "Al Mila?",
        "lat": "13.42611",
        "lng": "44.82556"
    },
    {
        "country": "YE",
        "name": "Al Mighlaf",
        "lat": "15.28772",
        "lng": "43.1891"
    },
    {
        "country": "YE",
        "name": "Markaz al Marir",
        "lat": "13.98178",
        "lng": "43.59547"
    },
    {
        "country": "YE",
        "name": "Al Marawi\u2018ah",
        "lat": "14.83069",
        "lng": "43.15391"
    },
    {
        "country": "YE",
        "name": "Al Mansuriyah",
        "lat": "14.6856",
        "lng": "43.29922"
    },
    {
        "country": "YE",
        "name": "Al Mansurah",
        "lat": "12.86019",
        "lng": "44.98166"
    },
    {
        "country": "YE",
        "name": "Al Makhadir",
        "lat": "14.12224",
        "lng": "44.19797"
    },
    {
        "country": "YE",
        "name": "Al Ma?wit",
        "lat": "15.47007",
        "lng": "43.54481"
    },
    {
        "country": "YE",
        "name": "Al Ma?fid",
        "lat": "14.05847",
        "lng": "46.91329"
    },
    {
        "country": "YE",
        "name": "Al Ma?abishah",
        "lat": "15.94758",
        "lng": "43.43587"
    },
    {
        "country": "YE",
        "name": "Al Madu",
        "lat": "13.85668",
        "lng": "44.8184"
    },
    {
        "country": "YE",
        "name": "Al Lu?ayyah",
        "lat": "15.70309",
        "lng": "42.69093"
    },
    {
        "country": "YE",
        "name": "Kirsh",
        "lat": "13.36473",
        "lng": "44.49046"
    },
    {
        "country": "YE",
        "name": "Al Khawkhah",
        "lat": "13.8071",
        "lng": "43.2493"
    },
    {
        "country": "YE",
        "name": "Al Jurbah",
        "lat": "13.7915",
        "lng": "45.15894"
    },
    {
        "country": "YE",
        "name": "Al Jarra?i",
        "lat": "14.13254",
        "lng": "43.38845"
    },
    {
        "country": "YE",
        "name": "Al ?usayn",
        "lat": "13.79199",
        "lng": "44.76886"
    },
    {
        "country": "YE",
        "name": "?uray?ah",
        "lat": "15.59861",
        "lng": "48.18278"
    },
    {
        "country": "YE",
        "name": "Al ?udaydah",
        "lat": "14.79781",
        "lng": "42.95452"
    },
    {
        "country": "YE",
        "name": "Al ?azm",
        "lat": "16.16406",
        "lng": "44.77692"
    },
    {
        "country": "YE",
        "name": "Al Qatan",
        "lat": "15.84056",
        "lng": "48.45556"
    },
    {
        "country": "YE",
        "name": "Al ?arf",
        "lat": "16.36395",
        "lng": "44.09421"
    },
    {
        "country": "YE",
        "name": "?ajar al Masha\u2019ikh",
        "lat": "16.13951",
        "lng": "47.8323"
    },
    {
        "country": "YE",
        "name": "Al Ghayz\u00b8ah",
        "lat": "16.20787",
        "lng": "52.17605"
    },
    {
        "country": "YE",
        "name": "Al Burayqah",
        "lat": "12.73944",
        "lng": "44.88417"
    },
    {
        "country": "YE",
        "name": "Al Bayda",
        "lat": "13.98523",
        "lng": "45.57272"
    },
    {
        "country": "YE",
        "name": "Al Batinah",
        "lat": "15.48333",
        "lng": "48.43333"
    },
    {
        "country": "YE",
        "name": "Al \u2018Aqir",
        "lat": "14.56816",
        "lng": "45.91156"
    },
    {
        "country": "YE",
        "name": "A?war",
        "lat": "13.52019",
        "lng": "46.71367"
    },
    {
        "country": "YE",
        "name": "Ad Durayhimi",
        "lat": "14.63702",
        "lng": "43.05505"
    },
    {
        "country": "YE",
        "name": "Ad Dis ash Sharqiyah",
        "lat": "14.9084",
        "lng": "49.94847"
    },
    {
        "country": "YE",
        "name": "Ad Dimnah",
        "lat": "13.45398",
        "lng": "44.18168"
    },
    {
        "country": "YE",
        "name": "Ad Dann",
        "lat": "14.3518",
        "lng": "43.85275"
    },
    {
        "country": "YE",
        "name": "Az\u00b8 Z\u00b8ali\u2018ah",
        "lat": "15.01667",
        "lng": "48.01667"
    },
    {
        "country": "YE",
        "name": "Dhalie",
        "lat": "13.69572",
        "lng": "44.73137"
    },
    {
        "country": "YE",
        "name": "Dhahi",
        "lat": "15.21518",
        "lng": "43.0702"
    },
    {
        "country": "YE",
        "name": "Markaz Bilad at Ta\u2018am",
        "lat": "14.83361",
        "lng": "43.53639"
    },
    {
        "country": "YE",
        "name": "Al Jum\u2018ah",
        "lat": "14.73779",
        "lng": "43.96489"
    },
    {
        "country": "YE",
        "name": "Al ?adiyah",
        "lat": "14.52638",
        "lng": "43.57045"
    },
    {
        "country": "YE",
        "name": "Kusmah",
        "lat": "14.58175",
        "lng": "43.63676"
    },
    {
        "country": "YE",
        "name": "Al Jabin",
        "lat": "14.70389",
        "lng": "43.59917"
    },
    {
        "country": "YE",
        "name": "Riqab",
        "lat": "14.88597",
        "lng": "43.46491"
    },
    {
        "country": "YE",
        "name": "As Sukhnah",
        "lat": "14.79408",
        "lng": "43.4362"
    },
    {
        "country": "YE",
        "name": "Ar Rujum",
        "lat": "15.45776",
        "lng": "43.63226"
    },
    {
        "country": "YE",
        "name": "Al Khamis",
        "lat": "15.18533",
        "lng": "43.51122"
    },
    {
        "country": "YE",
        "name": "Al \u2018Urr",
        "lat": "15.24648",
        "lng": "43.88836"
    },
    {
        "country": "YE",
        "name": "Al Maghrabah",
        "lat": "15.87722",
        "lng": "43.66667"
    },
    {
        "country": "YE",
        "name": "As Sararah",
        "lat": "15.79449",
        "lng": "43.86997"
    },
    {
        "country": "YE",
        "name": "An Nasirah",
        "lat": "15.77277",
        "lng": "43.80902"
    },
    {
        "country": "YE",
        "name": "Mabyan",
        "lat": "15.73773",
        "lng": "43.55701"
    },
    {
        "country": "YE",
        "name": "Matnah",
        "lat": "15.25333",
        "lng": "44.02472"
    },
    {
        "country": "YE",
        "name": "Al ?ayfah",
        "lat": "15.73494",
        "lng": "44.23788"
    },
    {
        "country": "YE",
        "name": "Bayt Marran",
        "lat": "15.69312",
        "lng": "44.2053"
    },
    {
        "country": "YE",
        "name": "Al Nashmah",
        "lat": "13.39028",
        "lng": "43.96833"
    },
    {
        "country": "YE",
        "name": "Al ?ashwah",
        "lat": "16.90641",
        "lng": "44.27622"
    },
    {
        "country": "YE",
        "name": "Saqayn",
        "lat": "16.877",
        "lng": "43.52499"
    },
    {
        "country": "YE",
        "name": "Al Ma?jal",
        "lat": "16.71169",
        "lng": "44.84769"
    },
    {
        "country": "YE",
        "name": "Rajuzah",
        "lat": "16.70056",
        "lng": "44.41454"
    },
    {
        "country": "YE",
        "name": "Al Khirab",
        "lat": "16.5544",
        "lng": "44.29048"
    },
    {
        "country": "YE",
        "name": "Al ?umaydat",
        "lat": "16.4844",
        "lng": "44.42934"
    },
    {
        "country": "YE",
        "name": "Al Madan",
        "lat": "16.22413",
        "lng": "43.64383"
    },
    {
        "country": "YE",
        "name": "Al \u2018Ashshah",
        "lat": "16.25652",
        "lng": "43.85476"
    },
    {
        "country": "YE",
        "name": "?isn Bani Sa\u2018d",
        "lat": "16.27293",
        "lng": "44.47728"
    },
    {
        "country": "YE",
        "name": "Al Matun",
        "lat": "16.23063",
        "lng": "44.58476"
    },
    {
        "country": "YE",
        "name": "Al Maslub",
        "lat": "16.18271",
        "lng": "44.62613"
    },
    {
        "country": "YE",
        "name": "Al Ghayl",
        "lat": "16.10774",
        "lng": "44.68005"
    },
    {
        "country": "YE",
        "name": "Al Jamimah",
        "lat": "16.01787",
        "lng": "43.59647"
    },
    {
        "country": "YE",
        "name": "?abur",
        "lat": "16.05097",
        "lng": "43.70699"
    },
    {
        "country": "YE",
        "name": "Ar Raw?",
        "lat": "16.06145",
        "lng": "44.81012"
    },
    {
        "country": "YE",
        "name": "Ar Rubu\u2018",
        "lat": "13.78024",
        "lng": "43.86901"
    },
    {
        "country": "YE",
        "name": "Maqbanah",
        "lat": "13.66394",
        "lng": "43.6873"
    },
    {
        "country": "YE",
        "name": "?ubah",
        "lat": "14.49052",
        "lng": "44.13108"
    },
    {
        "country": "YE",
        "name": "Ar Ra?a\u2018i",
        "lat": "14.01708",
        "lng": "44.39299"
    },
    {
        "country": "YE",
        "name": "Al Mayfa\u2019ah",
        "lat": "14.46392",
        "lng": "44.54866"
    },
    {
        "country": "YE",
        "name": "Ar Ra?mah",
        "lat": "14.21973",
        "lng": "44.58657"
    },
    {
        "country": "YE",
        "name": "?ammam Damt",
        "lat": "14.09031",
        "lng": "44.67006"
    },
    {
        "country": "YE",
        "name": "Zakhim",
        "lat": "14.29496",
        "lng": "44.68504"
    },
    {
        "country": "YE",
        "name": "Maswarah",
        "lat": "14.34399",
        "lng": "45.72623"
    },
    {
        "country": "YE",
        "name": "Tawr al Ba?ah",
        "lat": "13.18179",
        "lng": "44.29966"
    },
    {
        "country": "YE",
        "name": "Kushar",
        "lat": "16.15523",
        "lng": "43.42102"
    },
    {
        "country": "YE",
        "name": "Aslam",
        "lat": "16.05961",
        "lng": "43.32745"
    },
    {
        "country": "YE",
        "name": "?aydan",
        "lat": "16.77899",
        "lng": "43.43372"
    },
    {
        "country": "YE",
        "name": "Al Mifta?",
        "lat": "15.97431",
        "lng": "43.46381"
    },
    {
        "country": "YE",
        "name": "Aden",
        "lat": "12.77944",
        "lng": "45.03667"
    },
    {
        "country": "YE",
        "name": "Madghil",
        "lat": "15.59858",
        "lng": "45.04013"
    },
    {
        "country": "YE",
        "name": "Al ?arjah",
        "lat": "15.48869",
        "lng": "44.66573"
    },
    {
        "country": "YE",
        "name": "Bani al \u2018Awwam",
        "lat": "15.58119",
        "lng": "43.58727"
    },
    {
        "country": "YE",
        "name": "Bani an Nahari",
        "lat": "15.63981",
        "lng": "43.55633"
    },
    {
        "country": "YE",
        "name": "Al Hijrah",
        "lat": "17.29788",
        "lng": "43.38718"
    },
    {
        "country": "YE",
        "name": "Suq al Khamis",
        "lat": "17.18126",
        "lng": "43.28811"
    },
    {
        "country": "YE",
        "name": "Al Mashaf",
        "lat": "16.85836",
        "lng": "43.19781"
    },
    {
        "country": "YE",
        "name": "Al Kharab",
        "lat": "16.99129",
        "lng": "43.33888"
    },
    {
        "country": "YE",
        "name": "Al \u2018Ayn",
        "lat": "13.33005",
        "lng": "44.09208"
    },
    {
        "country": "YE",
        "name": "Qaryat ad Da\u2018is",
        "lat": "13.9877",
        "lng": "44.2749"
    },
    {
        "country": "YE",
        "name": "?azm al \u2018Udayn",
        "lat": "14.02743",
        "lng": "44.00526"
    },
    {
        "country": "YE",
        "name": "An Najd",
        "lat": "14.42152",
        "lng": "45.29596"
    },
    {
        "country": "YE",
        "name": "Ra?abah al Kawlah",
        "lat": "14.89574",
        "lng": "44.98918"
    },
    {
        "country": "YE",
        "name": "Al \u2018Amud",
        "lat": "14.72103",
        "lng": "45.20676"
    },
    {
        "country": "YE",
        "name": "Al \u2018Aqabah",
        "lat": "14.27179",
        "lng": "44.78699"
    },
    {
        "country": "YE",
        "name": "Al Qurayshiyah",
        "lat": "14.5122",
        "lng": "44.85358"
    },
    {
        "country": "YE",
        "name": "?awrah",
        "lat": "13.35751",
        "lng": "44.1458"
    },
    {
        "country": "YE",
        "name": "Ash Shawati",
        "lat": "16.78314",
        "lng": "43.81265"
    },
    {
        "country": "YE",
        "name": "Al ?amdi",
        "lat": "15.94727",
        "lng": "48.77965"
    },
    {
        "country": "YE",
        "name": "At Ta?aluf",
        "lat": "15.93786",
        "lng": "48.78641"
    },
    {
        "country": "YE",
        "name": "Su?ayl Shibam",
        "lat": "15.91448",
        "lng": "48.63864"
    },
    {
        "country": "YE",
        "name": "Al Khaniq",
        "lat": "15.50253",
        "lng": "44.18158"
    },
    {
        "country": "YE",
        "name": "Bi\u2019r ?at",
        "lat": "17.32197",
        "lng": "52.09566"
    },
    {
        "country": "YE",
        "name": "?adadah",
        "lat": "13.17535",
        "lng": "44.27461"
    },
    {
        "country": "YE",
        "name": "Rumah",
        "lat": "17.45532",
        "lng": "50.57789"
    },
    {
        "country": "YE",
        "name": "Al Shiruj",
        "lat": "14.68526",
        "lng": "47.76926"
    },
    {
        "country": "YE",
        "name": "Jawl al Majma\u2018",
        "lat": "14.93278",
        "lng": "47.02763"
    },
    {
        "country": "YE",
        "name": "Suq Siba?",
        "lat": "13.81436",
        "lng": "45.39229"
    },
    {
        "country": "YE",
        "name": "Al ?azm",
        "lat": "14.68919",
        "lng": "45.60962"
    },
    {
        "country": "YE",
        "name": "Al Aqta\u2018",
        "lat": "14.66217",
        "lng": "45.35123"
    },
    {
        "country": "YE",
        "name": "Baqim as Suq",
        "lat": "17.39713",
        "lng": "43.47743"
    },
    {
        "country": "YE",
        "name": "Matarah",
        "lat": "15.52591",
        "lng": "47.63339"
    },
    {
        "country": "YE",
        "name": "Khimar",
        "lat": "14.3198",
        "lng": "46.73922"
    },
    {
        "country": "YE",
        "name": "?abil ar Raydah",
        "lat": "13.6444",
        "lng": "44.85097"
    },
    {
        "country": "YE",
        "name": "Al \u2018Ulayb",
        "lat": "15.14747",
        "lng": "49.07325"
    },
    {
        "country": "YE",
        "name": "At Tal?",
        "lat": "15.156",
        "lng": "47.39903"
    },
    {
        "country": "YE",
        "name": "Sirar",
        "lat": "13.63778",
        "lng": "45.31371"
    },
    {
        "country": "YE",
        "name": "Khayran",
        "lat": "16.02191",
        "lng": "43.37859"
    },
    {
        "country": "YE",
        "name": "Al ?usun",
        "lat": "15.4739",
        "lng": "45.36691"
    },
    {
        "country": "YE",
        "name": "Jayshan",
        "lat": "14.25204",
        "lng": "46.17905"
    },
    {
        "country": "YE",
        "name": "As Salw",
        "lat": "13.32887",
        "lng": "44.21708"
    },
    {
        "country": "YE",
        "name": "Rasad",
        "lat": "13.71215",
        "lng": "45.30318"
    },
    {
        "country": "YE",
        "name": "Sa??ab",
        "lat": "15.60223",
        "lng": "44.0242"
    },
    {
        "country": "YE",
        "name": "Majz",
        "lat": "17.06939",
        "lng": "43.57507"
    },
    {
        "country": "YE",
        "name": "AL-khasha upper",
        "lat": "14.34044",
        "lng": "46.71365"
    },
    {
        "country": "YE",
        "name": "Al-Medy Village, ???? ?????",
        "lat": "14.40152",
        "lng": "43.79178"
    },
    {
        "country": "YE",
        "name": "Village of ALAMRAH",
        "lat": "13.74318",
        "lng": "43.72992"
    },
    {
        "country": "YE",
        "name": "Jadder Cemetery",
        "lat": "15.467",
        "lng": "44.17787"
    }
]